id;entity;name;address;schedule;longitude;latitude;services
1;UNIRED;UNIMARC LAS REJAS;LAS REJAS SUR 1279;Lun-Dom 09:00 a 20:00;-70.70507104166667;-33.46882000000001;Carga de tarjetas,Consulta de saldo, Activación de carga remota
2;UNIRED;UNIMARC JUAN ANTONIO RIOS;SALOMON SACK 351;Lun-Dom 09:00 a 20:00;-70.67080616666668;-33.419566666666654;Carga de tarjetas,Consulta de saldo, Activación de carga remota
3;UNIRED;UNIMARC-INDEPENDENCIA;AVDA. EL GUANACO 3100;Lun-Dom 09:00 a 20:00;-70.6578679616206;-33.3945915377861;Carga de tarjetas,Consulta de saldo, Activación de carga remota
4;UNIRED;UNIMARC LO OVALLE;GRAN AVENIDA 6555;Lun-Dom 09:00 a 20:00;-70.65963511904762;-33.516832083333334;Carga de tarjetas,Consulta de saldo, Activación de carga remota
5;UNIRED;UNIMARC VICUÑA PARAD 19;AVDA.VICUÑA MACKENNA 9090;Lun-Dom 09:00 a 20:00;-70.5914099988768;-33.5394802038029;Carga de tarjetas,Consulta de saldo, Activación de carga remota
6;UNIRED;UNIMARC ROJAS MAGALLANES;ROJAS MAGALLANES 3638;Lun-Dom 09:00 a 20:00;-70.5547798666583;-33.5359270019668;Carga de tarjetas,Consulta de saldo, Activación de carga remota
7;UNIRED;UNIMARC MIRADOR;VICUÑA MACKENNA ORIENTE 6331;Lun-Dom 09:00 a 20:00;-70.6071683333333;-33.513935000000004;Carga de tarjetas,Consulta de saldo, Activación de carga remota
8;UNIRED;UNIMARC VICENTE VALDES;VICENTE VALDES 087;Lun-Dom 09:00 a 20:00;-70.595128;-33.526600;Carga de tarjetas,Consulta de saldo, Activación de carga remota
9;UNIRED;UNIMARC LA REINA;PRINCIPE DE GALES 7271;Lun-Dom 09:00 a 20:00;-70.5566216661032;-33.439033930051;Carga de tarjetas,Consulta de saldo, Activación de carga remota
10;UNIRED;UNIMARC BATUCO;AVDA. FRANCIA 640;Lun-Dom 09:00 a 20:00;-70.80771748822639;-33.230514171094136;Carga de tarjetas,Consulta de saldo, Activación de carga remota
11;UNIRED;UNIMARC LARAPINTA;LOS HALCONES 2180;Lun-Dom 09:00 a 20:00;-70.86674258469635;-33.294249826808695;Carga de tarjetas,Consulta de saldo, Activación de carga remota
12;UNIRED;UNIMARC LAS CONDES;AVDA. LAS CONDES 14791;Lun-Dom 09:00 a 20:00;-70.4992863209999;-33.3671586729999;Carga de tarjetas,Consulta de saldo, Activación de carga remota
13;UNIRED;UNIMARC LOS MILITARES;MANQUEHUE NORTE 457;Lun-Dom 09:00 a 20:00;-70.569019;-33.403826;Carga de tarjetas,Consulta de saldo, Activación de carga remota
14;UNIRED;UNIMARC ESC. MILITAR;AVDA. APOQUINDO 4335;Lun-Dom 09:00 a 20:00;-70.5854137269988;-33.4151957807766;Carga de tarjetas,Consulta de saldo, Activación de carga remota
15;UNIRED;UNIMARC MANQUEHUE;MANQUEHUE 1700;Lun-Dom 09:00 a 20:00;-70.5638241520871;-33.4267767581412;Carga de tarjetas,Consulta de saldo, Activación de carga remota
16;UNIRED;UNIMARC LOS TRAPENSES;AVDA. JOSE ALCALDE DELANO 10497;Lun-Dom 09:00 a 20:00;-70.539645;-33.356825;Carga de tarjetas,Consulta de saldo, Activación de carga remota
17;UNIRED;UNIMARC 2da TRANSVERSAL MAIPU;SEGUNDA TRANSVERSAL 4090;Lun-Dom 09:00 a 20:00;-70.742400759;-33.488491715;Carga de tarjetas,Consulta de saldo, Activación de carga remota
18;UNIRED;UNIMARC EL ROSAL;AVENIDA EL ROSAL 6361;Lun-Dom 09:00 a 20:00;-70.755865037;-33.4790914719999;Carga de tarjetas,Consulta de saldo, Activación de carga remota
19;UNIRED;UNIMARC MAIPU 4 PONIENTE ;CUATRO PONIENTE 1197;Lun-Dom 09:00 a 20:00;-70.7929883333333;-33.5311133333333;Carga de tarjetas,Consulta de saldo, Activación de carga remota
20;UNIRED;UNIMARC SILVA CARVALLO;SILVA CARVALLO 1414;Lun-Dom 09:00 a 20:00;-70.7748811580075;-33.5317578837243;Carga de tarjetas,Consulta de saldo, Activación de carga remota
21;UNIRED;UNIMARC ABRAZO DE MAIPU;AVDA. JORGE GUERRA 16190;Lun-Dom 09:00 a 20:00;-70.77119666666665;-33.542105555555565;Carga de tarjetas,Consulta de saldo, Activación de carga remota
22;UNIRED;UNIMARC IGNACIO CARRERA PINTO;CAPITAN IGNACIO CARRERA PINTO 3857;Lun-Dom 09:00 a 20:00;-70.590836;-33.471126;Carga de tarjetas,Consulta de saldo, Activación de carga remota
23;UNIRED;UNIMARC IRARRAZAVAL;AVDA. IRARRAZAVAL 4354;Lun-Dom 09:00 a 20:00;-70.5832589036208;-33.454682812099;Carga de tarjetas,Consulta de saldo, Activación de carga remota
24;UNIRED;UNIMARC VILLA OLIMPICA;OBISPO ORREGO 1250;Lun-Dom 09:00 a 20:00;-70.620126539;-33.4622026659999;Carga de tarjetas,Consulta de saldo, Activación de carga remota
25;UNIRED;UNIMARC GRECIA;AVDA. GRECIA 320;Lun-Dom 09:00 a 20:00;-70.624774370013;-33.4570436385942;Carga de tarjetas,Consulta de saldo, Activación de carga remota
26;UNIRED;UNIMARC LOS LEONES;GENERAL JOSE ARTIGAS 3250;Lun-Dom 09:00 a 20:00;-70.5979928378057;-33.4492817398444;Carga de tarjetas,Consulta de saldo, Activación de carga remota
27;UNIRED;UNIMARC BUIN MAIPO;CAMINO BUIN MAIPO 3147;Lun-Dom 09:00 a 20:00;-70.775400;-33.731020;Carga de tarjetas,Consulta de saldo, Activación de carga remota
28;UNIRED;UNIMARC MANUEL MONTT;AVDA. IRARRAZAVAL 1740;Lun-Dom 09:00 a 20:00;-70.612909;-33.453171;Carga de tarjetas,Consulta de saldo, Activación de carga remota
29;UNIRED;UNIMARC CONSISTORIAL;AVDA. CONSISTORIAL 2701;Lun-Dom 09:00 a 20:00;-70.54804093749999;-33.48475083333333;Carga de tarjetas,Consulta de saldo, Activación de carga remota
30;UNIRED;UNIMARC FCO. BILBAO;BILBAO 2050;Lun-Dom 09:00 a 20:00;-70.60635638888888;-33.43787740740739;Carga de tarjetas,Consulta de saldo, Activación de carga remota
31;UNIRED;UNIMARC CIUDAD DE LOS VALLES;AVDA. EN CANAL 19591;Lun-Dom 09:00 a 20:00;-70.843834;-33.44899;Carga de tarjetas,Consulta de saldo, Activación de carga remota
32;UNIRED;UNIMARC CONCHA y TORO;AVDA. CONCHA Y TORO 3193;Lun-Dom 09:00 a 20:00;-70.5810930577196;-33.5810872192106;Carga de tarjetas,Consulta de saldo, Activación de carga remota
33;UNIRED;UNIMARC TRONCAL SAN FRANCISCO;AVDA. LAS NIEVES 02251;Lun-Dom 09:00 a 20:00;-70.55648055378825;-33.58999730657146;Carga de tarjetas,Consulta de saldo, Activación de carga remota
34;UNIRED;UNIMARC CARRASCAL;GONZALO BULNES 2407;Lun-Dom 09:00 a 20:00;-70.69770881268451;-33.41897606779182;Carga de tarjetas,Consulta de saldo, Activación de carga remota
35;UNIRED;UNIMARC BUIN;BALMACEDA 280;Lun-Dom 09:00 a 20:00;-70.739633;-33.732849;Carga de tarjetas,Consulta de saldo, Activación de carga remota
36;UNIRED;UNIMARC ALTO JAHUEL;MIRAFLORES 242;Lun-Dom 09:00 a 20:00;-70.68438;-33.735082;Carga de tarjetas,Consulta de saldo, Activación de carga remota
37;UNIRED;UNIMARC SAN JOAQUIN;SANTA ROSA 5320;Lun-Dom 09:00 a 20:00;-70.63829166666666;-33.5057238888889;Carga de tarjetas,Consulta de saldo, Activación de carga remota
38;UNIRED;UNIMARC GRAN AVENIDA 1;GRAN AVENIDA 5485 - 5620;Lun-Dom 09:00 a 20:00;-70.65522499999997;-33.50367933333334;Carga de tarjetas,Consulta de saldo, Activación de carga remota
39;UNIRED;UNIMARC ESTADO;ESTADO 85-93-95;Lun-Dom 09:00 a 20:00;-70.6490317802572;-33.44197592224275;Carga de tarjetas,Consulta de saldo, Activación de carga remota
40;UNIRED;UNIMARC ESPACIO M;COMPAÑIA 1214;Lun-Dom 09:00 a 20:00;-70.6540427730639;-33.4386299257484;Carga de tarjetas,Consulta de saldo, Activación de carga remota
41;UNIRED;UNIMARC RENCA BIGGER;AVDA. BRASIL 7073-7085;Lun-Dom 09:00 a 20:00;-70.7452052654659;-33.4003926036353;Carga de tarjetas,Consulta de saldo, Activación de carga remota
42;UNIRED;UNIMARC VITACURA;AVDA. VITACURA 4607;Lun-Dom 09:00 a 20:00;-70.58644919291348;-33.39845424503488;Carga de tarjetas,Consulta de saldo, Activación de carga remota
43;UNIRED;UNIMARC SANTA MARIA;SANTA MARIA 6940;Lun-Dom 09:00 a 20:00;-70.5685015296984;-33.37672678934954;Carga de tarjetas,Consulta de saldo, Activación de carga remota
44;UNIRED;UNIMARC PUDAHUEL;SAN PABLO 8315;Lun-Dom 09:00 a 20:00;-70.74089;-33.444551;Carga de tarjetas,Consulta de saldo, Activación de carga remota
45;UNIRED;UNIMARC HUECHURABA;AVDA. PEDRO FONTOVA 7626;Lun-Dom 09:00 a 20:00;-70.6702618902826;-33.3491351263854;Carga de tarjetas,Consulta de saldo, Activación de carga remota
46;UNIRED;UNIMARC PORTUGAL;PORTUGAL 579;Lun-Dom 09:00 a 20:00;-70.63514240599;-33.4492998960469;Carga de tarjetas,Consulta de saldo, Activación de carga remota
47;UNIRED;UNIMARC EL ABRAZO;CAMINO A MELIPILLA 16860;Lun-Dom 09:00 a 20:00;-70.780068;-33.543589;Carga de tarjetas,Consulta de saldo, Activación de carga remota
48;UNIRED;UNIMARC LOS DOMINICOS;AVDA. LOS DOMINICOS 8630;Lun-Dom 09:00 a 20:00;-70.5444439874589;-33.4097939366661;Carga de tarjetas,Consulta de saldo, Activación de carga remota
49;UNIRED;UNIMARC ALFEREZ REAL;MANUEL MONTT 1097 ESQUINA ALFEREZ REAL PISO -1;Lun-Dom 09:00 a 20:00;-70.615965752;-33.437514134;Carga de tarjetas,Consulta de saldo, Activación de carga remota
50;UNIRED;OK MARKET ELIODORO YAÑEZ;AVDA. PROVIDENCIA 753-759-763;Lun-Dom 09:00 a 20:00;-70.62545892622124;-33.43295613888134;Carga de tarjetas,Consulta de saldo, Activación de carga remota
51;UNIRED;OK MARKET EL RODEO;LA DEHESA 2035 LOCAL 3 y 4;Lun-Dom 09:00 a 20:00;-70.51831066;-33.35236727;Carga de tarjetas,Consulta de saldo, Activación de carga remota
52;UNIRED;Ok Market Ciudad Empresarial;AVENIDA SANTA CLARA 354, LOCALES 102 Y 107;Lun-Dom 09:00 a 20:00;-70.6144908536614;-33.3930467031672;Carga de tarjetas,Consulta de saldo, Activación de carga remota
53;UNIRED;Ok Market Brown Norte;AVDA. IRARRAZABAL ÑUÑOA 3674;Lun-Dom 09:00 a 20:00;-70.59221381482593;-33.45514363505319;Carga de tarjetas,Consulta de saldo, Activación de carga remota
54;UNIRED;Ok Market Macul;MACUL 3440;Lun-Dom 09:00 a 20:00;-70.5992514590774;-33.485831257858486;Carga de tarjetas,Consulta de saldo, Activación de carga remota
55;UNIRED;Ok Market Rosario Norte;ROSARIO NORTE 530, LOCALES 104, 105 Y106;Lun-Dom 09:00 a 20:00;-70.5730424247903;-33.4045172561425;Carga de tarjetas,Consulta de saldo, Activación de carga remota
56;UNIRED;Ok Market Tobalaba;AVENIDA PROVIDENCIA 2646 - 2658, LOCAL 16 PROVIDENCIA;Lun-Dom 09:00 a 20:00;-70.6021390378432;-33.418453013673;Carga de tarjetas,Consulta de saldo, Activación de carga remota
57;UNIRED;Ok Market Encomenderos;SAN SEBASTIÁN 2701;Lun-Dom 09:00 a 20:00;-70.6022430949566;-33.4166292576182;Carga de tarjetas,Consulta de saldo, Activación de carga remota
58;UNIRED;Ok Market Santa Blanca;JOSE ALCALDE DELANO 11293 ;Lun-Dom 09:00 a 20:00;-70.53240408856489;-33.355025553646236;Carga de tarjetas,Consulta de saldo, Activación de carga remota
59;UNIRED;Ok Market Los Ingleses;CAMINO CHICUREO KM 2 S/N;Lun-Dom 09:00 a 20:00;-70.6755224365375;-33.2861869796065;Carga de tarjetas,Consulta de saldo, Activación de carga remota
60;UNIRED;UNIMARC TALAGANTE;AVDA. BERNARDO O'HIGGINS 2259;Lun-Dom 09:00 a 20:00;-70.942314;-33.670833;Carga de tarjetas,Consulta de saldo, Activación de carga remota
61;WALMART;LIDER EXPRESS LYON;AV. NUEVA PROVIDENCIA 2249;Lun-Dom 08:30-22:30;-70.6081661556346;-33.4219538517412;Carga de tarjetas,Consulta de saldo, Activación de carga remota
62;WALMART;LIDER HIPER INDEPENDENCIA;AV. INDEPENDENCIA 4142;Lun-Dom y Fest. 08:30-22:00;-70.6755763593055;-33.3900453115187;Carga de tarjetas,Consulta de saldo, Activación de carga remota
63;WALMART;LIDER EXPRESS SANTO DOMINGO;SANTO DOMINGO 1031;Lun-Dom 08:30-22:30;-70.6516548119126;-33.4360880401112;Carga de tarjetas,Consulta de saldo, Activación de carga remota
64;WALMART;LIDER HIPER PUENTE ALTO;AV. CONCHA Y TORO 1149;Lun-Dom y Fest. 08:30-22:00;-70.5775013992747;-33.5994671217027;Carga de tarjetas,Consulta de saldo, Activación de carga remota
65;WALMART;LIDER EXPRESS HUERFANOS;HUERFANOS 827;Lun-Dom 08:30-22:30;-70.6485729715654;-33.4392619273105;Carga de tarjetas,Consulta de saldo, Activación de carga remota
66;WALMART;LIDER HIPER PUENTE NUEVO;AV. LAS CONDES 12916;"Lun-Sáb 08:00-22:00 Dom 09:00-22:00";-70.5124132700129;-33.3707159149033;Carga de tarjetas,Consulta de saldo, Activación de carga remota
67;WALMART;LIDER HIPER DEPARTAMENTAL;AV. AMERICO VESPUCIO 6325;"Lun-Sáb 08:30-22:00 Dom y Fest. 09:00-22:00";-70.591186;-33.510433;Carga de tarjetas,Consulta de saldo, Activación de carga remota
68;WALMART;LIDER EXPRESS SAN PABLO;SAN PABLO 2362;Lun-Dom 08:30-22:30;-70.6703095942928;-33.4351117170152;Carga de tarjetas,Consulta de saldo, Activación de carga remota
69;WALMART;LIDER EXPRESS VITACURA;AV. VITACURA 4100;Lun-Dom 08:30-22:30;-70.590576297215;-33.3998990540761;Carga de tarjetas,Consulta de saldo, Activación de carga remota
70;WALMART;LIDER EXPRESS MAIPU;AV. LOS PAJARITOS 1790;Lun-Dom 08:30-22:30;-70.7767871139999;-33.5102455959999;Carga de tarjetas,Consulta de saldo, Activación de carga remota
71;WALMART;LIDER EXPRESS NONATO COO;NONATO COO 3108;Lun-Dom 08:30-22:30;-70.5695087566837;-33.5781976112227;Carga de tarjetas,Consulta de saldo, Activación de carga remota
72;WALMART;LIDER EXPRESS PLAZA ITALIA;AV. RANCAGUA 0180;Lun-Dom 08:30-22:30;-70.6302176043761;-33.4408174704335;Carga de tarjetas,Consulta de saldo, Activación de carga remota
73;WALMART;LIDER HIPER IRARRAZAVAL;AV.IRARRAZAVAL 2928;"Lun-Sáb 08:00-22:00 Dom y Fest. 08:30-22:00 ";-70.6006210653509;-33.4547651690121;Carga de tarjetas,Consulta de saldo, Activación de carga remota
74;WALMART;LIDER EXPRESS LAS REJAS;AV.LIBERTADOR BERNARDO O'HIGGINS 5199;Lun-Dom 08:30-22:30;-70.7064214225571;-33.4571151736776;Carga de tarjetas,Consulta de saldo, Activación de carga remota
75;WALMART;LIDER EXPRESS PUENTE ALTO;AV. MEXICO 1598;Lun-Dom 08:30-22:30;-70.5592016467882;-33.5946574220441;Carga de tarjetas,Consulta de saldo, Activación de carga remota
76;WALMART;LIDER HIPER HUECHURABA;AV. AMERICO VESPUCIO 1737;"Lun-Jun 08:00-22:00 Vie-Sáb 08:00-22:30 Dom y Fest 08:00-22:00";-70.6778212680362;-33.3684386191972;Carga de tarjetas,Consulta de saldo, Activación de carga remota
77;WALMART;LIDER HIPER AV. CENTRAL;AV. LOS PAJARITOS 2689;"Lun-Sáb 08:00-22:00 Dom y Fest 09:00-22:00";-70.757311;-33.503596;Carga de tarjetas,Consulta de saldo, Activación de carga remota
78;WALMART;LIDER HIPER MAIPU;AV. LOS PAJARITOS 4500;Lun-Dom y Fest. 08:00-22:00;-70.7454617303113;-33.4815673499888;Carga de tarjetas,Consulta de saldo, Activación de carga remota
79;WALMART;LIDER HIPER QUILIN;AV. AMERICO VESPUCIO 3100;"Lun-Sáb 08:00-22:00 Dom y Fest. 08:30-22:00 ";-70.5793607501303;-33.4852339316205;Carga de tarjetas,Consulta de saldo, Activación de carga remota
80;WALMART;LIDER HIPER VESPUCIO MAIPU;AV. AMERICO VESPUCIO NORTE 1955;Lun-Dom 08:30-22:00;-70.7596833680178;-33.4715098425775;Carga de tarjetas,Consulta de saldo, Activación de carga remota
81;WALMART;LIDER HIPER CORDILLERA;AV. LOS TOROS 05441;Lun-Dom y Fest. 08:30-22:00;-70.5581064108238;-33.5664713042779;Carga de tarjetas,Consulta de saldo, Activación de carga remota
82;WALMART;LIDER HIPER VICUÑA MACKENNA;AV. VICUNA MACKENA 7196;Lun-Dom y Fest. 08:30-22:00;-70.6011757750608;-33.5207973280328;Carga de tarjetas,Consulta de saldo, Activación de carga remota
83;WALMART;LIDER HIPER MACUL;AV. JOSE PEDRO ALESSANDRI 2127;"Lun-Sáb 08:00-22:00 Dom y Fest. 08:30-22:00 ";-70.5989014600478;-33.4741531626615;Carga de tarjetas,Consulta de saldo, Activación de carga remota
84;WALMART;LIDER HIPER VITACURA;BUENAVENTURA 1770;"Lun-Sáb 07:30-22:00 Dom 08:30-22:00";-70.5681058850668;-33.3864876806606;Carga de tarjetas,Consulta de saldo, Activación de carga remota
85;WALMART;LIDER HIPER PLAZA VESPUCIO;AV. FROILAN ROA 7107;"Lun-Sáb 08:00-22:30 Dom y Fest 08:30-22:30";-70.6001898275732;-33.5145345077161;Carga de tarjetas,Consulta de saldo, Activación de carga remota
86;WALMART;LIDER EXPRESS COLON;AV. CUARTO CENTENARIO 1016;Lun-Dom 08:30-22:30;-70.5535460224003;-33.4177873910042;Carga de tarjetas,Consulta de saldo, Activación de carga remota
87;WALMART;LIDER EXPRESS LATADIA;AV. AMERICO VESPUCIO SUR 1790;Lun-Dom 08:30-22:30;-70.5746863701926;-33.428513593411;Carga de tarjetas,Consulta de saldo, Activación de carga remota
88;WALMART;LIDER HIPER TALAGANTE;AV. LIBERTADOR BERNARDO O'HIGGINS 807;"Lun-Sáb 08:00-22:00 Dom y Fest. 08:30-22:00 ";-70.9252302032062;-33.6623790828303;Carga de tarjetas,Consulta de saldo, Activación de carga remota
89;WALMART;LIDER EXPRESS P. DE VALDIVIA;AV. PEDRO DE VALDIVIA 1885;Lun-Dom 08:30-22:30;-70.6071853448527;-33.4400811646939;Carga de tarjetas,Consulta de saldo, Activación de carga remota
90;WALMART;LIDER EXPRESS ESTORIL;AV. LAS CONDES 10295;Lun-Dom 08:30-22:30;-70.5339438756033;-33.384250004664;Carga de tarjetas,Consulta de saldo, Activación de carga remota
91;WALMART;LIDER EXPRESS M. MONTT;AV. MANUEL MONTT 80;Lun-Dom 08:30-22:30;-70.6197662036586;-33.4293901179188;Carga de tarjetas,Consulta de saldo, Activación de carga remota
92;WALMART;LIDER EXPRESS TOBALABA;AV. LAS CAMELIAS 2875;Lun-Dom 08:30-22:30;-70.5978918739228;-33.4229235911053;Carga de tarjetas,Consulta de saldo, Activación de carga remota
93;WALMART;LIDER EXPRESS LA DEHESA;AV. EL RODEO 12850;Lun-Dom 08:30-22:30;-70.5207927126735;-33.352951786773;Carga de tarjetas,Consulta de saldo, Activación de carga remota
94;WALMART;LIDER EXPRESS APOQUINDO;AV. APOQUINDO 6060;Lun-Dom 08:30-22:30;-70.5679730326251;-33.4091874626127;Carga de tarjetas,Consulta de saldo, Activación de carga remota
95;WALMART;LIDER EXPRESS IRARRÁZAVAL;AV. IRARRAZAVAL 2401;Lun-Dom 08:30-22:30;-70.6061770801876;-33.4542041239829;Carga de tarjetas,Consulta de saldo, Activación de carga remota
96;WALMART;LIDER EXPRESS LOS DOMINICOS;AV. LA PLAZA 590;Lun-Dom 08:30-22:30;-70.498955;-33.390209;Carga de tarjetas,Consulta de saldo, Activación de carga remota
97;WALMART;LIDER EXPRESS PIEDRA ROJA;AV. CHICUREO S/N° SECTOR LAGUNA PIEDRA ROJA;Lun-Dom 08:30-22:30;-70.62877;-33.277328;Carga de tarjetas,Consulta de saldo, Activación de carga remota
98;WALMART;LIDER EXPRESS COLINA;CALLE LOS ALAMOS S/N LOTEO ESTANCIA DE LINRAY;Lun-Dom 08:30-22:30;-70.685467;-33.217646;Carga de tarjetas,Consulta de saldo, Activación de carga remota
99;WALMART;LIDER EXPRESS PEDRO FONTOVA;AV. PEDRO FONTOVA 7455;Lun-Dom 08:30-22:30;-70.6702707188651;-33.3517902688916;Carga de tarjetas,Consulta de saldo, Activación de carga remota
100;WALMART;LIDER EXPRESS PROVIDENCIA SANTA ISABEL;AV. SANTA ISABEL 0168;Lun-Dom 08:30-22:30;-70.628988552848;-33.4468024118991;Carga de tarjetas,Consulta de saldo, Activación de carga remota
101;WALMART;LIDER EXPRESS GRECIA;AV.GRECIA 245;Lun-Dom 08:30-22:30;-70.6271214907962;-33.4554512837419;Carga de tarjetas,Consulta de saldo, Activación de carga remota
102;WALMART;LIDER EXPRESS CONSISTORIAL;AV. EL CONSISTORIAL 3349;Lun-Dom 08:30-22:30;-70.5492605909738;-33.4879386719393;Carga de tarjetas,Consulta de saldo, Activación de carga remota
103;WALMART;LIDER EXPRESS ROJAS MAGALLANES;AV. SANCHEZ FONTECILLA 8968;Lun-Dom 08:30-22:30;-70.556435;-33.477818;Carga de tarjetas,Consulta de saldo, Activación de carga remota
104;WALMART;LIDER EXPRESS GRAN AVENIDA;GRAN AVENIDA JOSE MIGUEL CARRERA 4004;Lun-Dom 08:30-22:30;-70.6510015909072;-33.4901472285148;Carga de tarjetas,Consulta de saldo, Activación de carga remota
105;WALMART;LIDER EXPRESS CIUDAD DEL ESTE;AV. DIEGO PORTALES 06303;Lun-Dom 08:30-22:30;-70.554146;-33.558495;Carga de tarjetas,Consulta de saldo, Activación de carga remota
106;WALMART;LIDER EXPRESS 10 DE JULIO;AV. DIEZ DE JULIO 1625;Lun-Dom 08:30-22:30;-70.657264268817;-33.4543969124095;Carga de tarjetas,Consulta de saldo, Activación de carga remota
107;WALMART;LIDER EXPRESS SANTA ROSA;AV. SANTA ROSA 115;Lun-Dom 08:30-22:30;-70.6456432832749;-33.4454406991941;Carga de tarjetas,Consulta de saldo, Activación de carga remota
108;WALMART;LIDER HIPER LOS DOMINICOS;AV. CAMINO EL ALBA 11865;"Lun-Sáb 08:00-22:00 Dom 09:00-22:00";-70.5162602451958;-33.4010309606469;Carga de tarjetas,Consulta de saldo, Activación de carga remota
109;WALMART;LIDER EXPRESS MERCED;MERCED 560;Lun-Dom 08:30-22:30;-70.6450494877621;-33.4380244776321;Carga de tarjetas,Consulta de saldo, Activación de carga remota
110;WALMART;LIDER EXPRESS SAN MARTIN DOWN TOWN;SAN MARTIN 37;Lun-Dom 08:30-22:30;-70.6573316939999;-33.4442484746824;Carga de tarjetas,Consulta de saldo, Activación de carga remota
111;WALMART;LIDER EXPRESS VESPUCIO EL ROSAL;AV. AMERICO VESPUCIO 1122;Lun-Dom 08:30-22:30;-70.7554495228448;-33.4785709438186;Carga de tarjetas,Consulta de saldo, Activación de carga remota
112;WALMART;LIDER HIPER OESTE;AV. AMERICO VESPUCIO 2500;Lun-Dom y Fest. 08:30-22:00;-70.7095140378624;-33.5177767962498;Carga de tarjetas,Consulta de saldo, Activación de carga remota
113;WALMART;LIDER HIPER QUILICURA;AV. LIBERTADOR BERNARDO O'HIGGINS 314;"Lun-Sáb 08:00-22:00 Dom y Fest 09:00-22:00";-70.7283;-33.356711;Carga de tarjetas,Consulta de saldo, Activación de carga remota
114;WALMART;LIDER EXPRESS TOMAS MORO;AV. TOMAS MORO 1590;Lun-Dom 08:30-22:30;-70.553886;-33.423569;Carga de tarjetas,Consulta de saldo, Activación de carga remota
115;WALMART;LIDER HIPER RECOLETA;AV. RECOLETA 3501;"Lun-Sáb 08:00-22:00 Dom y Fest 09:00-22:00";-70.6423967463143;-33.3937924098514;Carga de tarjetas,Consulta de saldo, Activación de carga remota
116;WALMART;LIDER HIPER PRINCIPE DE GALES;AV. PRINCIPE DE GALES 9140;"Lun-Sáb 08:00-22:00 Dom y Fest 09:00-22:00";-70.5354914891933;-33.4416245402331;Carga de tarjetas,Consulta de saldo, Activación de carga remota
117;WALMART;LIDER HIPER GRAN AVENIDA;GRAN AVENIDA JOSE MIGUEL CARRERA 6150;Lun-Dom 08:30-22:00;-70.6571739852926;-33.5123136495111;Carga de tarjetas,Consulta de saldo, Activación de carga remota
118;WALMART;LIDER HIPER LA PINTANA;AV. SANTA ROSA ESQ GABRIELA 2541;Lun-Dom y Fest. 08:30-22:00;-70.62848095;-33.58582;Carga de tarjetas,Consulta de saldo, Activación de carga remota
119;WALMART;LIDER HIPER GENERAL VELASQUEZ;AV. PADRE ALBERTO HURTADO 060;"Lun-Sáb 08:00-22:00 Dom y Fest 09:00-22:00";-70.69173;-33.4530783333333;Carga de tarjetas,Consulta de saldo, Activación de carga remota
120;WALMART;LIDER HIPER LA REINA;AV. JORGE ALESSANDRI 1131;"Lun-Sáb 08:00-22:00 Dom y Fest. 08:30-22:00 ";-70.5471596002507;-33.4625346040014;Carga de tarjetas,Consulta de saldo, Activación de carga remota
121;WALMART;LIDER HIPER VESPUCIO;AV. AMERICO VESPUCIO SUR 881;"Lun-Sáb 08:00-22:00 Dom y Fest. 08:30-22:00 ";-70.57430507;-33.46258442;Carga de tarjetas,Consulta de saldo, Activación de carga remota
122;WALMART;LIDER HIPER SANTA AMALIA;AV. SANTA AMALIA 1763;Lun-Dom y Fest. 08:00-22:00;-70.57056;-33.543967;Carga de tarjetas,Consulta de saldo, Activación de carga remota
123;WALMART;LIDER HIPER SAN JOAQUIN;AV. VICUNA MACKENNA 3361;"Lun-Sáb 08:00-22:00 Dom y Fest 09:00-22:00";-70.6205823884334;-33.4831148286493;Carga de tarjetas,Consulta de saldo, Activación de carga remota
124;WALMART;LIDER HIPER SAN BERNARDO;AV. SAN JOSE 69;"Lun-Sáb 08:00-22:00Dom y Fest. 08:30-22:00";-70.6963917185752;-33.5981376684502;Carga de tarjetas,Consulta de saldo, Activación de carga remota
125;WALMART;LIDER HIPER NOS;AV. PDTE. JORGE ALESSANDRI 20040;Lun-Dom y Fest. 09:00-22:00;-70.7132534136322;-33.6295800949417;Carga de tarjetas,Consulta de saldo, Activación de carga remota
126;WALMART;LIDER EXPRESS BUIN-SAN MARTIN;AV. SAN MARTIN 555;Lun-Dom 08:30-22:30;-70.735576486;-33.734499365;Carga de tarjetas,Consulta de saldo, Activación de carga remota
127;WALMART;LIDER EXPRESS MAIPU-ISABEL RIQUELME;AV. ISABEL RIQUELME SUR 1446;Lun-Dom 08:30-22:30;-70.7388550829891;-33.485306511221;Carga de tarjetas,Consulta de saldo, Activación de carga remota
128;WALMART;LIDER EXPRESS PORTUGAL;AV. PORTUGAL 634 LOCAL 1;Lun-Dom 08:30-22:30;-70.6346717431647;-33.4500732628827;Carga de tarjetas,Consulta de saldo, Activación de carga remota
129;WALMART;LIDER EXPRESS LAGUNA DEL SOL;SAN IGNACIO 1624;Lun-Dom 08:30-22:30;-70.6546238759851;-33.4680186104286;Carga de tarjetas,Consulta de saldo, Activación de carga remota
130;WALMART;LIDER EXPRESS SALVADOR-ÑUÑOA;AV. SALVADOR 1822;Lun-Dom 08:30-22:30;-70.6215545684589;-33.4497634121856;Carga de tarjetas,Consulta de saldo, Activación de carga remota
131;WALMART;ACUENTA CARMEN MAIPU;AV. SUR ESQUINA CARMEN 411;Lun-Dom 09:00-21:30;-70.7620630093553;-33.5210544505879;Carga de tarjetas,Consulta de saldo, Activación de carga remota
132;WALMART;ACUENTA CUIDAD SATELITE;CAMINO A MELIPILLA 18500;Lun-Dom 09:00-21:30;-70.79446925;-33.55369251;Carga de tarjetas,Consulta de saldo, Activación de carga remota
133;WALMART;ACUENTA PEÑAFLOR;VEITIUNO DE MAYO 475;Lun-Dom 09:00-21:30;-70.898796;-33.608257;Carga de tarjetas,Consulta de saldo, Activación de carga remota
134;WALMART;ACUENTA EL MONTE;LOS LIBERTADORES 453;Lun-Dom 09:00-21:30;-70.9824197080847;-33.6813888357299;Carga de tarjetas,Consulta de saldo, Activación de carga remota
135;WALMART;ACUENTA QUINTA NORMAL;MAPOCHO 5041;Lun-Dom 09:00-21:30;-70.7046108333333;-33.4283406666667;Carga de tarjetas,Consulta de saldo, Activación de carga remota
136;WALMART;ACUENTA VIVACETA;AV. SAN FERMIN VIVACETA 827;Lun-Dom 09:00-21:30;-70.6622793342328;-33.4228078756101;Carga de tarjetas,Consulta de saldo, Activación de carga remota
137;WALMART;ACUENTA RECOLETA NORTE;AV. RECOLETA 5252;Lun-Dom 09:00-21:30;-70.6388490700764;-33.3788795688539;Carga de tarjetas,Consulta de saldo, Activación de carga remota
138;WALMART;ACUENTA EYZAGUIRRE ORIENTE;AV. EYZAGUIRRE 1951;Lun-Dom 09:00-21:30;-70.597701;-33.614985;Carga de tarjetas,Consulta de saldo, Activación de carga remota
139;WALMART;ACUENTA LO OVALLE;AV. LO OVALLE 2356;Lun-Dom 09:00-21:30;-70.67790256742315;-33.508441724194;Carga de tarjetas,Consulta de saldo, Activación de carga remota
140;WALMART;ACUENTA BUIN;ERRAZURIZ 230;Lun-Dom 09:00-21:30;-70.7399912266777;-33.7320234573693;Carga de tarjetas,Consulta de saldo, Activación de carga remota
141;WALMART;ACUENTA PAINE;AV. DIECIOCHO DE SEPTIEMBRE 311;Lun-Dom 09:00-21:30;-70.7371097441192;-33.8080739085468;Carga de tarjetas,Consulta de saldo, Activación de carga remota
142;WALMART;ACUENTA ISLA DE MAIPO;AV. MANUEL RODRIGUEZ 684;Lun-Dom 09:00-21:30;-70.900562;-33.751563;Carga de tarjetas,Consulta de saldo, Activación de carga remota
143;WALMART;LIDER EXPRESS RECOLETA & EINSTEIN;AV. RECOLETA 2302;Lun-Dom 08:30-22:30;-70.6432800734353;-33.4057145086571;Carga de tarjetas,Consulta de saldo, Activación de carga remota
144;WALMART;EKONO VICUÑA MACKENNA & TRINIDAD;AV. VICUNA MACKENNA 9840;Lun-Dom 08:30-22:30;-70.5880525296785;-33.5469704357368;Carga de tarjetas,Consulta de saldo, Activación de carga remota
145;WALMART;LIDER EXPRESS ELIODORO YAÑEZ;AV. ELIODORO YANEZ 1371;Lun-Dom 08:30-22:30;-70.61679506830598;-33.433201925186005;Carga de tarjetas,Consulta de saldo, Activación de carga remota
146;WALMART;EKONO INDEPENDENCIA I;AV. INDEPENDENCIA 650;Lun-Dom 08:30-22:30;-70.6553948790727;-33.4236550783208;Carga de tarjetas,Consulta de saldo, Activación de carga remota
147;WALMART;LIDER EXPRESS BELLAVISTA;BELLAVISTA 257;Lun-Dom 08:30-22:30;-70.6432746161456;-33.4331281310355;Carga de tarjetas,Consulta de saldo, Activación de carga remota
148;WALMART;EKONO 1 TRANSVERSAL;PRIMERA TRANSVERSAL 800;Lun-Dom 08:30-22:30;-70.7990280572964;-33.56524566557;Carga de tarjetas,Consulta de saldo, Activación de carga remota
149;WALMART;LIDER EXPRESS IRARRAZABAL;AV. IRARRAZAVAL 710;Lun-Dom 08:30-22:30;-70.6229075760195;-33.4531840201005;Carga de tarjetas,Consulta de saldo, Activación de carga remota
150;WALMART;LIDER EXPRESS PROVIDENCIA;AV. PROVIDENCIA 1634;Lun-Dom 08:30-22:30;-70.6162437194574;-33.4268931604457;Carga de tarjetas,Consulta de saldo, Activación de carga remota
151;WALMART;EKONO COLOMBIA;COLOMBIA 7111;Lun-Dom 08:30-22:30;-70.59057512;-33.52181361;Carga de tarjetas,Consulta de saldo, Activación de carga remota
152;WALMART;EKONO JOSÉ LUIS COO;AV. JOSE LUIS COO 0158;Lun-Dom 08:30-22:30;-70.5740513766842;-33.6090550343912;Carga de tarjetas,Consulta de saldo, Activación de carga remota
153;WALMART;LIDER EXPRESS PEDRO DE VALDIVIA;AV. PEDRO DE VALDIVIA 5359;Lun-Dom 08:30-22:30;-70.60650772056502;-33.47293505223398;Carga de tarjetas,Consulta de saldo, Activación de carga remota
154;WALMART;LIDER EXPRESS TOBALABA;AV. TOBALABA 1175;Lun-Dom 08:30-22:30;-70.5926381794417;-33.4252452506208;Carga de tarjetas,Consulta de saldo, Activación de carga remota
155;WALMART;EKONO VITACURA;AV. VITACURA 5322;Lun-Dom 08:30-22:30;-70.58160926358401;-33.396318446648735;Carga de tarjetas,Consulta de saldo, Activación de carga remota
156;WALMART;LIDER EXPRESS RAMÓN CRUZ;RAMON CRUZ 3219;Lun-Dom 08:30-22:30;-70.58519412;-33.48475166;Carga de tarjetas,Consulta de saldo, Activación de carga remota
157;WALMART;EKONO PRIMO DE RIVERA;AV. PRIMO DE RIVERA 1447;Lun-Dom 08:30-22:30;-70.73908744077137;-33.49216947406965;Carga de tarjetas,Consulta de saldo, Activación de carga remota
158;WALMART;LIDER EXPRESS LO BARNECHEA;AV. LO BARNECHEA 1000;Lun-Dom 08:30-22:30;-70.5058678434859;-33.3598522823472;Carga de tarjetas,Consulta de saldo, Activación de carga remota
159;WALMART;EKONO LO OVALLE;AV. LO OVALLE 1395;Lun-Dom 08:30-22:30;-70.664886;-33.512567;Carga de tarjetas,Consulta de saldo, Activación de carga remota
160;WALMART;LIDER EXPRESS GRAJALES;AV. GRAJALES 2146;Lun-Dom 08:30-22:30;-70.6655583333333;-33.4488666666667;Carga de tarjetas,Consulta de saldo, Activación de carga remota
161;WALMART;LIDER EXPRESS L. B. O´HIGGINS;AV. LIBERTADOR BERNARDO O'HIGGINS 2843;Lun-Dom 08:30-22:30;-70.67368952;-33.44908044;Carga de tarjetas,Consulta de saldo, Activación de carga remota
162;WALMART;EKONO CURICÓ;AV. CURICO 517;Lun-Dom 08:30-22:30;-70.64287399;-33.4460089;Carga de tarjetas,Consulta de saldo, Activación de carga remota
163;WALMART;EKONO VICUÑA MACKENNA;AV. VICUNA MACKENNA 1918;Lun-Dom 08:30-22:30;-70.87877292535825;-33.61092810444613;Carga de tarjetas,Consulta de saldo, Activación de carga remota
164;WALMART;LIDER EXPRESS MONJITAS;MONJITAS 734;"Lun-Dom 07:30-22:30 ";-70.64760588809447;-33.43708393264061;Carga de tarjetas,Consulta de saldo, Activación de carga remota
165;WALMART;LIDER EXPRESS ARTIGAS;AV. ARTIGAS 2877;Lun-Dom 08:30-22:30;-70.59929189791166;-33.44515303729271;Carga de tarjetas,Consulta de saldo, Activación de carga remota
166;WALMART;LIDER EXPRESS AV. PORTUGAL;AV. PORTUGAL 225;Lun-Dom 08:30-22:30;-70.63660021;-33.44549776;Carga de tarjetas,Consulta de saldo, Activación de carga remota
167;WALMART;LIDER EXPRESS LAS REJAS SUR;AV. LAS REJAS SUR 854;Lun-Dom 08:30-22:30;-70.70491356;-33.46385003;Carga de tarjetas,Consulta de saldo, Activación de carga remota
168;WALMART;EKONO LAS TORRES;AV. LAS TORRES 1099;Lun-Dom 08:30-22:30;-70.7316498637863;-33.4790989143999;Carga de tarjetas,Consulta de saldo, Activación de carga remota
169;WALMART;EKONO EL DESCANSO;AV. EL DESCANSO 798;Lun-Dom 08:30-22:30;-70.75058977810252;-33.47012791114295;Carga de tarjetas,Consulta de saldo, Activación de carga remota
170;WALMART;EKONO BAGDAD;BAGDAD 855;Lun-Dom 08:30-22:30;-70.7692240494748;-33.544847200695;Carga de tarjetas,Consulta de saldo, Activación de carga remota
171;WALMART;LIDER EXPRESS AV. LO CRUZAT;AV. LO CRUZAT 281;Lun-Dom 08:30-22:30;-70.7210525849993;-33.3587034374104;Carga de tarjetas,Consulta de saldo, Activación de carga remota
172;WALMART;LIDER EXPRESS SAN PABLO;AV.SAN PABLO 2902;Lun-Dom 08:30-22:30;-70.67622005;-33.43545453;Carga de tarjetas,Consulta de saldo, Activación de carga remota
173;WALMART;LIDER EXPRESS CUATRO PONIENTE;AV. CUATRO PONIENTE 350;Lun-Dom 08:30-22:30;-70.7919081041838;-33.5248098258014;Carga de tarjetas,Consulta de saldo, Activación de carga remota
174;WALMART;EKONO SANTA LUISA;AV.SANTA LUISA 366;Lun-Dom 08:30-22:30;-70.7395257201423;-33.3513346576088;Carga de tarjetas,Consulta de saldo, Activación de carga remota
175;WALMART;EKONO PDTE. GABRIEL GONZALEZ VIDELA;AV. PDTE. GABRIEL GONZALEZ VIDELA 2380;Lun-Dom 08:30-22:30;-70.78645999;-33.53617906;Carga de tarjetas,Consulta de saldo, Activación de carga remota
176;WALMART;EKONO CARRASCAL;AV. CARRASCAL 4436;Lun-Dom 08:30-22:30;-70.6939116049383;-33.4232572222222;Carga de tarjetas,Consulta de saldo, Activación de carga remota
177;WALMART;LIDER EXPRESS BANDERALIDER;AV. BANDERA 814;Lun-Dom 08:30-22:30;-70.6531031851191;-33.4341888455835;Carga de tarjetas,Consulta de saldo, Activación de carga remota
178;WALMART;LIDER EXPRESS JUAN DE DIOS MALEBRÁN;AV. JUAN DE DIOS MALEBRAN 1750;Lun-Dom 08:30-22:30;-70.59040345;-33.59536433;Carga de tarjetas,Consulta de saldo, Activación de carga remota
179;WALMART;LIDER EXPRESS SAN DIEGO;AV. SAN DIEGO 219;Lun-Dom 08:30-22:30;-70.6511286753678;-33.4478188751945;Carga de tarjetas,Consulta de saldo, Activación de carga remota
180;WALMART;LIDER EXPRESS COVENTRY;COVENTRY 601;Lun-Dom 08:30-22:30;-70.58054204491022;-33.448911730139386;Carga de tarjetas,Consulta de saldo, Activación de carga remota
181;WALMART;EKONO AV. INDEPENDENCIA;AV. INDEPENDENCIA 1113;Lun-Dom 08:30-22:30;-70.6565057068013;-33.4173400437057;Carga de tarjetas,Consulta de saldo, Activación de carga remota
182;WALMART;LIDER EXPRESS LOS LEONES;AV. LOS LEONES 1881;Lun-Dom 08:30-22:30;-70.6011899221714;-33.436439624637;Carga de tarjetas,Consulta de saldo, Activación de carga remota
183;WALMART;EKONO AV. RECOLETA;AV. RECOLETA 901;Lun-Dom 08:30-22:30;-70.644554;-33.421780;Carga de tarjetas,Consulta de saldo, Activación de carga remota
184;WALMART;EKONO EL SALTO;AV. EL SALTO 1871-1875-1879;Lun-Dom 08:30-22:30;-70.63654817169775;-33.410890034843455;Carga de tarjetas,Consulta de saldo, Activación de carga remota
185;WALMART;LIDER EXPRESS AV. LIRA;LIRA 464;Lun-Dom 08:30-22:30;-70.63902870148733;-33.44875728114271;Carga de tarjetas,Consulta de saldo, Activación de carga remota
186;WALMART;LIDER EXPRESS FROILAN ROA;AV. FROILAN ROA 5308;Lun-Dom 08:30-22:30;-70.60056887861391;-33.50238289728468;Carga de tarjetas,Consulta de saldo, Activación de carga remota
187;WALMART;LIDER EXPRESS SANTA ISABEL;AV. SANTA ISABEL 861;Lun-Dom 08:30-22:30;-70.61985629122239;-33.445231274392036;Carga de tarjetas,Consulta de saldo, Activación de carga remota
188;WALMART;LIDER EXPRESS GRAN AVENIDA;GRAN AVENIDA JOSE MIGUEL CARRERA 8540;Lun-Dom 08:30-22:30;-70.66314487061261;-33.533707908377885;Carga de tarjetas,Consulta de saldo, Activación de carga remota
189;WALMART;EKONO EL OLIMPO;AV. EL OLIMPO 1990;Lun-Dom 08:30-22:30;-70.775512628509;-33.5120993279485;Carga de tarjetas,Consulta de saldo, Activación de carga remota
190;WALMART;LIDER EXPRESS IRARAZAVAL;AV. IRARRAZAVAL 5353;Lun-Dom 08:30-22:30;-70.5753524816071;-33.4539982023978;Carga de tarjetas,Consulta de saldo, Activación de carga remota
191;WALMART;EKONO VICUÑA MACKENA II;AV.VICUNA MACKENNA 8733;Lun-Dom 08:30-22:30;-70.593387281819;-33.5351370756034;Carga de tarjetas,Consulta de saldo, Activación de carga remota
192;WALMART;LIDER EXPRESS MANQUEHUE SUR;AV. MANQUEHUE SUR 841;Lun-Dom 08:30-22:30;-70.5657934547875;-33.4142598248012;Carga de tarjetas,Consulta de saldo, Activación de carga remota
193;WALMART;LIDER HIPER BUIN BERNARDO OHIGGINS;AV. LIBERTADOR BERNARDO O'HIGGINS 555;"Lun-Sáb 08:00-22:00 Dom y Fest 08:30-22:00";-70.748957608;-33.734063853;Carga de tarjetas,Consulta de saldo, Activación de carga remota
194;WALMART;LIDER EXPRESS JOSÉ D. CAÑAS;AV. JOSE DOMINGO CANAS 1580;Lun-Dom 08:30-22:30;-70.6153184659836;-33.4559707634447;Carga de tarjetas,Consulta de saldo, Activación de carga remota
195;WALMART;LIDER HIPER MAIPÚ;AV. LAS INDUSTRIAS 15560;"Lun-Sáb 08:30-22:00 Dom 09:30-21:30 Fest. 08:30-22:00";-70.768076;-33.541184;Carga de tarjetas,Consulta de saldo, Activación de carga remota
196;WALMART;LIDER EXPRESS LAGUNA SUR;AV. LAGUNA SUR 7383;Lun-Dom 08:30-22:30;-70.743316;-33.461598;Carga de tarjetas,Consulta de saldo, Activación de carga remota
197;WALMART;LIDER HIPER PEÑAFLOR;AV. BALMACEDA 750;"Lun -Jue 08:30-22:00 Vie-Sáb 08:00-22:30 Dom 09:00-22:00 Fest 08:00-22:00";-70.856250;-33.608683;Carga de tarjetas,Consulta de saldo, Activación de carga remota
198;WALMART;SBA CURACAVI;AV. AMBROSIO OHIGGINS ALTURA 2100;Lun-Dom 09:00-21:30;-71.126210;-33.402442;Carga de tarjetas,Consulta de saldo, Activación de carga remota
199;WALMART;LIDER EXPRESS CIUDAD DE LOS VALLES;CAMINO APACIBLE 635;Lun-Dom 08:30-22:30;-70.843050;-33.448053;Carga de tarjetas,Consulta de saldo, Activación de carga remota
200;WALMART;ISABEL LA CATOLICA;ISABEL LA CATÓLICA 4394;Lun-Dom 08:30-22:30;-70.577487;-33.425910;Carga de tarjetas,Consulta de saldo, Activación de carga remota
201;WALMART;QUILICURA LO CAMPINO 2;AV. AMÉRICO VESPUCIO 1641;Lun-Dom 08:30-22:30;-70.714935;-33.374448;Carga de tarjetas,Consulta de saldo, Activación de carga remota
202;SERVIESTADO;47-SERVIESTADO;ALTO MACUL 6050 LOC. 5;Lun-Vie 8:00 a 19:00,Sab 9:00 a 17:00;-70.534134;-33.5131235;Carga de tarjetas,Consulta de saldo, Activación de carga remota
203;SERVIESTADO;59-SERVIESTADO;Camino El Alba 11865;Lun-Vie 8:00 a 19:00,Sab 9:00 a 17:00;-70.5162333698769;-33.4010283139606;Carga de tarjetas,Consulta de saldo, Activación de carga remota
204;SERVIESTADO;60-SERVIESTADO;AV. LIB. BERNARDO OHIGGINS 622;Lun-Vie 8:00 a 19:00,Sab 9:00 a 17:00;-70.644872;-33.44272566;Carga de tarjetas,Consulta de saldo, Activación de carga remota
205;SERVIESTADO;61-SERVIESTADO;AV. AMERICO VESPUCIO NORTE CALETERA ORIENTE 51;Lun-Vie 8:00 a 19:00,Sab 9:00 a 17:00;-70.750752;-33.486436;Carga de tarjetas,Consulta de saldo, Activación de carga remota
206;SERVIESTADO;64-SERVIESTADO;GRAN AVENIDA JOSE MIGUEL CARRERA 8496;Lun-Vie 8:00 a 19:00,Sab 9:00 a 17:00;-70.6630693155897;-33.5332983565256;Carga de tarjetas,Consulta de saldo, Activación de carga remota
207;SERVIESTADO;66-SERVIESTADO;GENERAL ORDONEZ 130;Lun-Vie 8:00 a 19:00,Sab 9:00 a 17:00;-70.75917383;-33.50796909;Carga de tarjetas,Consulta de saldo, Activación de carga remota
208;SERVIESTADO;74-SERVIESTADO;AV. INDEPENDENCIA 3517;Lun-Vie 8:00 a 19:00,Sab 9:00 a 17:00;-70.67138398;-33.39605624;Carga de tarjetas,Consulta de saldo, Activación de carga remota
209;SERVIESTADO;83-SERVIESTADO;AV. SERRANO 144;Lun-Vie 8:00 a 19:00,Sab 9:00 a 17:00;-71.21380708;-33.68207521;Carga de tarjetas,Consulta de saldo, Activación de carga remota
210;SERVIESTADO;94-SERVIESTADO;VICUÑA MACKENNA 1918;Lun-Vie 8:00 a 19:00,Sab 9:00 a 17:00;-70.878772926207;-33.6109281047966;Carga de tarjetas,Consulta de saldo, Activación de carga remota
211;SERVIESTADO;112-SERVIESTADO;AV. CONCHA Y TORO 1149 LOCAL 60-A Y 60-B;Lun-Sab 10:00 a 20:00;-70.5774851721172;-33.5995494428859;Carga de tarjetas,Consulta de saldo, Activación de carga remota
212;SERVIESTADO;156-SERVIESTADO;ALCALDE PEDRO ALARCON 359;Lun-Vie 8:00 a 19:00,Sab 9:00 a 17:00;-70.6313068416836;-33.490155691717;Carga de tarjetas,Consulta de saldo, Activación de carga remota
213;SERVIPAG;202-CRP PROVIDENCIA;HERNANDO DE AGUIRRE 136;Lunes a Viernes:  09:00 a 17:30;-70.60100524;-33.41922206;Carga de tarjetas,Consulta de saldo, Activación de carga remota
214;SERVIPAG;206-CRP SAN BERNARDO;OHIGGINS 528 - 2 piso Interior Supermercado Tottus;Lun a vie:09:00 a 19:00Sáb:11:00 a 14:00;-70.7039004651875;-33.5916795375606;Carga de tarjetas,Consulta de saldo, Activación de carga remota
215;SERVIPAG;213-APUMANQUE;MAR DE LOS SARGAZOS 5877;Lun a vie:09:00 a 19:00Sáb:10:00 a 14:00;-70.569010977473;-33.4102508929983;Carga de tarjetas,Consulta de saldo, Activación de carga remota
216;SERVIPAG;221-CRP PUENTE ALTO;AV. EYZAGUIRRE 0105;Lunes a Viernes:  09:00 a 17:30;-70.575351941;-33.6123414419999;Carga de tarjetas,Consulta de saldo, Activación de carga remota
217;SERVIPAG;226-CRP MIRAFLORES;HUERFANOS 599;Lun a vie:CRP: 08:00 a 17:30 - C.A: 12:00 a 20:00Sáb:C.A.: 10:00 a 14:00 ;-70.645476579007;-33.4391015520811;Carga de tarjetas,Consulta de saldo, Activación de carga remota
218;SERVIPAG;229-CRP REPUBLICA;AV. LIB. BERNARDO OHIGGINS 3470 - LOCAL Z-129 Z-131 Z-133;Lun a vie: 10:00 a 20:00Sáb: 10:00 a 20:00Dom: 10:00 a 20:00;-70.6820469259232;-33.4520954959025;Carga de tarjetas,Consulta de saldo, Activación de carga remota
219;SERVIPAG;250-CRP HUERFANOS;AV. LIB. BERNARDO OHIGGINS 853 LOCAL 21 (GALERIA EL LIBERTADOR);Lunes a Viernes:  09:00 a 17:30;-70.648471;-33.442958;Carga de tarjetas,Consulta de saldo, Activación de carga remota
220;SERVIPAG;256-CRP GRAN AVENIDA;GRAN AVENIDA JOSE MIGUEL CARRERA 6150;Lun a vie:09:00 a 21:00Sáb:09:00 a 21:00;-70.65708854;-33.51229164;Carga de tarjetas,Consulta de saldo, Activación de carga remota
221;SERVIPAG;258-CRP LA FLORIDA;AV. VICUNA MACKENNA ORIENTE 7110 LOCAL M 13;Lun a Vi:09:00 a 20:00Sáb:10:30 a 20:00 Dom:10:30 a 20:00 ;-70.6000258343121;-33.5186525387528;Carga de tarjetas,Consulta de saldo, Activación de carga remota
222;SERVIPAG;302-MALL PARQUE ARAUCO;AV. KENNEDY 5413;Lun a vie: 10:00 a 21:00Sáb: 10:00 a 21:00Dom: 11:00 a 21:00;-70.57631265;-33.40036695;Carga de tarjetas,Consulta de saldo, Activación de carga remota
223;SERVIPAG;303-LIDER EL ALBA;CAMINO EL ALBA  11865;Lun a vie:09:00 a 20:00 Sáb:09:00 a 18:00;-70.5162333698769;-33.4010283139606;Carga de tarjetas,Consulta de saldo, Activación de carga remota
224;SERVIPAG;304-JUMBO BILBAO;AV. FRANCISCO BILBAO 4144;Lun a Vi:08:00 a 22:00Sáb:08:00 a 22:00Dom:09:00 a 22:00;-70.57874111;-33.43115065;Carga de tarjetas,Consulta de saldo, Activación de carga remota
225;SERVIPAG;305-JUMBO ALTO LAS CONDES;AV. KENNEDY 9001;Lun a Vi:08:00 a 22:00Sáb:08:00 a 22:00Dom:09:00 a 22:00;-70.54556044;-33.38904057;Carga de tarjetas,Consulta de saldo, Activación de carga remota
226;SERVIPAG;308-LIDER MACUL;AV. JOSE PEDRO ALESSANDRI 2127 LOC. 7;Lun a vie:09:00 a 21:00Sáb:09:00 a 21:00;-70.59890147;-33.47415316;Carga de tarjetas,Consulta de saldo, Activación de carga remota
227;SERVIPAG;310-MONTSERRAT IRARRAZAVAL;AV. IRARRAZAVAL 1489;Lun a vie:09:00 a 21:00Sáb:09:00 a 21:00;-70.61544197;-33.45320082;Carga de tarjetas,Consulta de saldo, Activación de carga remota
228;SERVIPAG;314-EL MOLINO SANTA ROSA;AV. SANTA ROSA 2055;Lun a vie:11:00 - 15:00 / 16:00 - 19:00Sáb:11:00 - 15:00;-70.64223536;-33.4723934;Carga de tarjetas,Consulta de saldo, Activación de carga remota
229;SERVIPAG;316-JUMBO MAIPU;AV. AMERICO VESPUCIO 1001;Lun a Vi:08:30 a 21:30Sáb:08:30 a 21:30Dom:08:30 a 21:30;-70.75146343;-33.48562899;Carga de tarjetas,Consulta de saldo, Activación de carga remota
230;SERVIPAG;318-MONTSERRAT MAIPU;AV. ALFREDO SILVA CARVALLO 1401;Lun a vie:09:00 a 15:00 / 15:30 a 21:00Sáb:09:00 a 15:00 / 15:30 a 21:00;-70.77504674;-33.53146787;Carga de tarjetas,Consulta de saldo, Activación de carga remota
231;SERVIPAG;319-MALL PLAZA OESTE TOTTUS;AV. AMERICO VESPUCIO 1501-Plaza Oeste;Lun a vie: 09:00 a 21:00Sáb: 09:00 a 21:00Dom: 09:00 a 21:00;-70.71741989;-33.51506134;Carga de tarjetas,Consulta de saldo, Activación de carga remota
232;SERVIPAG;321-SANTA ISABEL MELIPILLA;AV. MANZO 559;Lun a vie:10:00 a 14:00 / 15:00 a 18:30Sáb:10:00 a 14:00;-71.21501682754759;-33.691524174789556;Carga de tarjetas,Consulta de saldo, Activación de carga remota
233;SERVIPAG;322-SANTA ISABEL SAN PABLO;AV. SAN PABLO 4870;Lun a vie:11:00 - 15:00 / 16:00 - 19:00Sáb:10:00 - 14:00;-70.70182802;-33.44017841;Carga de tarjetas,Consulta de saldo, Activación de carga remota
234;SERVIPAG;325-LIDER MAIPU;AV. PAJARITOS 4500;Lun a Vi:11:00 a 15:00 / 16:00 a 19:00Sáb:Dom:0;-70.74546174;-33.48156735;Carga de tarjetas,Consulta de saldo, Activación de carga remota
235;SERVIPAG;331-MONTSERRAT INDEPENDENCIA;AV. INDEPENDENCIA 2127;Lun a vie:09:00 a 21:00Sáb:09:00 a 21:00;-70.6605243636465;-33.4069322647918;Carga de tarjetas,Consulta de saldo, Activación de carga remota
236;SERVIPAG;336-MONTSERRAT EL PEÑON;AV. MEXICO 1915;Lun a vie:11:00 - 15:00 / 16:00 - 19:00Sáb:10:00 a 14:00;-70.55872528;-33.5946649;Carga de tarjetas,Consulta de saldo, Activación de carga remota
237;SERVIPAG;340-SANTA ISABEL EL BOSQUE;GRAN AVENIDA JOSE MIGUEL CARRERA 9863, PARADERO 29 1/2;Lun a vie:11:00 - 15:00 / 16:00 - 20:00Sáb:11:00 - 15:00;-70.67225258;-33.55034267;Carga de tarjetas,Consulta de saldo, Activación de carga remota
238;SERVIPAG;374-SANTA ISABEL GRECIA (EXTRA GRECIA);AV. GRECIA 5791 - ROTONDA GRECIA;Lun a vie:09:00 a 21:00Sáb:09:00 a 21:00;-70.57455351;-33.46953054;Carga de tarjetas,Consulta de saldo, Activación de carga remota
239;SERVIPAG;377-MALL PLAZA VIVACETA;AV. FERMIN VIVACETA 957;Lun a vie:09:00 a 20:00Sáb:09:00 a 14:00;-70.66312044;-33.42030144;Carga de tarjetas,Consulta de saldo, Activación de carga remota
240;SERVIPAG;380-SANTA ISABEL LA GRANJA;AV. SANTA ROSA 7668;Lun a vie:09:00 a 21:00Sáb:09:00 a 21:00;-70.63540359;-33.52809713;Carga de tarjetas,Consulta de saldo, Activación de carga remota
241;SERVIPAG;383-LIDER VITACURA;BUENAVENTURA 1770;Lun a Vi:08:30 a 22:00Sáb:08:30 a 22:00Dom:09:00 a 22:00;-70.56810589;-33.38648768;Carga de tarjetas,Consulta de saldo, Activación de carga remota
242;SERVIPAG;396-SAN FRANCISCO SAN BERNARDO;ARTURO PRAT 117;Lun a vie:09:00 a 21:00Sáb:09:00 a 14:00;-70.69895949;-33.5942756;Carga de tarjetas,Consulta de saldo, Activación de carga remota
243;SERVIPAG;397-MONTSERRAT QUINTA NORMAL;AV. WALKER MARTINEZ 1650;Lunes a Viernes:  10:00 a 14:00 / 15:00 a 20:00;-70.692454;-33.431504;Carga de tarjetas,Consulta de saldo, Activación de carga remota
244;SERVIPAG;398-SAN FRANCISCO BUIN;SAN MARTIN 174;Lun a vie:09:00 a 20:00Sáb:10:00 a 14:00;-70.7360597;-33.73200032;Carga de tarjetas,Consulta de saldo, Activación de carga remota
245;SERVIPAG;403-CENTRO COMERCIAL TIKAL;NICASIO RETAMALES 44;Lun a vie:10:00 a 20:00Sáb:10:00 a 14:00;-70.6883585985254;-33.4540955747439;Carga de tarjetas,Consulta de saldo, Activación de carga remota
246;SERVIPAG;404-LIDER SANTA AMALIA;SANTA AMALIA 1763;Lun a vie:09:00 a 20:00Sáb:09:00 a 20:00;-70.570401;-33.543802;Carga de tarjetas,Consulta de saldo, Activación de carga remota
247;SERVIPAG;405-LIDER LA REINA;AV. JORGE ALESSANDRI 1131;Lun a vie:09:00 a 21:00Sáb:09:00 a 21:00;-70.54715961;-33.4625346;Carga de tarjetas,Consulta de saldo, Activación de carga remota
248;SERVIPAG;406-EL MERCURIO;AV. SANTA MARIA 5542;Lunes a Viernes:  09:00 a 17:30;-70.59256643;-33.38395175;Carga de tarjetas,Consulta de saldo, Activación de carga remota
249;SERVIPAG;414-MONTSERRAT EL BOSQUE;GRAN AVENIDA JOSE MIGUEL CARRERA 13125, Paradero 38;Lun a vie:11:00 - 15:00 / 16:00 - 20:00Sáb:11:00 - 15:00;-70.6908656314532;-33.574270112707;Carga de tarjetas,Consulta de saldo, Activación de carga remota
250;SERVIPAG;416-UNIVERSIDAD DE CHILE BEAUCHEF;BEAUCHEF 850;Lunes a Viernes:  09:00 a 18:00;-70.6638122919181;-33.4573007010339;Carga de tarjetas,Consulta de saldo, Activación de carga remota
251;SERVIPAG;417-MALL PLAZA LYON;AV. RICARDO LYON 100  LOC. 62;Lun a vie:09:00 a 20:00Sáb:10:00 a 14:00;-70.60934021;-33.42280189;Carga de tarjetas,Consulta de saldo, Activación de carga remota
252;SERVIPAG;418-LIDER QUILIN;AV. AMERICO VESPUCIO 3100;Lun a vie:09:00 a 21:00Sáb:09:00 a 21:00;-70.57936076;-33.48523393;Carga de tarjetas,Consulta de saldo, Activación de carga remota
253;FULLCARGA;EL RINCON DEL GUSTO MAIPU;CERRO BLANCO 0625;None;-70.7849931653655;-33.5344277734798;Carga de tarjetas,Consulta de saldo, Activación de carga remota
254;SERVIPAG;426-SODIMAC RENCA;AV. PRESIDENTE EDUARDO FREI MONTALVA 3092;Lunes a Viernes:  09:00 a 17:30;-70.68553679;-33.39759061;Carga de tarjetas,Consulta de saldo, Activación de carga remota
255;SERVIPAG;439-LIDER RECOLETA;AV. RECOLETA 3501;Lun a vie:10:00 a 21:00Sáb:10:00 a 21:00;-70.64247582;-33.39382816;Carga de tarjetas,Consulta de saldo, Activación de carga remota
256;SERVIPAG;442-LIDER LAS CONDES;AV. LAS CONDES 12916;Lun a vie:09:00  20:00Sáb:09:00 a 19:00;-70.51239755;-33.37071232;Carga de tarjetas,Consulta de saldo, Activación de carga remota
257;SERVIPAG;446-DERCO QUILICURA;AV. AMERICO VESPUCIO 1842;Lunes a Viernes:  09:00 a 14:30 / 15:00 a 17:30;-70.70672087;-33.36991472;Carga de tarjetas,Consulta de saldo, Activación de carga remota
258;SERVIPAG;454-JUMBO PAJARITOS (EX MONTECARLO);AV. PAJARITOS 3302;Lun a vie: 09:00 a 21:00Sáb: 10:00 a 20:00Dom: 10:00 a 14:00;-70.7572239;-33.49796996;Carga de tarjetas,Consulta de saldo, Activación de carga remota
259;SERVIPAG;457-JUMBO LA FLORIDA;AV. VICUNA MACKENNA 6100;Lun a Vi:10:00 a 22:00Sáb:10:00 a 22:00Dom:10:00 a 22:00;-70.60851559;-33.51071617;Carga de tarjetas,Consulta de saldo, Activación de carga remota
260;SERVIPAG;460-MUNICIPALIDAD DE CONCHALI;AV. DORSAL 1904;Lunes a Viernes:  09:00 a 17:30;-70.66966449;-33.39823886;Carga de tarjetas,Consulta de saldo, Activación de carga remota
261;SERVIPAG;464-SANTA ISABEL PUENTE ALTO;AV. CONCHA Y TORO 1036;Lun a vie:10:00 a 20:00Sáb:10:00 a 14:00;-70.57771977;-33.60129009;Carga de tarjetas,Consulta de saldo, Activación de carga remota
262;SERVIPAG;471-SHOPPING LA DEHESA;EL RODEO 12850;Lun a vie:08:00 a 20:00Sáb:08:00 a 14:00;-70.52079272;-33.35295179;Carga de tarjetas,Consulta de saldo, Activación de carga remota
263;SERVIPAG;474-JUMBO LA REINA;AV. FRANCISCO BILBAO 8750;Lun a Vi:09:00 a 22:00Sáb:09:00 a 22:00Dom:09:00 a 22:00;-70.54065413;-33.42865955;Carga de tarjetas,Consulta de saldo, Activación de carga remota
264;SERVIPAG;475-MONTSERRAT CONCHALI;AV. INDEPENDENCIA 3601;Lun a vie:09:00 a 21:00Sáb:09:00 a 21:00;-70.67197428;-33.3953728;Carga de tarjetas,Consulta de saldo, Activación de carga remota
265;SERVIPAG;481-DGA CIVIL;MIGUEL CLARO 1314; L-J  08:30 a 13:30 / 14:00 a 17:15    Vie  08:30 a 13:30 /  14:00 a 16:15;-70.61789931;-33.44093974;Carga de tarjetas,Consulta de saldo, Activación de carga remota
266;SERVIPAG;495-SANTA ISABEL RENCA;AV. DOMINGO SANTA MARIA 3962;Lunes a Viernes:  11:00 a 15:00 / 16:00 a 20:00;-70.70053385;-33.40683057;Carga de tarjetas,Consulta de saldo, Activación de carga remota
267;SERVIPAG;498-MALL DEL CENTRO;PUENTE 689, Subterraneo;Lun a vie: 10:00 a 21:00Sáb: 10:00 a 14:00Dom: 11:00 a 21:00;-70.65142355;-33.43516897;Carga de tarjetas,Consulta de saldo, Activación de carga remota
268;SERVIPAG;506-JUMBO LA DEHESA;AV. LA DEHESA 1445  - LOC. 1044;Lun a vie: 10:00 a 21:00Sáb: 10:00 a 21:00Dom: 10:00 a 21:00;-70.51703954;-33.35835041;Carga de tarjetas,Consulta de saldo, Activación de carga remota
269;SERVIPAG;507-MALL PLAZA NORTE;AV. AMERICO VESPUCIO 1737 - LOC. B 14;Lun a vie: 10:00 a 20:00Sáb: 10:00 a 20:00Dom: 10:00 a 20:00;-70.67771798;-33.36810778;Carga de tarjetas,Consulta de saldo, Activación de carga remota
270;SERVIPAG;517-JUMBO PENALOLEN;AV. SANCHEZ FONTECILLA 12000;Lun a vie: 09:00 a 21:00Sáb: 09:00 a 21:00Dom: 09:00 a 21:00;-70.55765874;-33.48683307;Carga de tarjetas,Consulta de saldo, Activación de carga remota
271;SERVIPAG;518-SANTA ISABEL CAMPANARIO;AV. WALKER MARTINEZ 1786;Lun a vie:09:00 a 21:00Sáb:09:00 a 21:00;-70.57914236;-33.52225851;Carga de tarjetas,Consulta de saldo, Activación de carga remota
272;SERVIPAG;523-MALL MELIPILLA;AV. SERRANO 395, 2° Piso;Lun a vie:10:00 a 20:00Sáb:10:00 a 14:00;-71.21372508;-33.68496703;Carga de tarjetas,Consulta de saldo, Activación de carga remota
273;SERVIPAG;532-SANTA ISABEL MAPOCHO;AV. ISMAEL  VALDES VERGARA 838;Lunes a Viernes:  11:00 a 15:00 / 16:00 a 20:00;-70.64942856;-33.43388359;Carga de tarjetas,Consulta de saldo, Activación de carga remota
274;SERVIPAG;533-MONTSERRAT PAJARITOS;AV. GLADYS MARIN 6950;Lun a vie:11:00 a 15:00 / 16:00 a 19:00Sáb:10:00 a 15:00;-70.7300319562957;-33.4677892179857;Carga de tarjetas,Consulta de saldo, Activación de carga remota
275;SERVIPAG;534-MONTSERRAT PAINE;GENERAL BAQUEDANO 890;Lun a vie:10:00 a 15:00 / 16:00 a 20:00Sáb:10:00 a 14:00;-70.74300228;-33.81424288;Carga de tarjetas,Consulta de saldo, Activación de carga remota
276;SERVIPAG;551-SAN FRANCISCO TALAGANTE LOS AROMOS;CALETERA LOS AROMOS 441  ;Lun a vie:09:00 a 20:00Sáb:10:00 a 14:00;-70.90982;-33.656297;Carga de tarjetas,Consulta de saldo, Activación de carga remota
277;SERVIPAG;558-SANTA ISABEL EL ALBA (EX MONTECARLO);AV. LA FLORIDA  9385;Lun a vie:10:00 a 18:00Sáb:10:00 a 15:00;-70.5719898457932;-33.5397089329608;Carga de tarjetas,Consulta de saldo, Activación de carga remota
278;SERVIPAG;560-SANTA ISABEL CIUDAD SATELITE;AV. PARQUE CENTRAL PONIENTE 1040;Lun a vie:09:00 a 15:00 / 15:30 a 21:00Sáb:09:00 a 15:00 / 15:30 a 21:00;-70.78675715;-33.56051014;Carga de tarjetas,Consulta de saldo, Activación de carga remota
279;SERVIPAG;563-SANTA ISABEL HUERFANOS;HUERFANOS 1437;Lun a vie:09:00 a 14:00 / 15:00 a 20:00Sáb:10:00 a 14:00;-70.65709652;-33.44011211;Carga de tarjetas,Consulta de saldo, Activación de carga remota
280;SERVIPAG;567-CENTRO COMERCIAL  FRANKLIN;FRANKLIN 1010 - LOC. 25;Lun a vie:10:00 a 19:00Sáb:10:00 a 14:00;-70.64673178;-33.47332636;Carga de tarjetas,Consulta de saldo, Activación de carga remota
281;SERVIPAG;576-SANTA ISABEL LONQUEN;CRUCE LONQUEN / CAMINO CALERA DE TANGO;Lun a vie:10:00 a 14:00 / 15:00 a 19:00Sáb:10:00 a 15:00;-70.79886254;-33.62344114;Carga de tarjetas,Consulta de saldo, Activación de carga remota
282;SERVIPAG;581-TOTTUS PUENTE ALTO;AV. CONCHA Y TORO 1477;Lun a vie:10:00 a 20:00Sáb:10:00 a 14:00;-70.576680;-33.597313;Carga de tarjetas,Consulta de saldo, Activación de carga remota
283;SERVIPAG;586-BODEGAS SAN FRANCISCO;PUERTO MADERO 9710;Lunes a Viernes:  09:00 a 14:00 / 15:00 a 17:30;-70.78413563;-33.45080099;Carga de tarjetas,Consulta de saldo, Activación de carga remota
284;SERVIPAG;589-ENAER;GRAN AVENIDA JOSE MIGUEL CARRERA 11087, Parad. 36 ½ (Interior de ENAER);Lunes a Viernes:  09:00 a 18:00;-70.68694071;-33.56936227;Carga de tarjetas,Consulta de saldo, Activación de carga remota
285;SERVIPAG;590-LIDER QUILICURA;OHIGGINS 314;Lun a vie:09:00 a 15:00 / 15:30 a 21:00Sáb:09:00 a 15:00 / 15:30 a 21:00;-70.72986;-33.360227;Carga de tarjetas,Consulta de saldo, Activación de carga remota
286;SERVIPAG;639-PORTAL EXPOSICION;CAMPBELL 3090 - LOC. 213;Lun a vie:10:00 a 20:00Sáb:10:00 a 14:00;-70.6777745;-33.45123192;Carga de tarjetas,Consulta de saldo, Activación de carga remota
287;SERVIPAG;648-CARDENAL CARO;O´HIGGINS 581  MALL QUILICURA;Lun a Vi:09:00 a 19:00Sáb:0Dom:;-70.73085441077433;-33.36746940576378;Carga de tarjetas,Consulta de saldo, Activación de carga remota
288;SERVIPAG;653-MONTSERRAT ISLA DE MAIPO;AV. SANTELICES 641;Lunes a Viernes:  11:00 a 15:00 / 16:00 a 20:00;-70.9019236198609;-33.7541454288765;Carga de tarjetas,Consulta de saldo, Activación de carga remota
289;SERVIPAG;654-CTI;ALBERTO LLONA 777;Lunes a Viernes:  09:00 a 17:30;-70.75544136;-33.52036542;Carga de tarjetas,Consulta de saldo, Activación de carga remota
290;SERVIPAG;661-ACADEMIA DE GUERRA;VALENZUELA LLANOS 623;Lunes a Viernes:  09:00 a 18:00;-70.53632398;-33.4448629;Carga de tarjetas,Consulta de saldo, Activación de carga remota
291;SERVIPAG;666-INTERMODAL;AV. AMERICO VESPUCIO 33 - LOC. 42 ;Lun a vie:09:00 a 20:00Sáb:10:00 a 14:00;-70.66540141;-33.53662611;Carga de tarjetas,Consulta de saldo, Activación de carga remota
292;SERVIPAG;667-JUMBO PLAZA PUENTE ALTO;SANTO DOMINGO 67;Lun a Vi:09:00 a 20:00Sáb:11:00 a 19:00Dom:11:00 a 19:00;-70.5769777775113;-33.6116981099317;Carga de tarjetas,Consulta de saldo, Activación de carga remota
293;SERVIPAG;668-METRO TOBALABA;Estación Metro Tobalaba - Local 3;Lun a vie:08:00 a 20:00Sáb:10:00 a 14:00;-70.601564;-33.418081;Carga de tarjetas,Consulta de saldo, Activación de carga remota
294;SERVIPAG;669-MALL PLAZA TOBALABA;AV. CAMILO HENRIQUEZ Nº 3296 - Local 116 B y 118;0;-70.5548673321197;-33.5694161245757;Carga de tarjetas,Consulta de saldo, Activación de carga remota
295;SERVIPAG;683-LIDER LAS REJAS;AV. LIB. BERNARDO OHIGGINS 5199;Lun a vie:09:00 a 20:00Sáb:10:00 a 14:00;-70.70633884;-33.45717127;Carga de tarjetas,Consulta de saldo, Activación de carga remota
296;SERVIPAG;684-LIDER OESTE;AV. AMERICO VESPUCIO 2500;Lunes a Viernes:  11:00 a 15:00 / 16:00 a 20:00;-70.7098458919462;-33.5173362202943;Carga de tarjetas,Consulta de saldo, Activación de carga remota
297;SERVIPAG;686-SANTIAGO CENTRO;AV. LIB. BERNARDO OHIGGINS 969 LOC. 74;Lun a vie:09:00 a 20:00Sáb:10:00 a 15:30;-70.64976092;-33.44338828;Carga de tarjetas,Consulta de saldo, Activación de carga remota
298;SERVIPAG;691-PeNaflor;21 DE MAYO 4400;Lun a vie:09:00 a 20:00Sáb:10:00 a 14:00;-70.8996138878165;-33.6084038324614;Carga de tarjetas,Consulta de saldo, Activación de carga remota
299;SERVIPAG;702-CENTRO COMERCIAL PUMAY;PJE. PINOCHET LEBRUN 84 (Centro Comercial Pumay - Segundo Nivel);Lun a vie:09:00 a 15:00 / 15:30 a 21:00Sáb:09:30 a 15:00 / 15:30 a 21:00;-70.757889;-33.510484;Carga de tarjetas,Consulta de saldo, Activación de carga remota
300;SERVIPAG;707-SANTA ISABEL LO MARCOLETA;AV. LO MARCOLETA 361;Lunes a Viernes:  11:00 a 15:00 / 16:00 a 20:00;-70.7453896;-33.36048697;Carga de tarjetas,Consulta de saldo, Activación de carga remota
301;SERVIPAG;709-SANTA ISABEL VALLE GRANDE;GENERAL SAN MARTIN 47, ESQ. AV. LA MONTAnA;Lunes a Viernes:  11:00 a 15:00 / 16:00 a 20:00;-70.746776;-33.323775;Carga de tarjetas,Consulta de saldo, Activación de carga remota
302;SERVIPAG;713-ACUENTA GABRIELA;AV GABRIELA PONIENTE 03960;Lunes a Viernes:  11:00 - 15:00 / 16:00 - 20:00;-70.605822912767;-33.5823974728446;Carga de tarjetas,Consulta de saldo, Activación de carga remota
303;SERVIPAG;725-MALL PLAZA SUR;AV. PRESIDENTE JORGE ALESSANDRI 20040 (Caletera Ruta 5 Sur Local B 121);Lun a vie: 09:00 a 21:00Sáb: 10:00 a 21:00Dom: 10:00 a 21:00;-70.71326824;-33.62948511;Carga de tarjetas,Consulta de saldo, Activación de carga remota
304;SERVIPAG;730-SAN ANTONIO II;SAN ANTONIO 277;Lun a vie:09:00 a 20:00Sáb:10:00 a 14:00;-70.6479804604408;-33.4395874555726;Carga de tarjetas,Consulta de saldo, Activación de carga remota
305;SERVIPAG;731-MUNICIPALIDAD VITACURA;AV. BICENTENARIO 3800;Lunes a Viernes:  08:30 a 15:00 / 15:30 a 18:00;-70.60004201;-33.39540034;Carga de tarjetas,Consulta de saldo, Activación de carga remota
306;SERVIPAG;745-SANTA ISABEL BUSTAMANTE;AV. VICUNA MACKENNA 1048;Lun a vie:09:00 a 21:00Sáb:09:00 a 14:00;-70.6297863634114;-33.4548350097525;Carga de tarjetas,Consulta de saldo, Activación de carga remota
307;SERVIPAG;749-LIDER CENTRAL;AV. PAJARITOS 2689 (ESQ. AV. CENTRAL);Lun a vie:09:00 a 15:00 / 15:30 a 21:00Sáb:09:00 a 15:00 / 15:30 a 21:00;-70.757311;-33.503596;Carga de tarjetas,Consulta de saldo, Activación de carga remota
308;SERVIPAG;752-LIDER SHOPPING PUENTE ALTO;AV. CONCHA Y TORO 1149;Lun a vie:10:00 a 20:00 Sáb:10:00 a 14:00;-70.5774851721172;-33.5995494428859;Carga de tarjetas,Consulta de saldo, Activación de carga remota
309;SERVIPAG;756-TOTTUS EL BOSQUE;GRAN AVENIDA JOSE MIGUEL CARRERA 10375, PARADERO 31;Lun a vie:09:00 a 21:00Sáb:09:00 a 14:00;-70.67508439;-33.55395396;Carga de tarjetas,Consulta de saldo, Activación de carga remota
310;SERVIPAG;757-MONTSERRAT COLINA;CARRETERA GENERAL SAN MARTIN 068;Lun a vie:09:00 a 20:00Sáb:09:00 a 14:00;-70.6756368;-33.20486651;Carga de tarjetas,Consulta de saldo, Activación de carga remota
311;SERVIPAG;759-TOTTUS NATANIEL;NATANIEL COX 620;Lunes a Viernes:  11:00 a 15:00 / 16:00 a 20:00;-70.65277054;-33.45356944;Carga de tarjetas,Consulta de saldo, Activación de carga remota
312;SERVIPAG;763-LIDER ESPACIO URBANO;AV. PRINCIPE DE GALES 9140 LOC. 409;Lun a vie:11:00 a 15:00 /15:30 a 19:00Sáb:11:00 a 14:00;-70.53537466;-33.44131353;Carga de tarjetas,Consulta de saldo, Activación de carga remota
313;SERVIPAG;768-SANTA ISABEL CERRO NAVIA;JOSE JOAQUIN PEREZ 7259;Lunes a Viernes:  11:00 a 15:00 / 16:00 a 20:00;-70.73603719;-33.42928442;Carga de tarjetas,Consulta de saldo, Activación de carga remota
314;FULLCARGA;ROSA DEL CARMEN ORTIZ VIDAL;FRANCIA 4069 LOCAL 122;None;-70.7205525248227;-33.480379822695;Carga de tarjetas,Consulta de saldo, Activación de carga remota
315;SERVIPAG;790- MONSERRAT PEÑALOLEN;AV. GRECIA 8585;Lun a vie:09:00 a 21:00Sáb:09:00 a 21:00;-70.5434024741001;-33.4761125273929;Carga de tarjetas,Consulta de saldo, Activación de carga remota
316;SERVIPAG;791-JUMBO CONCHA Y TORO;AV. CONCHA Y TORO 3854 LOC. 1075;Lun a vie: 09:00 a 21:00Sáb: 09:00 a 21:00Dom: 09:00 a 21:00;-70.58294397;-33.57166778;Carga de tarjetas,Consulta de saldo, Activación de carga remota
317;SERVIPAG;794-SANTA ISABEL OCHAGAVIA;AV. JOSE JOAQUIN PRIETO 5531;Lun a vie:09:00 a 20:00Sáb:09:00 a 14:00;-70.6828555221853;-33.5323749727552;Carga de tarjetas,Consulta de saldo, Activación de carga remota
318;SERVIPAG;802-MALL PASEO SANTA FILOMENA;EUSEBIO LILLO 440;Lun a vie:10:00 a 20:00Sáb:10:00 a 14:00;-70.6444841917732;-33.4288462205399;Carga de tarjetas,Consulta de saldo, Activación de carga remota
319;SERVIPAG;808-TOTTUS LA FLORIDA;AV. AMERICO VESPUCIO 7310;Lunes a Viernes:  10:00 a 19:00;-70.595659;-33.519805;Carga de tarjetas,Consulta de saldo, Activación de carga remota
320;SERVIPAG;810-SANTA ISABEL LA CISTERNA;GRAN AVENIDA JOSE MIGUEL CARRERA 6610;Lun a vie:10:00 a 14:00 / 15:00 a 19:00 Sáb:10:00 a 13:00;-70.6588035900165;-33.5180168198838;Carga de tarjetas,Consulta de saldo, Activación de carga remota
321;SERVIPAG;813-COSTANERA CENTER;AV. ANDRES BELLO 2447 Local 216;Lun a Vi:10:00 a 22:00Sáb:10:00 a 22:00Dom:10:00 a 22:00;-70.6081718086979;-33.4177753669844;Carga de tarjetas,Consulta de saldo, Activación de carga remota
322;SERVIPAG;815-SANTA ISABEL HUECHURABA;AV. PEDRO FONTOVA 7789;Lunes a Viernes:  11:00 a 15:00 / 16:00 a 20:00;-70.6703379117934;-33.3476444970472;Carga de tarjetas,Consulta de saldo, Activación de carga remota
323;SERVIPAG;817-CENTRO COMERCIAL ORIENTE;VICUNA MACKENNA 0742, LOCAL 17;Lun a vie:10:00 a 14:00 / 15:00 a 18:30Sáb:10:00 a 14:00;-71.1934570915176;-33.6809794856297;Carga de tarjetas,Consulta de saldo, Activación de carga remota
324;SERVIPAG;825-ESPACIO URBANO MAIPU;RAMON FREIRE 1790;Lun a vie:10:00 a 20:00Sáb:10:00 a 20:00;-70.7573658429448;-33.51062125015;Carga de tarjetas,Consulta de saldo, Activación de carga remota
325;SERVIESTADO;849-SERVIESTADO;VITACURA 2814;Lun-Sab 10:00 a 20:00;-70.6038346761948;-33.4143063718314;Carga de tarjetas,Consulta de saldo, Activación de carga remota
326;SERVIESTADO;880-SERVIESTADO;AV. VICUNA MACKENNA ORIENTE 7110 LOCAL 117-121;Lun-Vie 8:00 a 19:00,Sab 9:00 a 17:00;-70.6000258343121;-33.5186525387528;Carga de tarjetas,Consulta de saldo, Activación de carga remota
327;SERVIESTADO;883-SERVIESTADO;AV. CONCHA Y TORO 1064 LOCAL 18-19;Lun-Vie 8:00 a 19:00,Sab 9:00 a 17:00;-70.5778159246653;-33.6008218044813;Carga de tarjetas,Consulta de saldo, Activación de carga remota
328;SERVIESTADO;885-SERVIESTADO;AV. VICUNA MACKENNA 7802-Local 7;Lun-Vie 8:00 a 19:00,Sab 9:00 a 17:00;-70.5963682177367;-33.5266573896102;Carga de tarjetas,Consulta de saldo, Activación de carga remota
329;SERVIESTADO;889-SERVIESTADO;AV. AMERICO VESPUCIO 2500 LOCAL 10;Lun-Vie 8:00 a 19:00,Sab 9:00 a 17:00;-70.7098458919462;-33.5173362202943;Carga de tarjetas,Consulta de saldo, Activación de carga remota
330;SERVIESTADO;891-SERVIESTADO;MATUCANA 863;Lun-Vie 8:00 a 19:00,Sab 9:00 a 17:00;-70.68022995;-33.43499796;Carga de tarjetas,Consulta de saldo, Activación de carga remota
331;SERVIESTADO;924-SERVIESTADO;GRAN AVENIDA GENERAL JOSE MIGUEL CARRERA 5195;Lun-Vie 8:00 a 19:00,Sab 9:00 a 17:00;-70.654389;-33.501358;Carga de tarjetas,Consulta de saldo, Activación de carga remota
332;SERVIESTADO;925-SERVIESTADO;AV. SANTA ROSA 12786;Lun-Vie 9:00 a 21:00,Sab 9:00 a 19:00;-70.628772;-33.58303;Carga de tarjetas,Consulta de saldo, Activación de carga remota
333;SERVIESTADO;927-SERVIESTADO;JOSE JOAQUIN PEREZ 6140, Loc.  2;Lun-Vie 8:00 a 19:00,Sab 9:00 a 17:00;-70.72070705;-33.43061221;Carga de tarjetas,Consulta de saldo, Activación de carga remota
334;SERVIESTADO;934-SERVIESTADO;ENRIQUE OLIVARES 1448, LOC.  6 y 7;Lun-Vie 8:00 a 19:00,Sab 9:00 a 17:00;-70.57176677;-33.53958299;Carga de tarjetas,Consulta de saldo, Activación de carga remota
335;SERVIESTADO;935-SERVIESTADO;AV. CONSISTORIAL 2039, LOC. 1;Lun-Vie 8:00 a 19:00,Sab 9:00 a 17:00;-70.544187057097;-33.4777802389231;Carga de tarjetas,Consulta de saldo, Activación de carga remota
336;SERVIESTADO;937-SERVIESTADO;MAPOCHO 4116 - 4124;Lun-Vie 8:00 a 19:00,Sab 9:00 a 17:00;-70.69111059;-33.43208276;Carga de tarjetas,Consulta de saldo, Activación de carga remota
337;FULLCARGA;LALITO SN RAMON;URUGUAY 1612;None;-70.64443457;-33.53259911;Carga de tarjetas,Consulta de saldo, Activación de carga remota
338;SERVIESTADO;941-SERVIESTADO;BALMACEDA 354;Lun-Vie 8:00 a 19:00,Sab 9:00 a 17:00;-70.57542239;-33.60808837;Carga de tarjetas,Consulta de saldo, Activación de carga remota
339;FULLCARGA;LUIS ARAYA CARVAJAL;TAMARUGOS 3554;None;-70.6967945734628;-33.3903495490553;Carga de tarjetas,Consulta de saldo, Activación de carga remota
340;SERVIESTADO;959-SERVIESTADO;SAN DIEGO 2032-2034;Lun-Vie 8:00 a 19:00,Sab 9:00 a 17:00;-70.6482392;-33.47233065;Carga de tarjetas,Consulta de saldo, Activación de carga remota
341;SERVIESTADO;975-SERVIESTADO;SAN ANTONIO 427 Local 407;Lun-Vie 8:00 a 19:00,Sab 9:00 a 17:00;-70.64825045;-33.43788426;Carga de tarjetas,Consulta de saldo, Activación de carga remota
342;SERVIESTADO;979-SERVIESTADO;SANTO DOMINGO 972;Lun-Vie 8:00 a 19:00,Sab 9:00 a 17:00;-70.65084421;-33.4362748;Carga de tarjetas,Consulta de saldo, Activación de carga remota
343;SERVIESTADO;980-SERVIESTADO;AV. LIB. BERNARDO OHIGGINS 2670;Lun-Vie 8:00 a 19:00,Sab 9:00 a 17:00;-70.67353148;-33.44970599;Carga de tarjetas,Consulta de saldo, Activación de carga remota
344;SERVIESTADO;981-SERVIESTADO;AV. RECOLETA 336;Lun-Vie 8:00 a 19:00,Sab 9:00 a 17:00;-70.6470448777439;-33.4290078663658;Carga de tarjetas,Consulta de saldo, Activación de carga remota
345;SERVIESTADO;982-SERVIESTADO;AV. LIB. BERNARDO OHIGGINS 3156, LOC. 0676, GALERIA F;Lun-Vie 8:00 a 19:00,Sab 9:00 a 17:00;-70.6781100270276;-33.4506229941267;Carga de tarjetas,Consulta de saldo, Activación de carga remota
346;SERVIESTADO;986-SERVIESTADO;AV. EGANA 50;Lun-Vie 8:00 a 19:00,Sab 9:00 a 17:00;-70.57107139;-33.45382053;Carga de tarjetas,Consulta de saldo, Activación de carga remota
347;SERVIESTADO;987-SERVIESTADO;TEATINOS 425;Lun-Vie 8:00 a 19:00,Sab 9:00 a 17:00;-70.65523364;-33.43872044;Carga de tarjetas,Consulta de saldo, Activación de carga remota
348;SERVIESTADO;994-SERVIESTADO;AV. LIB. BERNARDO OHIGGINS 3156 LOCAL 1072;Lun-Vie 8:00 a 19:00,Sab 9:00 a 17:00;-70.6781100270276;-33.4506229941267;Carga de tarjetas,Consulta de saldo, Activación de carga remota
349;SERVIESTADO;996-SERVIESTADO;PARQUE CENTRAL ORIENTE 1148, CIUDAD SATELITE;Lun-Vie 8:00 a 19:00,Sab 9:00 a 17:00;-70.78582651;-33.56087405;Carga de tarjetas,Consulta de saldo, Activación de carga remota
350;FULLCARGA;MARION;LOS DURAZNOS 356-A;None;-70.710417;-33.466487;Carga de tarjetas,Consulta de saldo, Activación de carga remota
351;FULLCARGA;NISSY LA PINTANA;JOAQUIN EDWARDS BELLO 10999;None;-70.62268808;-33.56360171;Carga de tarjetas,Consulta de saldo, Activación de carga remota
352;FULLCARGA;ERICHOPER;LOS RETAMOS  5615;None;-70.62318232;-33.37779948;Carga de tarjetas,Consulta de saldo, Activación de carga remota
353;FULLCARGA;DON ORLANDO RENCA;ARTURO PRAT 5725 DPTO 11;None;-70.73299013;-33.40400045;Carga de tarjetas,Consulta de saldo, Activación de carga remota
354;FULLCARGA;BAZAR LA KUKA;RECOLETA 4021;None;-70.6422992625761;-33.3884287445116;Carga de tarjetas,Consulta de saldo, Activación de carga remota
355;FULLCARGA;DAVICITO;LOS PLATANOS  1214;None;-70.7327209677419;-33.4334305376344;Carga de tarjetas,Consulta de saldo, Activación de carga remota
356;FULLCARGA;ATEMIS COMPUTACION;GABRIELA PONIENTE 519;None;-70.58762524;-33.57983789;Carga de tarjetas,Consulta de saldo, Activación de carga remota
357;FULLCARGA;ALMACEN GERUDA LO ESPEJO;CALLE ACAPULCO 8197;None;-70.68083991;-33.52312601;Carga de tarjetas,Consulta de saldo, Activación de carga remota
358;FULLCARGA;ALMACEN;CORDILLERA DE LOS ANDES 0145;None;-70.6310983333333;-33.5406205555555;Carga de tarjetas,Consulta de saldo, Activación de carga remota
359;FULLCARGA;CIBER JAVINET;LAS CLARISAS 0777;None;-70.756462;-33.363354;Carga de tarjetas,Consulta de saldo, Activación de carga remota
360;FULLCARGA;JUANA HUENUN;BARTOLOME DIAZ 563;None;-70.6853093586704;-33.5851606014042;Carga de tarjetas,Consulta de saldo, Activación de carga remota
361;FULLCARGA;BAZAR ANGELES;MANUEL ANTONIO MATTA 0246;None;-70.7422969444444;-33.3621937037037;Carga de tarjetas,Consulta de saldo, Activación de carga remota
362;FULLCARGA;DON LUIS;ESTACION PAILLACO 0396;None;-70.6118877935446;-33.620933239242845;Carga de tarjetas,Consulta de saldo, Activación de carga remota
363;FULLCARGA;JAVIER RICARDO PEREIRA PRADO;LAS OLMECAS 10859-B 10859-B;None;-70.616692;-33.559933;Carga de tarjetas,Consulta de saldo, Activación de carga remota
364;FULLCARGA;BUSTAMANTE;TORTEL 758;None;-70.7066513888888;-33.4724813888888;Carga de tarjetas,Consulta de saldo, Activación de carga remota
365;FULLCARGA;EDGAR COSME PORTAL;SAN PABLO 5186;None;-70.7065919667437;-33.4414644927552;Carga de tarjetas,Consulta de saldo, Activación de carga remota
366;FULLCARGA;ELENA MINCHAN AMBROSIO;LOMA LARGA 854;None;-70.536145;-33.413732;Carga de tarjetas,Consulta de saldo, Activación de carga remota
367;FULLCARGA;KIOSKO LAS CARRETAS;BILBAO ESQ LAS CARRETAS S/N;None;-70.578449;-33.431578;Carga de tarjetas,Consulta de saldo, Activación de carga remota
368;FULLCARGA;JUANITA CERRO NAVIA;SALVADOR GUTIERREZ 8085;None;-70.7529148;-33.4164973;Carga de tarjetas,Consulta de saldo, Activación de carga remota
369;FULLCARGA;LOS CHINCHILLOS;CALLE 17 A 901;None;-70.5516327601861;-33.46602302042598;Carga de tarjetas,Consulta de saldo, Activación de carga remota
370;FULLCARGA;LA VALE EL BOSQUE;LOS ARCE 12278;None;-70.68380735853458;-33.567822914405426;Carga de tarjetas,Consulta de saldo, Activación de carga remota
371;FULLCARGA;MARIA TERESA;JUAN LUIS SANFUENTES 8463;None;-70.6450131207735;-33.5369698874354;Carga de tarjetas,Consulta de saldo, Activación de carga remota
372;FULLCARGA;POMPEYITA;LINCOLN 02099;None;-70.67795612;-33.51286149;Carga de tarjetas,Consulta de saldo, Activación de carga remota
373;FULLCARGA;KIOSKO MARIAN LA FLORIDA;SANTA RAQUEL FRENTE AL 4623;None;-70.599648;-33.562996;Carga de tarjetas,Consulta de saldo, Activación de carga remota
374;FULLCARGA;OASIS;ALBERTO LLONA 1470;None;-70.7557102;-33.513673600000004;Carga de tarjetas,Consulta de saldo, Activación de carga remota
375;FULLCARGA;BAZAR MARY LA FLORIDA;TRINIDAD 995;None;-70.59967951557142;-33.546760320366026;Carga de tarjetas,Consulta de saldo, Activación de carga remota
376;FULLCARGA;JUAN BAUTISTA VIDAL BARRIENTOS;SAN PEDRO 1778-B;None;-70.570259;-33.554043;Carga de tarjetas,Consulta de saldo, Activación de carga remota
377;FULLCARGA;LOTO;BALMACEDA 347;None;-70.57531944444445;-33.6093277777778;Carga de tarjetas,Consulta de saldo, Activación de carga remota
378;FULLCARGA;MIGUEL AGUILERA;PASAJE QUECHUAS 2009;None;-70.55766685;-33.47595427;Carga de tarjetas,Consulta de saldo, Activación de carga remota
379;FULLCARGA;PUNTO ARAUCO;ARAUCO 185;None;-70.62870143;-33.47031701;Carga de tarjetas,Consulta de saldo, Activación de carga remota
380;FULLCARGA;MONICA PILAR ESPINOZA MARTINEZ;EL SALTO 2911;None;-70.6289944871794;-33.400252051282;Carga de tarjetas,Consulta de saldo, Activación de carga remota
381;FULLCARGA;ROSITA;5 DE ABRIL 3331;None;-70.686829;-33.505795;Carga de tarjetas,Consulta de saldo, Activación de carga remota
382;FULLCARGA;ELLEN MARLENE MOSCOSO GAS;CERRO PARANAL 1765;None;-70.55635616738475;-33.59360142005146;Carga de tarjetas,Consulta de saldo, Activación de carga remota
383;FULLCARGA;GUILLERMINA ESTER;VECINAL NORTE 734;None;-70.6730765471254;-33.57857107027501;Carga de tarjetas,Consulta de saldo, Activación de carga remota
384;FULLCARGA;D LLA FRUIT;MANUEL ANTONIO MATTA 1920;None;-70.7064117593493;-33.3655641126751;Carga de tarjetas,Consulta de saldo, Activación de carga remota
385;FULLCARGA;CAMILA PUDAHUEL;CALLE DAGOBERTO GODOY 1080;None;-70.74709686;-33.43705396;Carga de tarjetas,Consulta de saldo, Activación de carga remota
386;FULLCARGA;MARKITO;MONJA ALFEREZ  4815;None;-70.66145075;-33.49450266;Carga de tarjetas,Consulta de saldo, Activación de carga remota
387;FULLCARGA;MINIMARKET ENRIQUE;BARROS ARANA 1314;None;-70.7032633333333;-33.6067033333333;Carga de tarjetas,Consulta de saldo, Activación de carga remota
388;FULLCARGA;FERNANDA;CHIGUAYANTE 914;None;-70.70288922;-33.57657313;Carga de tarjetas,Consulta de saldo, Activación de carga remota
389;FULLCARGA;GLADYS;PADRE PALOTINOS  0175 ;None;-70.69900069444445;-33.624617777777786;Carga de tarjetas,Consulta de saldo, Activación de carga remota
390;FULLCARGA;DON BETO;GENERAL SILVA 12202;None;-70.66313081413;-33.575610358146754;Carga de tarjetas,Consulta de saldo, Activación de carga remota
391;FULLCARGA;JUANA DEL CARMEN;PASTORAL 526;None;-70.632004;-33.371393;Carga de tarjetas,Consulta de saldo, Activación de carga remota
392;FULLCARGA;ISABEL PETRONILA ARCAYA G;CALLE RENE OLIVARES BECERRA 2865;None;-70.7880081;-33.54208479;Carga de tarjetas,Consulta de saldo, Activación de carga remota
393;FULLCARGA;BOTILLERIA CAROLINA;TENIENTE LUIS CRUZ MARTINEZ 12723;None;-70.6596529916666;-33.5786070722222;Carga de tarjetas,Consulta de saldo, Activación de carga remota
394;FULLCARGA;SAN ANDRES;SERGIO VALDOVINOS 1285;None;-70.7069183442484;-33.4382121791096;Carga de tarjetas,Consulta de saldo, Activación de carga remota
395;FULLCARGA;ALMACEN LA ESCALERA SAN JOAQUIN;ALCALDE PEDRO ALARCON 478;None;-70.6348931666666;-33.4899533888888;Carga de tarjetas,Consulta de saldo, Activación de carga remota
396;FULLCARGA;COM GONZALEZ CERRO NAVIA;AVENIDA SALVADOR GUTIERREZ 8009;None;-70.75065131;-33.41671244;Carga de tarjetas,Consulta de saldo, Activación de carga remota
397;FULLCARGA;ALMACEN C Y S;TONGOY 1123;None;-70.6434652225976;-33.5811171246109;Carga de tarjetas,Consulta de saldo, Activación de carga remota
398;FULLCARGA;JUAN MUÑOZ;HECTOR AHUMADA 1984;None;-70.72934523;-33.41934605;Carga de tarjetas,Consulta de saldo, Activación de carga remota
399;FULLCARGA;ISABEL C CISTERNA MATURA;VICUNA MACKENNA PONIENTE  9705 B;None;-70.58876459298325;-33.54536061855202;Carga de tarjetas,Consulta de saldo, Activación de carga remota
400;FULLCARGA;SANTA TERESA;3 PONIENTE 0342;None;-70.7726081558051;-33.5330709393052;Carga de tarjetas,Consulta de saldo, Activación de carga remota
401;FULLCARGA;KAREN;SAN FRANCISCO 9134;None;-70.651307117117;-33.5425198198198;Carga de tarjetas,Consulta de saldo, Activación de carga remota
402;FULLCARGA;EL NEGRITO RENCA;JOSE MIGUEL INFANTE 5650;None;-70.72703411;-33.40662805;Carga de tarjetas,Consulta de saldo, Activación de carga remota
403;FULLCARGA;LOS 121 LO ESPEJO;LUCILA GODOY 02360;None;-70.6817731034482;-33.515172183908;Carga de tarjetas,Consulta de saldo, Activación de carga remota
404;FULLCARGA;LENNY;RIO MALLECO 747;None;-70.7597808222442;-33.3604366295564;Carga de tarjetas,Consulta de saldo, Activación de carga remota
405;FULLCARGA;LEOCRISMA;UMBRAL 2184;None;-70.52573035387469;-33.481972554307156;Carga de tarjetas,Consulta de saldo, Activación de carga remota
406;FULLCARGA;SAN RICARDO LA PINTANA;EL QUILLAY 1108;None;-70.643728;-33.586301;Carga de tarjetas,Consulta de saldo, Activación de carga remota
407;FULLCARGA;LUAN RENCA;RAUL OLIVARES 1872;None;-70.74153056;-33.39701578;Carga de tarjetas,Consulta de saldo, Activación de carga remota
408;FULLCARGA;TIENDA UPA!-SHELL  (F.663);SANTA ELENA ESQ. AMERICO VESPUCIO 1077;None;-70.754290;-33.479164;Carga de tarjetas,Consulta de saldo, Activación de carga remota
409;FULLCARGA;CLAUDIA URRUTIA;ESMERALDA 6349;None;-70.57096293333333;-33.48071453333333;Carga de tarjetas,Consulta de saldo, Activación de carga remota
410;FULLCARGA;BAZAR ARIEL LO ESPEJO;PASAJE VEINTICINCO 6504;None;-70.6734560483028;-33.5107587165928;Carga de tarjetas,Consulta de saldo, Activación de carga remota
411;FULLCARGA;KEVIN;HERRERA 1002;None;-70.6783221314172;-33.433583050703;Carga de tarjetas,Consulta de saldo, Activación de carga remota
412;FULLCARGA;VILUM MARKET CERRO NAVIA;MAMA KRISTINA 1680;None;-70.74787659;-33.42583143;Carga de tarjetas,Consulta de saldo, Activación de carga remota
413;FULLCARGA;TIENDA UPA!-SHELL  (F.165);GENERAL BLANCHE  11860;None;-70.5168017777428;-33.4028162868279;Carga de tarjetas,Consulta de saldo, Activación de carga remota
414;FULLCARGA;ANITA;MAIPU 6311;None;-70.6844407312925;-33.5040707551021;Carga de tarjetas,Consulta de saldo, Activación de carga remota
415;FULLCARGA;ROSA CARVAJAL CONTRERAS;RIO ACONCAGUA 1014;None;-70.615440;-33.550491;Carga de tarjetas,Consulta de saldo, Activación de carga remota
416;FULLCARGA;BAZAR TODO ESCOLAR;MANUEL ANTONIO MATTA 0245;None;-70.7344693853511;-33.3639201757277;Carga de tarjetas,Consulta de saldo, Activación de carga remota
417;FULLCARGA;EL TALENTO QUILICURA;EL EBANO 1019;None;-70.7185025776446;-33.3533555473489;Carga de tarjetas,Consulta de saldo, Activación de carga remota
418;FULLCARGA;LAS ROSAS;SAN PEDRO NOLASCO 1803;None;-70.66714196969697;-33.58947555555556;Carga de tarjetas,Consulta de saldo, Activación de carga remota
419;FULLCARGA;TIENDA UPA!-SHELL  (F.152);CRISTOBAL COLON 4359;None;-70.5798304278255;-33.4236650598888;Carga de tarjetas,Consulta de saldo, Activación de carga remota
420;FULLCARGA;PATRICIA;LIBERTADOR BERNARDO OHIGGINS  3410;None;-70.68128983742173;-33.45191760202692;Carga de tarjetas,Consulta de saldo, Activación de carga remota
421;FULLCARGA;BAZAR CLAUDIA;REY DON FELIPE 1251;None;-70.6393938791466;-33.5777222034571;Carga de tarjetas,Consulta de saldo, Activación de carga remota
422;FULLCARGA;EL TAMBO;LOS RAULIES  11461;None;-70.66715409090911;-33.56875636363637;Carga de tarjetas,Consulta de saldo, Activación de carga remota
423;FULLCARGA;LAS PRINCESITAS;JOSE MANUEL BALMACEDA 1252;None;-70.6395078648141;-33.5787773964072;Carga de tarjetas,Consulta de saldo, Activación de carga remota
424;FULLCARGA;LEINA ANDRAWES BOULES HEJAZEEN;HERNANDO DE MAGALLANES 872;None;-70.55936936;-33.41527122;Carga de tarjetas,Consulta de saldo, Activación de carga remota
425;FULLCARGA;TIENDA UPA!-SHELL  (F.107);FRANCISCO BILBAO 3785;None;-70.5850936994415;-33.4320620648256;Carga de tarjetas,Consulta de saldo, Activación de carga remota
426;FULLCARGA;EL DROOPY;VICTORIA  3266;None;-70.7689458535552;-33.4971336199571;Carga de tarjetas,Consulta de saldo, Activación de carga remota
427;FULLCARGA;ANITA;MARIA AUXILIADORA 702;None;-70.6410821428571;-33.4896497619048;Carga de tarjetas,Consulta de saldo, Activación de carga remota
428;FULLCARGA;BRINDIS;FREIRE 695;None;-70.70512298245616;-33.59607815789472;Carga de tarjetas,Consulta de saldo, Activación de carga remota
429;FULLCARGA;ARIAS MARKET;VICUÑA MACKENA 1333-A;None;-70.6287738157861;-33.459616264294;Carga de tarjetas,Consulta de saldo, Activación de carga remota
430;FULLCARGA;SAN VICENTE;JULIO COVARRUBIAS 10092;None;-70.6608313682667;-33.5548048709251;Carga de tarjetas,Consulta de saldo, Activación de carga remota
431;FULLCARGA;JENNY ALVAREZ FUENTES;CENTRAL CARDENAL SILVA HENRIQUEZ 4635;None;-70.686703;-33.494825;Carga de tarjetas,Consulta de saldo, Activación de carga remota
432;FULLCARGA;LA COTE;TENIENTE CRUZ 1494;None;-70.739746;-33.425554;Carga de tarjetas,Consulta de saldo, Activación de carga remota
433;FULLCARGA;EL GRIFO;CHIPANA 555 DEPTO A-11;None;-70.75143984848482;-33.36591558441559;Carga de tarjetas,Consulta de saldo, Activación de carga remota
434;FULLCARGA;TIENDA UPA!-SHELL  (F.159);PEDRO AGUIRRE CERDA 4981;None;-70.6973440500445;-33.4848946887901;Carga de tarjetas,Consulta de saldo, Activación de carga remota
435;FULLCARGA;ECOMARKET S;LOS MANUTARAS 530;None;-70.7400765337963;-33.4580877935827;Carga de tarjetas,Consulta de saldo, Activación de carga remota
436;FULLCARGA;TIENDA UPA!-SHELL  (F.793);CARLOS ANTUNEZ 2490;None;-70.6020194232275;-33.4267514761552;Carga de tarjetas,Consulta de saldo, Activación de carga remota
437;FULLCARGA;SAY HERMINIA BALBOA FLORES;COOPERACION 6381;None;-70.687401;-33.504356;Carga de tarjetas,Consulta de saldo, Activación de carga remota
438;FULLCARGA;RODRIGO;CERRO NEVADO 1735-B;None;-70.7363466666667;-33.4985916666667;Carga de tarjetas,Consulta de saldo, Activación de carga remota
439;FULLCARGA;DONDE LA NANCY;ESTADIO DE QUILICURA 67;None;-70.73917166666668;-33.349934761904755;Carga de tarjetas,Consulta de saldo, Activación de carga remota
440;FULLCARGA;ANDREA - ANDRES;SIERRA BELLA 2025;None;-70.633251;-33.471605;Carga de tarjetas,Consulta de saldo, Activación de carga remota
441;FULLCARGA;DONDE LAS CHIQUILLAS JESSICA Y SILVIA;BURGOS 193;None;-70.734225462963;-33.3532874074074;Carga de tarjetas,Consulta de saldo, Activación de carga remota
442;FULLCARGA;VILLA ALEGRE;COLO COLO 1240;None;-70.7243359564935;-33.497214686585;Carga de tarjetas,Consulta de saldo, Activación de carga remota
443;FULLCARGA;JOSE HERMIDA ARBUCH;LONGITUDINAL 3 LOCAL 701;None;-70.6766523879444;-33.4174706085135;Carga de tarjetas,Consulta de saldo, Activación de carga remota
444;FULLCARGA;MARCELA ANDREA AGURTO ORTEGA;JOSE VICTORINO LASTARRIA 51;None;-70.640907;-33.439659;Carga de tarjetas,Consulta de saldo, Activación de carga remota
445;FULLCARGA;MINIMARKET;RAUL SILVA HENRIQUEZ 1233;None;-70.73011004647434;-33.432862323557686;Carga de tarjetas,Consulta de saldo, Activación de carga remota
446;FULLCARGA;JUAN PABLO MORENO VERA;NUEVA IMPERIAL 4305;None;-70.6935877605865;-33.4446070934453;Carga de tarjetas,Consulta de saldo, Activación de carga remota
447;FULLCARGA;ETIENNE;EL LIBERTADOR 729;None;-70.668747;-33.569740;Carga de tarjetas,Consulta de saldo, Activación de carga remota
448;FULLCARGA;ALMACEN LA ITA;LUIS MATTE LARRAIN 02039;None;-70.558807;-33.584869;Carga de tarjetas,Consulta de saldo, Activación de carga remota
449;FULLCARGA;BAZAR;PARQUE CENTRAL PTE 1189 A;None;-70.7860125;-33.56172416666665;Carga de tarjetas,Consulta de saldo, Activación de carga remota
450;FULLCARGA;PROVISIONES OLGUITA RECOL;LA VALLEJA 4091;None;-70.65359252;-33.38457392;Carga de tarjetas,Consulta de saldo, Activación de carga remota
451;FULLCARGA;MARINA CORREA;LOS JILGUEROS 2148;None;-70.689651;-33.35735359;Carga de tarjetas,Consulta de saldo, Activación de carga remota
452;FULLCARGA;SANTA OLGA;AURORA DE CHILE 2437;None;-70.67511298;-33.41304471;Carga de tarjetas,Consulta de saldo, Activación de carga remota
453;FULLCARGA;LA FAMILIA;PADRE JAIME LARRAIN 7 A;None;-70.6985782133289;-33.461998008532;Carga de tarjetas,Consulta de saldo, Activación de carga remota
454;FULLCARGA;LIBRERIA JIT VITACURA;PRESIDENTE KENNEDY 7946;None;-70.5534623148722;-33.3913782111783;Carga de tarjetas,Consulta de saldo, Activación de carga remota
455;FULLCARGA;MARTINA;SIMON BOLIVAR 4444;None;-70.7232939583333;-33.4739939583333;Carga de tarjetas,Consulta de saldo, Activación de carga remota
456;FULLCARGA;KIOSKO BIP VITACURA LAS U;VITACURA 9275;None;-70.5468315614861;-33.3822622500193;Carga de tarjetas,Consulta de saldo, Activación de carga remota
457;FULLCARGA;MINIMARKET KEKO;TEHUACO 1331;None;-70.698641;-33.474366;Carga de tarjetas,Consulta de saldo, Activación de carga remota
458;FULLCARGA;LOS SOCIOS EST CENTRAL;5 DE ABRIL 5493 B;None;-70.71326698;-33.46860798;Carga de tarjetas,Consulta de saldo, Activación de carga remota
459;FULLCARGA;ANGEMAR 13 SN MIGUEL;VARAS MENA 551;None;-70.64060504;-33.51211963;Carga de tarjetas,Consulta de saldo, Activación de carga remota
460;FULLCARGA;FRANCISCO JAVIER GONZALEZ;SANTO TOMAS 500;None;-70.6241036385455;-33.5576789175267;Carga de tarjetas,Consulta de saldo, Activación de carga remota
461;FULLCARGA;DON REMI CERRILLOS;CALLE LA PRIMAVERA  930;None;-70.7340933113409;-33.5082795458454;Carga de tarjetas,Consulta de saldo, Activación de carga remota
462;FULLCARGA;SANTA ELENA LA GRANJA;PADRE ANTONIO JUPNERK 0297;None;-70.630266147619;-33.5464857904761;Carga de tarjetas,Consulta de saldo, Activación de carga remota
463;FULLCARGA;YASNITA Y CARLITOS EST CE;ANTARTICA 4730;None;-70.69929737;-33.47005404;Carga de tarjetas,Consulta de saldo, Activación de carga remota
464;FULLCARGA;LUIS MORA CERRILLOS;FELIX MARGOZ 844;None;-70.71528509;-33.49056193;Carga de tarjetas,Consulta de saldo, Activación de carga remota
465;FULLCARGA;MINIMARKET JUAN PABLO;LAS REJAS SUR 1434;None;-70.70340285;-33.47404759;Carga de tarjetas,Consulta de saldo, Activación de carga remota
466;FULLCARGA;BOTILLERIA GILBERTO HUECH;LOS TEHUELCHES 5832;None;-70.63843017;-33.36827503;Carga de tarjetas,Consulta de saldo, Activación de carga remota
467;FULLCARGA;LOS LAGOS;LOS LAGOS 2751;None;-70.5639700679861;-33.4826560897059;Carga de tarjetas,Consulta de saldo, Activación de carga remota
468;FULLCARGA;FARM LA FE LO ESPEJO;CENTRAL CARD.RAUL SILVA HENRIQUEZ 7821;None;-70.695889;-33.519935;Carga de tarjetas,Consulta de saldo, Activación de carga remota
469;FULLCARGA;BAZAR LOS CRUCES;MAR DE CHILE 1741-A;None;-70.764905;-33.4164266666667;Carga de tarjetas,Consulta de saldo, Activación de carga remota
470;FULLCARGA;GOOD LUCK;RECOLETA 901 L-4;None;-70.6444796376811;-33.4216926086956;Carga de tarjetas,Consulta de saldo, Activación de carga remota
471;FULLCARGA;MYC;VECINAL 4986;None;-70.624184;-33.502426;Carga de tarjetas,Consulta de saldo, Activación de carga remota
472;FULLCARGA;TIENDA UPA!-SHELL  (F.130);BELLAVISTA 151;None;-70.63999388497152;-33.43411096033961;Carga de tarjetas,Consulta de saldo, Activación de carga remota
473;FULLCARGA;NUESTROS QUERUBINES;EL BOSQUE 10682;None;-70.63471979114216;-33.559856360045956;Carga de tarjetas,Consulta de saldo, Activación de carga remota
474;FULLCARGA;MINIMARKET ESPERANZA;ESPERANZA 1394;None;-70.6768387;-33.42927823;Carga de tarjetas,Consulta de saldo, Activación de carga remota
475;FULLCARGA;KIOSCO JUAN OMAR PEZZO ZONCO;VICUNA MACKENNA 8022;None;-70.595627;-33.528309;Carga de tarjetas,Consulta de saldo, Activación de carga remota
476;FULLCARGA;CAMILA SANTIAGO;SAN PABLO 2811;None;-70.6748631295928;-33.4350232069459;Carga de tarjetas,Consulta de saldo, Activación de carga remota
477;FULLCARGA;TIO ARTURO CERRILLOS;SAN ANDRES 4165-A;None;-70.68860565;-33.48202372;Carga de tarjetas,Consulta de saldo, Activación de carga remota
478;FULLCARGA;PANADERIA VILLA MEXICO;LOS TILOS 421;None;-70.729950;-33.508053;Carga de tarjetas,Consulta de saldo, Activación de carga remota
479;FULLCARGA;LUIS RAMIREZ RABIE CERRIL;CIUDAD DE MEXICO 302 H;None;-70.7367877;-33.50997063;Carga de tarjetas,Consulta de saldo, Activación de carga remota
480;FULLCARGA;BAZAR FREDDY;CHILLAN 1247;None;-70.69752546;-33.4083333;Carga de tarjetas,Consulta de saldo, Activación de carga remota
481;FULLCARGA;ALMACEN EL PROGRESO RENCA;BALMACEDA 4804;None;-70.71849915;-33.40167963;Carga de tarjetas,Consulta de saldo, Activación de carga remota
482;FULLCARGA;EL MIRADOR CERRILLOS;EL MIRADOR 504;None;-70.71914043;-33.50484491;Carga de tarjetas,Consulta de saldo, Activación de carga remota
483;FULLCARGA;LAS MARGARITAS RENCA;LAS MARGARITAS 2426;None;-70.69846789;-33.3915755;Carga de tarjetas,Consulta de saldo, Activación de carga remota
484;FULLCARGA;FERMIN RENCA;FRESIA 2320;None;-70.69486567;-33.39196234;Carga de tarjetas,Consulta de saldo, Activación de carga remota
485;FULLCARGA;MAITE;OCHO DE ENERO 4190;None;-70.6910943585002;-33.4672725883322;Carga de tarjetas,Consulta de saldo, Activación de carga remota
486;FULLCARGA;SANTOS SN RAMON;BOLIVIA 1729;None;-70.64451891;-33.5389786;Carga de tarjetas,Consulta de saldo, Activación de carga remota
487;FULLCARGA;EL CID;HISTORIADOR JAIME EYZAGUIRRE 2076;None;-70.580391;-33.474495;Carga de tarjetas,Consulta de saldo, Activación de carga remota
488;FULLCARGA;SANTA IRMA LO ESPEJO;BOYERO 7750;None;-70.691424;-33.522305;Carga de tarjetas,Consulta de saldo, Activación de carga remota
489;FULLCARGA;ALEBAR MACUL;FABRICIANO GONZALEZ URZUA 6054;None;-70.59700028;-33.50850691;Carga de tarjetas,Consulta de saldo, Activación de carga remota
490;FULLCARGA;ROSITA CERRILLOS;REAL AUDENCIA 1655;None;-70.73016346;-33.50332886;Carga de tarjetas,Consulta de saldo, Activación de carga remota
491;FULLCARGA;BOTILLERIA DON PATO;EL MIRADOR 529;None;-70.71972763;-33.50447589;Carga de tarjetas,Consulta de saldo, Activación de carga remota
492;FULLCARGA;SANTA TERESA LO ESPEJO;3 SUR 3834;None;-70.6862966873322;-33.5099296891458;Carga de tarjetas,Consulta de saldo, Activación de carga remota
493;FULLCARGA;MARIA JOSE PEDRO A CERDA;RAUL FUICA 5061;None;-70.67780421;-33.49244152;Carga de tarjetas,Consulta de saldo, Activación de carga remota
494;FULLCARGA;DASIA - PAC;CLUB HIPICO 5005;None;-70.67058964;-33.49558001;Carga de tarjetas,Consulta de saldo, Activación de carga remota
495;FULLCARGA;LOBUSAN;VALENZUELA LLANOS 3215;None;-70.6768374687782;-33.4791432439108;Carga de tarjetas,Consulta de saldo, Activación de carga remota
496;FULLCARGA;SANTA ANA;NAVIDAD  2118;None;-70.6754233736979;-33.5070128867187;Carga de tarjetas,Consulta de saldo, Activación de carga remota
497;FULLCARGA;EL CHIMBOTANO;SANTA ISABEL 570;None;-70.64256167;-33.45031561;Carga de tarjetas,Consulta de saldo, Activación de carga remota
498;FULLCARGA;SR DE MURUHUAY;RIVERA 1558;None;-70.657049;-33.4259786666667;Carga de tarjetas,Consulta de saldo, Activación de carga remota
499;FULLCARGA;ARAKNIDO;JUAN BAUTISTA JOFRE 570 570;None;-70.64019612801438;-33.38565743690798;Carga de tarjetas,Consulta de saldo, Activación de carga remota
500;FULLCARGA;LA PIA;FROILAN ROA 5023;None;-70.60031799455521;-33.4997344179;Carga de tarjetas,Consulta de saldo, Activación de carga remota
501;FULLCARGA;BIG CHANCE 2;BENITO REBOLLEDO 2927;None;-70.6028219055622;-33.5022500837448;Carga de tarjetas,Consulta de saldo, Activación de carga remota
502;FULLCARGA;KAVIMAR;LUCILA GODOY 02164 A;None;-70.6798890526994;-33.5156922253547;Carga de tarjetas,Consulta de saldo, Activación de carga remota
503;FULLCARGA;LUDIGO;LOS CERRILLOS 4030 L154;None;-70.6847420027249;-33.4833246775658;Carga de tarjetas,Consulta de saldo, Activación de carga remota
504;FULLCARGA;LA KELA;CELANOVA 1298;None;-70.6545587280701;-33.5583858333333;Carga de tarjetas,Consulta de saldo, Activación de carga remota
505;FULLCARGA;SAGITARIO;DOCTOR AMADOR NEGHME 3900;None;-70.5914448362027;-33.4992327608546;Carga de tarjetas,Consulta de saldo, Activación de carga remota
506;FULLCARGA;LA CHILOTA;JOSE JOAQUIN AGUIRRE LUCO  1065;None;-70.6447329569892;-33.3764619892473;Carga de tarjetas,Consulta de saldo, Activación de carga remota
507;FULLCARGA;CALVER;BUZETA 4018;None;-70.68833296;-33.47972286;Carga de tarjetas,Consulta de saldo, Activación de carga remota
508;FULLCARGA;JACQUELINE VERGARA SN RAM;SANTA ROSA 8581;None;-70.6345504042565;-33.5388466285392;Carga de tarjetas,Consulta de saldo, Activación de carga remota
509;FULLCARGA;DAMU 4 LIFE;MILAN 1220;None;-70.64957848;-33.4776734;Carga de tarjetas,Consulta de saldo, Activación de carga remota
510;FULLCARGA;CARLOS BUSTOS-MINIMARKET;5 DE ABRIL 5172;None;-70.70460915;-33.46475484;Carga de tarjetas,Consulta de saldo, Activación de carga remota
511;FULLCARGA;AQUILES FUENZALIDA FLORES;MACUL 4261;None;-70.59989417;-33.49268128;Carga de tarjetas,Consulta de saldo, Activación de carga remota
512;FULLCARGA;RAMON PONCE SN JOAQUIN;VICUNA MACKENNA 5561;None;-70.61419479;-33.50771073;Carga de tarjetas,Consulta de saldo, Activación de carga remota
513;FULLCARGA;JU-CA PEDRO A CERDA;AVENIDA PRESIDENTE SALVADOR ALLENDE 2139 ;None;-70.665121;-33.488593;Carga de tarjetas,Consulta de saldo, Activación de carga remota
514;FULLCARGA;LA ECONOMICA EST CENTRAL;PADRE JAIME LARRAIN HURTADO 132;None;-70.69820526;-33.4635234;Carga de tarjetas,Consulta de saldo, Activación de carga remota
515;FULLCARGA;MARION LA PINTANA;GABRIELA FIGUEROA 10734;None;-70.62533615;-33.55938159;Carga de tarjetas,Consulta de saldo, Activación de carga remota
516;FULLCARGA;CAROL CLUB LA GRANJA;2 NORTE 745;None;-70.61636729;-33.53642693;Carga de tarjetas,Consulta de saldo, Activación de carga remota
517;FULLCARGA;ALMACEN DON RENE LO ESPEJO;CALLE HUASCO 6810;None;-70.67900788;-33.51272321;Carga de tarjetas,Consulta de saldo, Activación de carga remota
518;FULLCARGA;BAZAR VALLE VERDE EST CEN;DEL PARQUE 076;None;-70.7230144617819;-33.4621347693076;Carga de tarjetas,Consulta de saldo, Activación de carga remota
519;FULLCARGA;BOTILLERIA TIMY LA PINTAN;ISABEL BRAVO 13119;None;-70.6617413;-33.58277145;Carga de tarjetas,Consulta de saldo, Activación de carga remota
520;FULLCARGA;CARMELITA EST CENTRAL;CALLE PADRE VICENTE IRARRAZABAL  1384;None;-70.6929604688548;-33.4670672309781;Carga de tarjetas,Consulta de saldo, Activación de carga remota
521;FULLCARGA;ALMACEN ALICIA Y FIDEL;SANTA FE  744;None;-70.6484183455555;-33.5119627699206;Carga de tarjetas,Consulta de saldo, Activación de carga remota
522;FULLCARGA;MINIMARKET HAROLDO;QUINCHAMALI 467;None;-70.53894105;-33.4560795;Carga de tarjetas,Consulta de saldo, Activación de carga remota
523;FULLCARGA;3 ORIENTE;3 ORIENTE 3437;None;-70.6785239430932;-33.4805714128192;Carga de tarjetas,Consulta de saldo, Activación de carga remota
524;FULLCARGA;PANADERIA LA REINA;VASCO NUNEZ DE BALBOA 4936;None;-70.63748526;-33.50274853;Carga de tarjetas,Consulta de saldo, Activación de carga remota
525;FULLCARGA;MINIMARKET;LOS CARACOLES 168;None;-70.53411111;-33.45396847;Carga de tarjetas,Consulta de saldo, Activación de carga remota
526;FULLCARGA;BOTILLERIA NELSON; LAS INDUSTRIAS  6674 ;None;-70.6230408019735;-33.5234882527091;Carga de tarjetas,Consulta de saldo, Activación de carga remota
527;FULLCARGA;DON TOMAS;AV MAQUINISTA GENTOSO  1101;None;-70.6862847810177;-33.4625680215968;Carga de tarjetas,Consulta de saldo, Activación de carga remota
528;FULLCARGA;ALMACEN INFOSER LA GRANJA;DIAGONAL SUR ORIENTE 0277;None;-70.630700881804;-33.545014559992;Carga de tarjetas,Consulta de saldo, Activación de carga remota
529;FULLCARGA;GUILLERMO JAVIER VILLARRO;CALLE SALAR DEL CARMEN 469;None;-70.53475856;-33.45663562;Carga de tarjetas,Consulta de saldo, Activación de carga remota
530;FULLCARGA;MINIMARKET;SANTA RITA  13715 casa 1;None;-70.505798;-33.362408;Carga de tarjetas,Consulta de saldo, Activación de carga remota
531;FULLCARGA;RITA;DOMINGO SANTA CRUZ 0827;None;-70.654608822757;-33.5849289905;Carga de tarjetas,Consulta de saldo, Activación de carga remota
532;FULLCARGA;EL ALVEAR LA PINTANA;CELANOVA 1726;None;-70.64902815;-33.55862679;Carga de tarjetas,Consulta de saldo, Activación de carga remota
533;FULLCARGA;HERNAN;URUGUAY  1447;None;-70.6464162923635;-33.5324688481977;Carga de tarjetas,Consulta de saldo, Activación de carga remota
534;FULLCARGA;VICTOR HUGO PEDRO A CERDA;GRAL MORA 4374;None;-70.68387275;-33.4920885833333;Carga de tarjetas,Consulta de saldo, Activación de carga remota
535;FULLCARGA;RICHY;GOLFO TRINIDAD 1043;None;-70.6457822171174;-33.5797579411356;Carga de tarjetas,Consulta de saldo, Activación de carga remota
536;FULLCARGA;LEIDY SN JOAQUIN;ARTEMIO GUTIERREZ 2505;None;-70.63225286;-33.47786515;Carga de tarjetas,Consulta de saldo, Activación de carga remota
537;FULLCARGA;MAKTUB;LOS FRANCISCANOS 2002;None;-70.6365502871001;-33.544675079698;Carga de tarjetas,Consulta de saldo, Activación de carga remota
538;FULLCARGA;BRISTELA MUÑOZ GARRIDO;LAS PETUNIAS 119;None;-70.61830995;-33.37761422;Carga de tarjetas,Consulta de saldo, Activación de carga remota
539;FULLCARGA;RONALD LA GRANJA;AVDA TOME  273;None;-70.628023903003;-33.5325430634221;Carga de tarjetas,Consulta de saldo, Activación de carga remota
540;FULLCARGA;MAMI MARIA;ALMIRANTE LATORRE 10600;None;-70.645689047619;-33.5567188095237;Carga de tarjetas,Consulta de saldo, Activación de carga remota
541;FULLCARGA;AMASANDERIA ROYAL;5 DE ABRIL 1400;None;-70.72904922;-33.50981657;Carga de tarjetas,Consulta de saldo, Activación de carga remota
542;FULLCARGA;DIMAR LA PINTANA;JOSE EDWARDS BELLO 13077;None;-70.655475;-33.58321281;Carga de tarjetas,Consulta de saldo, Activación de carga remota
543;FULLCARGA;LA CASITA LO ESPEJO;TEMISTOCLES 6498;None;-70.68379353;-33.5071939;Carga de tarjetas,Consulta de saldo, Activación de carga remota
544;FULLCARGA;TIO LALO LO ESPEJO;PSJE PEGASO 03314;None;-70.694580;-33.522549;Carga de tarjetas,Consulta de saldo, Activación de carga remota
545;FULLCARGA;ROMERO KIOSCO;LUIS CARRERA 1332;None;-70.5771634823551;-33.396868219376586;Carga de tarjetas,Consulta de saldo, Activación de carga remota
546;FULLCARGA;ANTU;LA DEHESA 2014;None;-70.5186890593625;-33.3526786508204;Carga de tarjetas,Consulta de saldo, Activación de carga remota
547;FULLCARGA;SAN RAFAEL EST CENTRAL;EL CARMELO 303;None;-70.69906968;-33.46559571;Carga de tarjetas,Consulta de saldo, Activación de carga remota
548;FULLCARGA;AL PASO PUNTO BIP;CLUB HIPICO 3095 A;None;-70.66487239;-33.48238516;Carga de tarjetas,Consulta de saldo, Activación de carga remota
549;FULLCARGA;TORITO;CLOTARIO BLEST 7562 DPTO 101;None;-70.685463;-33.517021;Carga de tarjetas,Consulta de saldo, Activación de carga remota
550;FULLCARGA;BAZAR LOS NIETOS LO ESPEJ;LO OVALLE 2680;None;-70.68064225;-33.50738589;Carga de tarjetas,Consulta de saldo, Activación de carga remota
551;FULLCARGA;EL FUTURO LA PINTANA;SAN FRANCISCO 10944;None;-70.65630123;-33.56100589;Carga de tarjetas,Consulta de saldo, Activación de carga remota
552;FULLCARGA;JUAN BARRAZA SEPULVEDA;BALDOMERO LILLO 1951 LOCAL 3;None;-70.629456;-33.582924;Carga de tarjetas,Consulta de saldo, Activación de carga remota
553;FULLCARGA;MINIMARKET EXPRESS LA REI;VALENZUELA LLANOS 9008;None;-70.53859945;-33.44756637;Carga de tarjetas,Consulta de saldo, Activación de carga remota
554;FULLCARGA;SOLEY LO PRADO;GABRIELA MISTRAL 677;None;-70.7373815972298;-33.4500539557388;Carga de tarjetas,Consulta de saldo, Activación de carga remota
555;FULLCARGA;PABLO CESAR PEREZ CABRERA;VALLE HERMOSO 9250;None;-70.534225;-33.466759;Carga de tarjetas,Consulta de saldo, Activación de carga remota
556;FULLCARGA;EL CLAN DESTINO PAC;AV CENTRAL CARDENAL SILVA HENRIQUEZ 6308;None;-70.6901508783859;-33.5020227411559;Carga de tarjetas,Consulta de saldo, Activación de carga remota
557;FULLCARGA;ERBI - SAN JUAN;SAN JUAN 7209;None;-70.7193680457437;-33.5000443202893;Carga de tarjetas,Consulta de saldo, Activación de carga remota
558;FULLCARGA;VIVI LA PINTANA;TENIENTE MONTT SALAMANCA  12431;None;-70.65793768;-33.57680251;Carga de tarjetas,Consulta de saldo, Activación de carga remota
559;FULLCARGA;ERBI - SAN MIGUEL 2;GRAN AVENIDA 4293;None;-70.651803647778;-33.4933614087607;Carga de tarjetas,Consulta de saldo, Activación de carga remota
560;FULLCARGA;ERBI - VITACURA (SAN JOSE MARIA ESCRIVA);SAN JOSE MARIA ESCRIVA DE BALAGUER 9471;None;-70.5457842732738;-33.3757646265784;Carga de tarjetas,Consulta de saldo, Activación de carga remota
561;FULLCARGA;LA PAPA EST CENTRAL;MANUEL RODRIGUEZ 4309;None;-70.6929623;-33.47329351;Carga de tarjetas,Consulta de saldo, Activación de carga remota
562;FULLCARGA;MINIMARKET 4 M PTE ALTO;CALLE DARWIN  180;None;-70.6237811888889;-33.4894473333333;Carga de tarjetas,Consulta de saldo, Activación de carga remota
563;FULLCARGA;MINIMARKET CERRO 18;CAMINO CIRCUNVALACION NORTE 1227;None;-70.5006731492148;-33.353740815292;Carga de tarjetas,Consulta de saldo, Activación de carga remota
564;FULLCARGA;VOY Y VUELVO LA GRANJA;LAS VERBENAS 0669;None;-70.6222802083333;-33.555123125;Carga de tarjetas,Consulta de saldo, Activación de carga remota
565;FULLCARGA;TIA MAGGY MACUL;LOS APOSTOLES 3917;None;-70.58702239;-33.49119729;Carga de tarjetas,Consulta de saldo, Activación de carga remota
566;FULLCARGA;INTERNET R.A.P. CERRILLOS;LO ERRAZURIZ 4275;None;-70.7225296;-33.47628675;Carga de tarjetas,Consulta de saldo, Activación de carga remota
567;FULLCARGA;HAYDEE OLIVERO;LA BANDERA 9127;None;-70.64494661;-33.54321962;Carga de tarjetas,Consulta de saldo, Activación de carga remota
568;FULLCARGA;DONDE CARLITOS;GENERAL ARRIAGADA 0347 11;None;-70.62607203125;-33.5633922395833;Carga de tarjetas,Consulta de saldo, Activación de carga remota
569;FULLCARGA;KENA FAST SERVICE;LAS CONDES 14791;None;-70.4946936067451;-33.3641616111717;Carga de tarjetas,Consulta de saldo, Activación de carga remota
570;FULLCARGA;CARLOS RAMIREZ CACERES LA;EL OMBU  02910 ;None;-70.6207925177305;-33.5947760283687;Carga de tarjetas,Consulta de saldo, Activación de carga remota
571;FULLCARGA;MARTA ELENA SALGADO GONZALEZ;CAPITAN GALVEZ 4309;None;-70.693306;-33.468586;Carga de tarjetas,Consulta de saldo, Activación de carga remota
572;FULLCARGA;EL AMIGO;LOS MARROQUINEROS 6435;None;-70.566303;-33.506584;Carga de tarjetas,Consulta de saldo, Activación de carga remota
573;FULLCARGA;BAZAR LA ABUELY;DURANGO 3965;None;-70.6697025396825;-33.390760079365;Carga de tarjetas,Consulta de saldo, Activación de carga remota
574;FULLCARGA;MARIA SANTANDER;LOS CEREZOS 6016;None;-70.5753574806201;-33.5078819573643;Carga de tarjetas,Consulta de saldo, Activación de carga remota
575;FULLCARGA;ESTER DEL CARMEN CASTILLO ALVAREZ;MARIA 6593;None;-70.652367;-33.519409;Carga de tarjetas,Consulta de saldo, Activación de carga remota
576;FULLCARGA;FRUTOS DEL PAIS BJ;ICTINOS 1338;None;-70.5613916666666;-33.46845;Carga de tarjetas,Consulta de saldo, Activación de carga remota
577;FULLCARGA;SANTA BEATRIZ;ZAPADORES  1219;None;-70.6585616666666;-33.3866022499999;Carga de tarjetas,Consulta de saldo, Activación de carga remota
