punto_id;punto_name;punto_lat;punto_lon
1;PLAZA DE ARMAS;-33.43727179;-70.65060895
2;ZAPADORES;-33.39094974;-70.64241097
3;EL GOLF;-33.41665773;-70.59585634
4;SAN MIGUEL;-33.48880753;-70.6508078
5;TOBALABA L1;-33.4183253;-70.601805
6;TOBALABA L4;-33.41842024;-70.60133022
7;LOS LEONES;-33.42217409;-70.60865006
8;VICUNA MACKENNA L4;-33.51751569;-70.59435709
9;VICUNA MACKENNA L4A;-33.51803886;-70.59486533
10;SANTA JULIA;-33.53116125;-70.605488
11;PRINCIPE DE GALES;-33.43795692;-70.57377057
12;SAN RAMON;-33.54000867;-70.65124793
13;SIMON BOLIVAR;-33.4480175;-70.57160757
14;LOS PRESIDENTES;-33.47987017;-70.57865169
15;LA GRANJA;-33.54119132;-70.61605065
16;PLAZA EGANA;-33.4530748;-70.57071311
17;Avda. Americo Vespucio Nº 3411;-33.48823591;-70.58035428
18;LAS TORRES;-33.49888191;-70.58636495
19;LOS ORIENTALES;-33.46252415;-70.57388164
20;ALCANTARA;-33.41543877;-70.58968584
21;MANQUEHUE;-33.4090259;-70.56812562
22;ESCUELA MILITAR;-33.41429088;-70.5846369
23;HERNANDO DE MAGALLANES;-33.4080066;-70.55559909
24;LOS DOMINICOS;-33.4078964;-70.5450801
25;PLAZA PUENTE ALTO;-33.61046273;-70.57575465
26;LAS MERCEDES;-33.60072058;-70.57759514
27;SOTERO DEL RIO;-33.57710174;-70.58217591
28;ELISA CORREA;-33.56946535;-70.5837448
29;PEDRERO;-33.50804733;-70.61242684
30;EINSTEIN;-33.40647739;-70.64317829
31;PAJARITOS;-33.45741718;-70.71593663
32;BARRANCAS;-33.45299778;-70.73900243
33;GRECIA;-33.46961865;-70.57649201
34;LAGUNA SUR;-33.462878;-70.73779937
35;ESTACION CENTRAL;-33.45087477;-70.6791488
36;UNIVERSIDAD DE SANTIAGO;-33.45283211;-70.6863706
37;SALVADOR;-33.44770483;-70.66703694
38;ECUADOR;-33.45626665;-70.7010856
39;UNIVERSIDAD DE CHILE;-33.44376503;-70.65029168
40;LA MONEDA;-33.44485501;-70.65479586
41;LOS HEROES L1;-33.44615564;-70.66022784
42;LOS HEROES L2;-33.44613516;-70.66041973
43;PEDRO DE VALDIVIA;-33.45422373;-70.69236796
44;UNIVERSIDAD CATOLICA;-33.43985337;-70.64003081
45;UNION LATINOAMERICANA;-33.44942278;-70.67345643
46;LAS REJAS;-33.45736879;-70.70587076
47;SANTA LUCIA;-33.44255404;-70.64520402
48;MACUL;-33.50922302;-70.58999289
49;PARQUE O'HIGGINS;-33.46084182;-70.65682185
50;NEPTUNO;-33.45153638;-70.72264572
51;PLAZA DE MAIPU;-33.51063767;-70.75726982
52;SANTIAGO BUERAS;-33.49641509;-70.75743006
53;DEL SOL;-33.489837;-70.75273454
54;MONTE TABOR;-33.48211614;-70.7453728
55;LAS PARCELAS;-33.47735571;-70.74149089
56;PATRONATO;-33.42962862;-70.64705304
57;CEMENTERIOS;-33.41387349;-70.64361969
58;DORSAL;-33.39680353;-70.6427391
59;CERRO BLANCO;-33.42247685;-70.64493917
60;RICARDO CUMMING;-33.43916458;-70.66854158
61;GRUTA DE LOURDES;-33.4384028;-70.6917117
62;BLANQUEADO;-33.44148648;-70.70726277
63;LO PRADO;-33.44329548;-70.715913
64;SAN PABLO L1;-33.44440321;-70.72325742
65;SAN PABLO L5;-33.44418473;-70.7228342
66;SANTA ROSA;-33.5424495;-70.63409398
67;PUDAHUEL;-33.4449745;-70.74059879
68;SAN JOSE DE LA ESTRELLA;-33.5533554;-70.58653604
69;LOS QUILLAYES;-33.56133276;-70.58517708
70;ROJAS MAGALLANES;-33.53616799;-70.59261037
71;TRINIDAD;-33.54658109;-70.58788652
72;RODRIGO DE ARAYA;-33.47759015;-70.62230025
73;CARLOS VALDOVINOS;-33.48647187;-70.61909384
74;CAMINO AGRICOLA;-33.49184748;-70.61749874
75;SAN JOAQUIN;-33.49690561;-70.61633335
76;NUBLE;-33.46740043;-70.62471345
77;SANTA ANA L5;-33.43816546;-70.65987093
78;TOESCA;-33.45235149;-70.6587341
79;QUINTA NORMAL;-33.44040945;-70.68018787
80;PROTECTORA DE LA INFANCIA;-33.58975371;-70.57979352
81;CRISTOBAL COLON;-33.42630504;-70.59115277
82;FRANCISCO BILBAO;-33.43195483;-70.58460176
83;PARQUE BUSTAMANTE;-33.44280337;-70.63154738
84;RONDIZZONI;-33.47020604;-70.6563235
85;CAL Y CANTO;-33.43294603;-70.65222894
86;EL LLANO;-33.48259804;-70.64912373
87;LA CISTERNA;-33.53797104;-70.66447587
88;LO OVALLE;-33.51723324;-70.65880733
89;SANTA ANA L2;-33.43820972;-70.65923853
90;LO VIAL;-33.49641338;-70.6528928
91;DEPARTAMENTAL;-33.50306902;-70.65479674
92;CIUDAD DEL NINO;-33.50961155;-70.6566527
93;EL PARRON;-33.52651309;-70.66142413
94;LA CISTERNA;-33.53797104;-70.66447587
95;IRARRAZAVAL;-33.45528289;-70.62824732
96;BELLAS ARTES;-33.43668061;-70.64502132
97;FRANKLIN;-33.47606832;-70.6494014
98;VESPUCIO NORTE;-33.38056867;-70.64652278
99;BAQUEDANO L5;-33.43713962;-70.63369007
100;BAQUEDANO L1;-33.43720518;-70.6344818
101;MANUEL MONTT;-33.42920051;-70.61891639
102;PADRE ALBERTO HURTADO;-33.43346653;-70.62620853
103;REPUBLICA;-33.42492921;-70.61243387
104;SANTA ISABEL;-33.44713023;-70.63041764
105;BELLAVISTA LA FLORIDA;-33.5204449;-70.59934833
106;MIRADOR;-33.51315457;-70.60620007
107;VICENTE VALDES L5;-33.5262106;-70.59686528
108;VICENTE VALDES L4;-33.52651894;-70.59657995
109;EL RINCON DEL GUSTO MAIPU;-33.53436509;-70.78489467
110;LALITO SN RAMON;-33.53259911;-70.64443457
111;LUIS ARAYA CARVAJAL;-33.39034955;-70.69679457
112;DON ALEJO LO ESPEJO;-33.51843995;-70.68869376
113;LOS PEQUES SN JOAQUIN;-33.51340381;-70.62299239
114;NISSY LA PINTANA;-33.56360171;-70.62268808
115;ERICHOPER;-33.37779948;-70.62318232
116;DON ORLANDO RENCA;-33.40400045;-70.73299013
117;NOLBERTO VALDES NAVARRO;-33.5017199;-70.56833146
118;BAZAR LA KUKA;-33.38842874;-70.64229926
119;SUPER OFERTAS SANTIAGO;-33.47396145;-70.63530722
120;LICORES JUAN INAREJO;-33.42147769;-70.69780225
121;FERRADA GONZALEZ JOSEFINA;-33.55014139;-70.57490278
122;SOMOS;-33.45919537;-70.53190641
123;ATEMIS COMPUTACION;-33.57983789;-70.58762524
124;JOSE MANUEL NAVARRETE OSSES;-33.42554682;-70.6556214
125;ALMACEN GERUDA LO ESPEJO;-33.52312601;-70.68083991
126;CARMEN ARANEDA GOMEZ;-33.57626677;-70.56072166
127;ALMACEN;-33.54062056;-70.63109833
128;JOSE ANTONIO LUNA RAMIREZ;-33.4008017;-70.6579729
129;GABRIEL;-33.40988614;-70.65988334
130;SEBASTIAN;-33.60669903;-70.60106264
131;JUANA HUENUN;-33.58508965;-70.68548031
132;MARIA ANGELICA - QUILICURA;-33.36194345;-70.74196644
133;TERESA MICAELA ARAYA ARAYA;-33.39109067;-70.66081525
134;MONICA DEL CARMEN MORALES CARES;-33.56995393;-70.56634699
135;LUCIA DE LOS ANGELES FUENTES GONZALEZ;-33.46904913;-70.54425098
136;MINIMARKET - PSJE. PAILLACO;-33.62093324;-70.61188779
137;CHRIS ;-33.35270816;-70.72051728
138;BUSTAMANTE;-33.47248139;-70.70665139
139;EDGAR COSME PORTAL;-33.44146449;-70.70659197
140;LOS ROBLES LA PINTANA;-33.58700337;-70.64201139
141;ELENA MINCHAN AMBROSIO;-33.41448889;-70.53618472
142;KIOSKO LAS CARRETAS;-33.431578;-70.578449
143;JUANITA;-33.4164973;-70.7529148
144;DON VICENTE;-33.44781711;-70.71579831
145;ALMACEN DONDE IVAN;-33.46602302;-70.55163276
146;DAFNE;-33.52723153;-70.56276627
147;LA VALE EL BOSQUE;-33.56782291;-70.68380736
148;FREDDY EDISON VALENZUELA RIQUELME;-33.57671781;-70.65073056
149;MARIA TERESA;-33.53696989;-70.64501312
150;SAN ESTEBAN;-33.45785704;-70.69585994
151;SAN ALFONSO SN BERNARDO;-33.58056155;-70.69111827
152;POMPEYITA;-33.51286149;-70.67795612
153;KIOSKO MARIAN LA FLORIDA;-33.56222676;-70.600016
154;JASE MANUELA CORNEJO PEREZ;-33.54368094;-70.5809953
155;EL VECINO - LA  PINTANA;-33.56266349;-70.63839772
156;REPUBLICA DOMINICANA;-33.46234453;-70.73243946
157;OASIS - MAIPU II;-33.5136736;-70.7557102
158;BAZAR MARY LA FLORIDA;-33.54676032;-70.59967952
159;ANGELICA BEATRIZ BUSTOS RETAMAL;-33.59040692;-70.61432471
160;MILON;-33.667651;-70.743321
161;LOTO;-33.60932778;-70.57531944
162;MIGUEL AGUILERA;-33.47595427;-70.55766685
163;PUNTO ARCUICO;-33.47031701;-70.62870143
164;ANITA - LA FLORIDA;-33.52301696;-70.6007964
165;MONICA PILAR ESPINOZA MARTINEZ;-33.40025205;-70.62899449
166;ROSITA;-33.50508466;-70.68682411
167;ELLEN MARLENE MOSCOSO GAS;-33.59360142;-70.55635617
168;GUILLERMINA ESTER;-33.57857107;-70.67307655
169;D LLA FRUIT;-33.36556411;-70.70641176
170;D Y D;-33.54997362;-70.56569381
171;CAMILA PUDAHUEL;-33.43705396;-70.74709686
172;DON JOSE LA FLORIDA;-33.56927015;-70.58741653
173;L Y L;-33.39400631;-70.65027613
174;MARKITO;-33.49450266;-70.66145075
175;ALMACEN CHARLY CHICO;-33.58593158;-70.64509318
176;FELIX RIVERA PONCE;-33.60670333;-70.70326333
177;FERNANDA-CHIGUAYANTE;-33.57679425;-70.7027252
178;LAS PASTORA PTE ALTO;-33.60963157;-70.58651322
179;GLADYS;-33.62461778;-70.69900069
180;DON BETO;-33.57561036;-70.66313081
181;LUIS FERNANDO SILVA ARAVE;-33.46812967;-70.73218409
182;JUANA DEL CARMEN BARAHONA LEON;-33.371393;-70.632004
183;ISABEL PETRONILA ARCAYA G;-33.54208479;-70.7880081
184;PEDRO ESPINOZA;-33.37259682;-70.67570724
185;BOTILLERIA CAROLINA;-33.57860707;-70.65965299
186;SANTA CRISTINA EL BOSQUE;-33.547443;-70.680801
187;SAN ANDRES - QUINTA NORMAL;-33.43821218;-70.70691834
188;ALMACEN LA ESCALERA SN JO;-33.48995339;-70.63489317
189;SALVADOR EUGENIO RETAMAL MENDEZ;-33.50964032;-70.62764938
190;COM GONZALEZ CERRO NAVIA;-33.41671244;-70.75065131
191;ALMACEN C Y S;-33.58114754;-70.64346976
192;JUAN - CERRO NAVIA;-33.41934605;-70.72934523
193;EL FAROLITO MAIPU;-33.53978841;-70.77857035
194;ISABEL C CISTERNAS MATURA;-33.54536062;-70.58876459
195;SANTA TERESA;-33.53307094;-70.77260816
196;CIBER ACTION;-33.35425735;-70.72055133
197;KAREN - SAN RAMON;-33.54251982;-70.65130712
198;NANCY;-33.43096961;-70.6766055
199;EL NEGRITO RENCA;-33.40662805;-70.72703411
200;FERNANDA;-33.58375399;-70.68089338
201;LOS 121 LO ESPEJO;-33.51517218;-70.6817731
202;LENNY;-33.36043663;-70.75978082
203;ALMACEN Y BAZAR;-33.593425;-70.623233
204;LEOCRISMA;-33.48197255;-70.52573035
205;SAN RICARDO LA PINTANA;-33.586321;-70.64381
206;LUAN RENCA;-33.39701578;-70.74153056
207;SHELL CHILE - CONCHALI;-33.4010428;-70.68285749
208;SHELL CHILE - MACUL;-33.46513991;-70.59885261
209;SHELL CHILE - STA. ELENA;-33.479164;-70.75429
210;SHELL CHILE - FARELLONES;-33.36687185;-70.4970974
211;SHELL CHILE -LA FLORIDA;-33.54697044;-70.58805253
212;SHELL CHILE - RINCONADA;-33.51781761;-70.77541546
213;CLAUDIA URRUTIA;-33.48071453;-70.57096293
214;MAVI;-33.56044913;-70.65207632
215;C Y C - PUENTE ALTO;-33.57236218;-70.58343193
216;ROSA ESTER HERRERA ;-33.37980541;-70.61967582
217;BAZAR ARIEL LO ESPEJO;-33.51075872;-70.67345605
218;EL BICHITO MAIPU;-33.5108498;-70.79147819
219;KEVIN;-33.4344523;-70.6794192
220;VILUM MARKET;-33.42583143;-70.74787659
221;SHELL CHILE - LAS CONDES;-33.40281629;-70.51680178
222;SHELL CHILE - LO BARNECHEA;-33.35653026;-70.51032758
223;SHELL CHILE - VITACURA/SAN FELIX;-33.38676172;-70.56008314
224;ANITA - PEDRO A. CERDA;-33.50407076;-70.68444073
225;CHRISTMEL;-33.46387519;-70.63388093
226;ANGELES;-33.36225236;-70.74225194
227;EL TALENTO QUILICURA;-33.35345804;-70.71850486
228;LAS ROSAS;-33.58947556;-70.66714197
229;SAN JORGE;-33.43241419;-70.61794685
230;SHELL CHILE - CRISTOBAL COLON;-33.42366506;-70.57983043
231;PATRICIA;-33.4519176;-70.68128984
232;BAZAR CLAUDIA;-33.57769757;-70.63959078
233;EL OSITO;-33.52710767;-70.79710006
234;EL TAMBO;-33.56875636;-70.66715409
235;LAS PRINCESITAS;-33.5787774;-70.63950786
236;LEINA ANDRAWES BOULES HEJAZEEN;-33.41527122;-70.55936936
237;SHELL CHILE - BILBAO;-33.43206206;-70.5850937
238;SHELL CHILE - LO AGUIRRE;-33.44047;-70.848678
239;MI PAN;-33.55365123;-70.64757699
240;EL DROOPY;-33.49713362;-70.76894585
241;ANITA - SAN MIGUEL;-33.48964976;-70.64108214
242;VINDRIS;-33.59607816;-70.70512298
243;ARIAS MARKET;-33.45961626;-70.62877382
244;SAN VICENTE;-33.55480487;-70.66083137
245;JENNY ALVAREZ FUENTES;-33.494825;-70.686703
246;LA COTE;-33.425554;-70.739746
247;EL GRIFO;-33.36591558;-70.75143985
248;LA PIRAMIDE;-33.39026994;-70.69669251
249;PAULA;-33.43792122;-70.63682714
250;SHELL CHILE - LA DEHESA;-33.36282702;-70.51497559
251;SHELL CHILE - PEDRO AGUIRRE CERDA;-33.48489469;-70.69734405
252;ROSALINO RIVERA PEREZ;-33.45494682;-70.54043439
253;ECOMARKET S;-33.45808779;-70.74007653
254;SHELL CHILE - PATAGONIA;-33.4091257;-70.54494346
255;RODRIGO;-33.49859167;-70.73634667
256;SHELL CHILE - VICUNA MACKENNA;-33.44193688;-70.63336245
257;DONDE LA NANCY;-33.34993476;-70.73917167
258;MYM RENCA;-33.40468452;-70.70516619
259;ANDREA - ANDRES;-33.47153466;-70.63320937
260;DONDE LAS CHIQUILLAS JESSICA Y SILVIA;-33.35328741;-70.73422546
261;VILLA ALEGRE;-33.49721469;-70.72433596
262;SONNY;-33.47702809;-70.69694115
263;APOLOGIA BAZAR;-33.43633705;-70.77008263
264;MARIA MAGDALENA REYES PAD;-33.43000526;-70.72796904
265;BOTILLERIA LA FORTUNA;-33.53644728;-70.66382167
266;VERONICA CECILIA GONZALEZ CARRASCO;-33.48991758;-70.72577368
267;JOSE HERMIDA ARBUCH;-33.41749956;-70.67679772
268;EBEN EZER - SAN RAMON;-33.55028887;-70.65191953
269;MINIMARKET - CERRO NAVIA;-33.43286232;-70.73011005
270;DON RAMON;-33.44393642;-70.7023161
271;ZORAIDA ROXANA ZEVALLOS HUANCA;-33.434875;-70.680357
272;LOS HENRIQUEZ;-33.41575889;-70.76040172
273;JUAN PABLO MORENO VERA;-33.44460709;-70.69358776
274;JOSE SANCHEZ;-33.454542;-70.6047988
275;ETIENNE;-33.56927511;-70.6673435
276;ALMACEN LA ITA;-33.5849294;-70.55923661
277;ALMACEN TOTO;-33.43959127;-70.72769503
278;BAZAR-MAIPU;-33.56172417;-70.7860125
279;ISACI;-33.41167891;-70.65915945
280;PROVISIONES OLGUITA RECOL;-33.38457392;-70.65359252
281;MARINA CORREA;-33.35735359;-70.689651
282;SANTA OLGA;-33.41304471;-70.67511298
283;LA FAMILIA;-33.46199801;-70.69857821
284;TERESA TORRES PEREZ;-33.47692854;-70.59641996
285;FERNANDA - LA GRANJA;-33.5497293;-70.62497404
286;LIBRERIA JIT VITACURA;-33.39137821;-70.55346231
287;MARTINA;-33.47399396;-70.72329396
288;DONDE MATI;-33.44970179;-70.70572139
289;KIOSKO BIP VITACURA LAS U;-33.38226225;-70.54683156
290;KIOSCO PUEBLO JUPLEI;-33.39001896;-70.57149282
291;EL NEGOCIO;-33.45554444;-70.70129889
292;RAUL LEIVA;-33.47715297;-70.7163171
293;LOS SOCIOS EST CENTRAL;-33.46860798;-70.71326698
294;CONFITERIA Y CAFETERIA SN;-33.49764083;-70.63988722
295;ANGEMAR 13 SN MIGUEL;-33.51211963;-70.64060504
296;JACQUELINE ANGELICA CHAMO;-33.45401397;-70.53656656
297;FRANCISCO JAVIER GONZALEZ;-33.55767892;-70.62410364
298;JOVI LA GRANJA;-33.55013832;-70.62641673
299;JUAN CABELLO;-33.53727019;-70.62064857
300;DON REMI CERRILLOS;-33.50827955;-70.73409331
301;SANTA ELENA LA GRANJA;-33.54648579;-70.63026615
302;YASNITA Y CARLITOS EST CE;-33.47005404;-70.69929737
303;LUIS MORA CERRILLOS;-33.49056193;-70.71528509
304;JUANA SAAVEDRA VILLASECA;-33.47146035;-70.69655687
305;MINIMARKET JUAN PABLO;-33.47404759;-70.70340285
306;MINIMARKET FULL;-33.46630304;-70.71041122
307;ALMACENLA ESKINA;-33.47569756;-70.70715709
308;SANTA TERESITA LO ESPEJO;-33.50783;-70.689894
309;L MASEL LO ESPEJO;-33.52747626;-70.69725252
310;INVERSIONES ENEX S.A.;-33.60348;-70.717226
311;BOTILLERIA GILBERTO HUECH;-33.36827503;-70.63843017
312;LOS LAGOS - PENALOLEN;-33.48265609;-70.56397007
313;FARM LA FE LO ESPEJO;-33.519935;-70.695889
314;BAZAR LOS CRUCES;-33.41642667;-70.764905
315;LUCAS;-33.39698209;-70.64381486
316;GOOD LUCK;-33.42169261;-70.64447964
317;MARIBEL REINUM CATALAN;-33.5026075;-70.623955
318;SHELL CHILE - BELLAVISTA;-33.43411096;-70.63999388
319;EMILIO MAURICIO;-33.60737205;-70.57702913
320;NUESTROS QUERUBINES;-33.55985636;-70.63471979
321;LUIS EVARISTO MARQUEZ LUENGO;-33.56598651;-70.56690723
322;JAVI;-33.52925691;-70.70232395
323;MINIMARKET ESPERANZA;-33.42927823;-70.6768387
324;JUAN OMAR PEZZO ZONCO;-33.5265033;-70.59658023
325;KARINA;-33.45443709;-70.6372928
326;CAMILA SANTIAGO;-33.43502321;-70.67486313
327;EL PAJARO LOCO;-33.47488098;-70.56331402
328;SHELL CHILE - STA MARIA;-33.37723421;-70.57068202
329;TIO ARTURO CERRILLOS;-33.48202372;-70.68860565
330;ALMACEN LA PLAZA;-33.48151978;-70.72140223
331;VIOLETA LO ESPEJO;-33.51089325;-70.68718576
332;PANADERIA VILLA MEXICO CE;-33.50749194;-70.73012568
333;TIO PANCHO;-33.5133131;-70.69573733
334;LUIS RAMIREZ RABIE CERRIL;-33.50997063;-70.7367877
335;BAZAR FREDDY;-33.4083333;-70.69752546
336;ALMACEN EL PROGRESO RENCA;-33.40167963;-70.71849915
337;EL MIRADOR CERRILLOS;-33.50484491;-70.71914043
338;LIBRERIA FERNANDA;-33.40067198;-70.74352373
339;LAS MARGARITAS RENCA;-33.3915755;-70.69846789
340;FERMIN RENCA;-33.39196234;-70.69486567
341;MAITE;-33.46727259;-70.69109436
342;E.VON CHRISMAR LA REINA;-33.43895801;-70.55857771
343;SANTOS SN RAMON;-33.5389786;-70.64451891
344;BRUNO;-33.51256078;-70.69205524
345;EL CID;-33.47350942;-70.57994264
346;SANTA IRMA LO ESPEJO;-33.522305;-70.691424
347;ALEBAR MACUL;-33.50850691;-70.59700028
348;EL TIO BARNY;-33.49046613;-70.73061087
349;ROSITA CERRILLOS;-33.50332886;-70.73016346
350;DONDE EL POLLO;-33.45166288;-70.71354405
351;ACAR LA GRANJA;-33.54313758;-70.61560536
352;BOTILLERIA DON PATO;-33.50447589;-70.71972763
353;VITOCO SN RAMON;-33.5504811;-70.63753235
354;CARGA BIP HILDELITA;-33.36074518;-70.50993824
355;LA ESCALA SUR LO BARNECHE;-33.35931495;-70.50106134
356;ALO;-33.50576424;-70.67483833
357;CHELITA LO ESPEJO;-33.512967;-70.689943
358;D Y D LO ESPEJO;-33.50974635;-70.69780673
359;MONSERRAT SN RAMON;-33.55509385;-70.65304749
360;SANTA TERESA LO ESPEJO;-33.50992969;-70.68629669
361;MARIA JOSE PEDRO A CERDA;-33.49244152;-70.67780421
362;DASIA PEDRO A CERDA;-33.49558001;-70.67058964
363;LOBUSAN;-33.47914324;-70.67683747
364;SANTA ANA;-33.50701289;-70.67542337
365;LOS CANETES;-33.50204394;-70.68373839
366;EL CHIMBOTANO;-33.45031561;-70.64256167
367;EBEN EZER - ESTACION CENTRAL;-33.47143494;-70.69576253
368;SHELL CHILE - SANTA MARTA;-33.36486258;-70.67442407
369;EL RINCONCITO - LA FLORIDA;-33.53041883;-70.576966
370;SR DE MURUHUAY;-33.42597867;-70.657049
371;FRANCESCA;-33.43228473;-70.67013613
372;ARAKNIDO;-33.38565744;-70.64019613
373;LA PIA;-33.49968067;-70.60031799
374;EL BAZAR;-33.50342694;-70.66979062
375;BIG CHANCE 2;-33.50225008;-70.60282191
376;KAVIMAR;-33.51569223;-70.67988905
377;LUDIGO;-33.48332468;-70.684742
378;LA KELA;-33.55838583;-70.65455873
379;LA ESQUINA - ESTACION CENTRAL;-33.46849231;-70.69731164
380;SAGITARIO;-33.49923276;-70.59144484
381;LA CHILOTA;-33.37646199;-70.64473296
382;LA ESQUINA - LA PINTANA;-33.5949081;-70.62394857
383;FARM REX LA REINA;-33.44358737;-70.56185268
384;COUNTY SIDE SN MIGUEL;-33.49052416;-70.65205409
385;CALVER . CERRILLOS;-33.47972286;-70.68833296
386;JACQUELINE VERGARA SN RAM;-33.53884663;-70.6345504
387;DAMU 4 LIFE;-33.4776734;-70.64957848
388;CARLOS BUSTOS-MINIMARKET;-33.46475484;-70.70460915
389;MULTISERVICIOS LI MACUL;-33.49065367;-70.60430147
390;AQUILES FUENZALIDA FLORES;-33.49268128;-70.59989417
391;RAMON PONCE SN JOAQUIN;-33.50771073;-70.61419479
392;JU-CA PEDRO A CERDA;-33.48845672;-70.66512877
393;LA ECONOMICA EST CENTRAL;-33.4635234;-70.69820526
394;LOS LAZOS HUECHURABA;-33.35966644;-70.68254153
395;VIRGENCITA DE CHAPI;-33.43647534;-70.73259661
396;SAN CRISTOBAL;-33.50044625;-70.71975127
397;PET SHOP ALININ HUECHURAB;-33.35844291;-70.68929044
398;MARION LA PINTANA;-33.55938159;-70.62533615
399;DONA FLOR LO ESPEJO;-33.52661504;-70.69995919
400;LA SIN ENVIDIA LA PINTANA;-33.582998;-70.65796
401;MARIYUN SN RAMON;-33.55643004;-70.63134769
402;CAROL CLUB LA GRANJA;-33.53642693;-70.61636729
403;LA QUENITA CERRILLOS;-33.48670796;-70.70298458
404;ALMACEN DON RENE LO ESPEJ;-33.51272321;-70.67900788
405;BAZAR VALLE VERDE EST CEN;-33.46213477;-70.72301446
406;BOTILLERIA TIMY LA PINTAN;-33.58277145;-70.6617413
407;CARMELITA EST CENTRAL;-33.46706723;-70.69296047
408;SUAREZ CAVIERES ALICIA Y;-33.51196277;-70.64841835
409;MINIMARKET 17;-33.50877862;-70.67530871
410;EL FARO LA REINA;-33.4560795;-70.53894105
411;3 ORIENTE;-33.48057141;-70.67852394
412;PANADERIA LA REINA;-33.50274853;-70.63748526
413;MARIA LORETO ROJAS LAZO;-33.44017399;-70.53349306
414;MINIMARKET - LOS CARACOLES;-33.45389208;-70.53418474
415;BOTILLERIA NELSON;-33.52348825;-70.6230408
416;DON TOMAS;-33.46256802;-70.68628478
417;LA ESQUINA - LA PINTANA 2;-33.57826587;-70.65399486
418;ALMACEN INFOSER LA GRANJA;-33.54501456;-70.63070088
419;SAN MARCOS MACUL;-33.47910629;-70.60932814
420;GUILLERMO JAVIER VILLARRO;-33.45663562;-70.53475856
421;MINIMARKET - LO BARNECHEA;-33.36175946;-70.50555413
422;NANCY SN MIGUEL;-33.48152362;-70.64311812
423;RITA;-33.58492899;-70.65460882
424;MINIMARKET LUKAS;-33.52093693;-70.64039287
425;EL TREBOL - FRANCIA;-33.47988606;-70.72018484
426;ALMACEN BERTITA;-33.51046427;-70.62074207
427;EL ALVEAR LA PINTANA;-33.55862679;-70.64902815
428;EL TREBOL;-33.494254;-70.705692
429;LA TURKITA;-33.54738791;-70.64569401
430;HERNAN;-33.53246885;-70.64641629
431;JUAN PIZARRO PALMA;-33.44140359;-70.71269495
432;LOS TORITOS LA PINTANA;-33.58840027;-70.61889216
433;FARM ESPOZ;-33.54151653;-70.63396204
434;VICTOR HUGO PEDRO A CERDA;-33.49208858;-70.68387275
435;LEO LO ESPEJO;-33.55164621;-70.69004121
436;RICHY;-33.57975794;-70.64578222
437;LEIDY SN JOAQUIN;-33.47786515;-70.63225286
438;LOS BARRABASES LA PINTANA;-33.57813583;-70.65548333
439;EL PENALOZA;-33.57952202;-70.63386815
440;BRISTELA DEL ROSARIO MUNO;-33.37761422;-70.61830995
441;ASEOLANDIA;-33.51674705;-70.63252624
442;CUATRO ESTRELLAS SN JOAQU;-33.49720728;-70.63651194
443;ALICIA ESMERALDA ESCOBAR;-33.47454857;-70.69919253
444;RONALD LA GRANJA;-33.53254306;-70.6280239
445;MAMI MARIA;-33.55671881;-70.64568905
446;AMASANDERIA ROYAL;-33.50981657;-70.72904922
447;DIMAR LA PINTANA;-33.58321281;-70.655475
448;LA CASITA LO ESPEJO;-33.5071939;-70.68379353
449;TIO LALO LO ESPEJO;-33.52255153;-70.69487048
450;ROMERO KIOSCO;-33.39686822;-70.57716348
451;ANTU;-33.35276341;-70.51876323
452;SAN RAFAEL EST CENTRAL;-33.46559571;-70.69906968
453;AL PASO PUNTO BIP - CLUB HIPICO;-33.48238516;-70.66487239
454;TORITO;-33.517206;-70.685616
455;AL PASO PUNTO BIP - CARLOS VALDOVINOS;-33.4788683;-70.66495654
456;BRAVO INOX SN MIGUEL;-33.49684493;-70.64408217
457;DONDE EL RUBIO;-33.56279235;-70.6228453
458;ANGELITO ESTACION CENTRAL;-33.4486374;-70.70258441
459;AMARU PEDRO A CERDA;-33.48565238;-70.67663601
460;MINIMARKET EMY LO PRADO;-33.44795285;-70.71224817
461;BAZAR LOS NIETOS LO ESPEJ;-33.50738589;-70.68064225
462;LA MAMA;-33.48392944;-70.67886819
463;RUAN LO ESPEJO;-33.53052426;-70.69780804
464;EL FUTURO LA PINTANA;-33.56100589;-70.65630123
465;JUAN BARRAZA SEPULVEDA;-33.582924;-70.629456
466;MINIMARKET EXPRESS LA REI;-33.44756637;-70.53859945
467;SOLEY LO PRADO;-33.45005396;-70.7373816
468;PABLO CESAR PEREZ CABRERA;-33.46148934;-70.53479485
469;MARIA OVIEDO MACUL;-33.48505778;-70.59949373
470;EL CLAN DESTINO PAC;-33.50202274;-70.69015088
471;CLAUDIO ESPOZ ALVARES - # 6179;-33.44407684;-70.72303499
472;ERBI - CERRILLOS;-33.50004432;-70.71936805
473;FARM ESPOZ EST CENTRAL;-33.46823941;-70.73084261
474;CLAUDIO ESPOZ ALVARES;-33.44447615;-70.73623901
475;JAIR;-33.58283063;-70.64478574
476;FARM ESPOZ EST CENTRAL - BO 6002;-33.45805989;-70.70747082
477;NITO LA PINTANA;-33.55751901;-70.61275491
478;NELLY JEREZ;-33.50961855;-70.62673405
479;VIVI LA PINTANA;-33.57675725;-70.65782969
480;FARMASUR;-33.5781;-70.65365474
481;ERBI SN MIGUEL 2;-33.49336141;-70.65180365
482;ERBI - VITACURA;-33.37576463;-70.54578427
483;LA PAPA;-33.47329351;-70.6929623
484;MINIMARKET 4 M PTE ALTO;-33.48955676;-70.6236472
485;SOFIAS MACUL;-33.50457575;-70.60069867
486;MINIMARKET CERRO 18;-33.35374082;-70.50067315
487;MAU LHU LA REINA;-33.46246597;-70.55417329
488;KIOSCO PAOLA;-33.36902155;-70.51438315
489;VOY Y VUELVO LA GRANJA;-33.55512313;-70.62228021
490;TIA MAGGY MACUL;-33.49119729;-70.58702239
491;REPUESTOS 38 1/2 ;-33.58885148;-70.62794278
492;INTERNET R.A.P. CERRILLOS;-33.47628675;-70.7225296
493;ROMARKET LA PINTANA - #10727;-33.5582773;-70.6200024
494;HAYDEE OLIVERO;-33.54321962;-70.64494661
495;DONDE CARLITOS - LA PINTANA;-33.56339224;-70.62607203
496;CARLOS RAMIREZ CACERES LA;-33.59477603;-70.62079252
497;BOTILLERIA LOS PORTENOS S;-33.36334189;-70.63676046
498;ALMACEN SANTA INES;-33.37669141;-70.63795671
499;JAVIER CACERES VEGA;-33.46837854;-70.69354308
500;DAMARIS;-33.40431595;-70.72205521
501;MARCELA GONZALEZ MUNOZ;-33.39885845;-70.6803656
502;EDUARDO PATRICIO LORCA AVILES;-33.50661554;-70.56622937
503;BAZAR LA ABUELY;-33.39076008;-70.66970254
504;ALMACEN MONY;-33.38404613;-70.6628682
505;LAS MASCOTAS;-33.41287158;-70.6360966
506;MARIA SANTANDER ALBILLAR;-33.50788196;-70.57535748
507;ALEXIS LANDASTA SANTANDER;-33.415825;-70.68052667
508;ESTER DEL CARMEN CASTILLO ALVAREZ;-33.51771037;-70.65366026
509;FRUTOS DEL PAIS BJ;-33.46845;-70.56139167
510;SANTA BEATRIZ;-33.38660225;-70.65856167
511;PANAMTUR LAS CONDES;-33.40982503;-70.57043525
512;ALBERTO MINIMARKET;-33.42162171;-70.55796796
513;COM MATIAS;-33.3970818;-70.67072311
514;MANOLITO CONCHALI;-33.37960269;-70.68744679
515;MAIRA CONCHALI;-33.37169023;-70.68108308
516;MANUEL LAS CONDES;-33.40857098;-70.55385341
517;TEXTIL GRECIA PENALOLEN;-33.47092574;-70.54121646
518;EL ABASTO DE RAIMUNDO;-33.42001734;-70.53171725
519;IMPORTADORA TRRIVENI - APUMANQUE;-33.40929516;-70.5672902
520;SAVE SHOP;-33.41330168;-70.58255731
521;EL BEBE CONCHALI;-33.39670217;-70.67679105
522;MACHAROAS PENALOLEN;-33.462644;-70.542461
523;ISABEL ROSA MARTINEZ  HERAS;-33.38582982;-70.65927705
524;L - L PENALOLEN;-33.47510553;-70.56618491
525;PUNTO BIP YOLANDA;-33.41699831;-70.56558811
526;WILY PENALOLEN;-33.46456986;-70.53785942
527;PAZ ANGELICA SAN AMRTIN CUADRA;-33.47381534;-70.53123952
528;BAZAR MILELA CONCHALI;-33.37729775;-70.69312466
529;CALL SERVICE CONCHALI;-33.38073637;-70.68318474
530;YIRE;-33.38403714;-70.66982024
531;CANTA GALLO PENALOLEN;-33.47091592;-70.54279676
532;CATALINA FARIAS;-33.47183093;-70.55116502
533;BOTILLERIA PUERTO RICO;-33.39289469;-70.67963799
534;ISAIAS VALDEMAR;-33.47108313;-70.54588239
535;MINIMARKET ELIZABETH PENA;-33.47160613;-70.538411
536;PAOLITA CONCHALI;-33.39741177;-70.67947461
537;LUIS VERGARA CONCHALI;-33.36903063;-70.68797622
538;EL BUFON;-33.39029758;-70.54133296
539;EL TATA PENALOLEN;-33.50651805;-70.57793918
540;EL JUANITO PENALOLEN;-33.47652161;-70.53007244
541;EL PASO;-33.42377505;-70.53182988
542;DANIA;-33.47266295;-70.53579633
543;DULCINEA PENALOLEN;-33.50515284;-70.57343618
544;MARIELA ROJAS;-33.37211266;-70.6823289
545;RODRIGO AMRCELO VIDAL SAN;-33.46827165;-70.56130403
546;GANADERA DEL SUR PENALOLE;-33.47775555;-70.56623216
547;PAUL HARRIS;-33.4163188;-70.53416241
548;SAN LUIS;-33.46866248;-70.55269043
549;LOS VINEDOS DEL CON. PENA;-33.49532933;-70.55099674
550;LA ESQUINA DE LA SUERTE;-33.41631384;-70.53352699
551;MONICA MORENO VEGA LAS CO;-33.42571945;-70.55240943
552;THE GIFT LTDA;-33.40535308;-70.57333898
553;LA VARA;-33.46834786;-70.5296285
554;LA JUANITA;-33.38671146;-70.66781437
555;ERBI LAS CONDES;-33.42567823;-70.53459384
556;AROMA DE MUJER;-33.40777291;-70.54536004
557;BRUJITAS FIESTAS;-33.38361757;-70.66066483
558;PESCADERIA PUERTO COLON L;-33.419685;-70.57185
559;VERDULERIA;-33.4814503;-70.52699836
560;BEATRIZ VILLALOBOS;-33.37339366;-70.68331808
561;FOTO JOPIA LA CONDES;-33.40900664;-70.5691088
562;LA ABUELITA;-33.47042058;-70.52532367
563;VIANAVAN PENALOLEN;-33.47788311;-70.53767601
564;ANTOJITOS;-33.38816937;-70.67401256
565;DON ELIAS PENALOLEN;-33.47868422;-70.5304649
566;KIOSCO BIP MANQUEHUE;-33.427428;-70.564526
567;DONDE JAIME PENALOLEN;-33.46987635;-70.54249311
568;EL VERGEL PENALOLEN;-33.46407004;-70.5392617
569;PATTY;-33.50078737;-70.73010096
570;OMAR SALDIAS;-33.35924353;-70.50596931
571;ABARROTES LA PLAZA MACUL;-33.47684475;-70.59332918
572;EL PROGRESO PENALOLEN;-33.47264347;-70.54845986
573;AMASANDERIA JOEL;-33.51450128;-70.62075965
574;L - L MACUL - RAMON CRUZ;-33.4786492;-70.58307218
575;ANA ISABEL VASQUEZ CANDIA;-33.5638749;-70.62202951
576;L - L MACUL;-33.48136475;-70.57985642
577;RODRIGO PENALOLEN;-33.47731076;-70.57167015
578;EL VICHITO PENALOLEN;-33.47540367;-70.53517675
579;LAS DELICIAS CONCHALI;-33.39446815;-70.66746674
580;BELEN LIZBETH;-33.46718369;-70.55956748
581;ERNA ASEM CONCHALI;-33.37599934;-70.66622983
582;KARLITA PENALOLEN;-33.47180538;-70.52666872
583;RICARDO DIAZ;-33.46885206;-70.54158395
584;JACQUELINE ELGUETA;-33.38003136;-70.66122066
585;ALMACEN JAVIER;-33.49139493;-70.63391826
586;BAZAR CERRILLOS;-33.49386586;-70.70510588
587;BAZAR GISELA;-33.3635476;-70.63300355
588;EL RORO;-33.4988232;-70.68447365
589;MARCELO;-33.58329635;-70.63916565
590;PUELMAPU PENALOLEN;-33.47408761;-70.53012206
591;LA CENTRAL PENALOLEN;-33.46873947;-70.55501668
592;DISMODA INDEPENDENCIA;-33.427067;-70.65404968
593;EL LLANO RECOLETA;-33.42534974;-70.64946868
594;LA BUENA CARNE;-33.40287041;-70.63103636
595;ANDRES;-33.39565227;-70.72438316
596;ALBERTO BRITO MARTINEZ RE;-33.43177259;-70.64684051
597;LA MADRID;-33.3890475;-70.6542425
598;ESTABLEC. LA GELATTA RECO;-33.39127621;-70.64117437
599;ABSA;-33.42076335;-70.65833243
600;BAZAR ARCOIRIS;-33.41302683;-70.65870151
601;LILY LA CISTERNA;-33.53027854;-70.66620896
602;LAS PALMAS;-33.40914725;-70.66569688
603;PROVISIONES TIARA;-33.41438488;-70.67731559
604;BAZAR KITTY;-33.41571486;-70.67501747
605;EL SOL - INDEPENDENCIA;-33.41266807;-70.6587359
606;QUENITA INDEPENDENCIA;-33.414584;-70.664707
607;GLADYS MUNOZ;-33.42019713;-70.6654299
608;LOS ARCOS;-33.52491715;-70.65442551
609;MANOLO;-33.4090024;-70.67385513
610;ISA INDEPENDENCIA;-33.41198767;-70.67026177
611;MINIMARKET NENITA RECOLET;-33.38202303;-70.65580694
612;JUAN ALARCON;-33.40890431;-70.72233606
613;BOTILLERIA SAN ESTEBAN;-33.38456171;-70.64969712
614;ZEUS RENCA;-33.406869;-70.740582
615;ALI ALE RENCA;-33.4109678;-70.73584924
616;LEAL LA CISTERNA;-33.52538531;-70.66417614
617;PUNTO BIP DONDE JORGE;-33.411053;-70.73838029
618;EL TREBOL - RECOLETA;-33.43059989;-70.64187282
619;PIZZA LOLO RENCA;-33.40228494;-70.71412731
620;BRASIL;-33.40013022;-70.74512567
621;CASSETERIA CENTER LA CIST;-33.51699489;-70.65973021
622;RIDENVAN RENCA;-33.40795335;-70.73868246
623;LA ESQUINA - INDEPENDENCIA;-33.39955617;-70.66811933
624;PERCHI DIGITAL CENTER;-33.41651449;-70.66418936
625;RAUL Y XIMENA RECOLETA;-33.42250436;-70.6428172
626;MINIMARKET MARIO RECOLETA;-33.41134319;-70.62801878
627;DISTRIBUIDORA MARCEL;-33.43106006;-70.65148169
628;SANTA ELVIRA RECOLETA;-33.40066215;-70.64269701
629;D LA MARI LA CISTERNA;-33.54462849;-70.65279876
630;ERBI - RECOLETA;-33.42343218;-70.63989256
631;PATRICIA  ROMO;-33.53002111;-70.67861273
632;ROSA FARIAS;-33.41054545;-70.65402616
633;DONDE TITO;-33.54030581;-70.67463528
634;BAZAR BUENA VENTURA RENCA;-33.409641;-70.725758
635;EL ESFUERZO RENCA;-33.40240328;-70.71875411
636;AMALIA RENCA;-33.4069804;-70.74079233
637;SAN VALENTIN RENCA;-33.40028634;-70.73783359
638;EL CHAMACO RENCA;-33.41002199;-70.74146469
639;ALMACEN MAR CRIS RENCA;-33.40620181;-70.73892822
640;EDUARDO LOPEZ;-33.40500532;-70.67228574
641;LAS MILBES RECOLETA;-33.42468526;-70.64577791
642;ANITA RECOLETA;-33.38020893;-70.65751606
643;PUNTO MIX RENCA 2;-33.406284;-70.745665
644;LA ESTRELLITA RENCA;-33.41032457;-70.74506021
645;DONDE EL CANTA;-33.431885;-70.651537
646;PUNTO MIX RENCA;-33.40582357;-70.74546982
647;JEHOVA YIRE RENCA;-33.40214075;-70.73472824
648;RENE SANCHEZ;-33.50855406;-70.66766894
649;DONDE LA ROSITA;-33.38367667;-70.67212583
650;RSV ENTRETENIMIENTOS EIRL;-33.40713728;-70.66057458
651;LEO;-33.38796782;-70.67541444
652;GABRIEL ALEJANDRO;-33.48513878;-70.60156505
653;MINIMARKET LOS QUENES;-33.52134053;-70.76338132
654;EDUARDO;-33.40877007;-70.69458462
655;BAZAR LEO;-33.53715649;-70.6746044
656;ANA Y LOS SIETE;-33.45609966;-70.75063915
657;VERONICA - SAN BERNARDO;-33.64159405;-70.70991384
658;BAZAR TATAY;-33.59427457;-70.68203166
659;ALBIN FREDDY;-33.60079489;-70.67985733
660;POZUELO;-33.4176369;-70.61376786
661;MATIAS - PROVIDENCIA;-33.43403545;-70.62682891
662;D LA ESQUINA;-33.43286167;-70.58594111
663;RIGOLETTO;-33.42609745;-70.61511369
664;UNICOM LTDA;-33.42174773;-70.61000948
665;LOS MAQUIS;-33.561342;-70.663657
666;MAURI EL BOSQUE;-33.540701;-70.681125
667;CUATRO HERMANOS EL BOSQUE;-33.56436843;-70.68152523
668;PACOVI EL BOSQUE;-33.56466793;-70.67960176
669;SAN MAURICIO EL BOSQUE;-33.54958434;-70.65447171
670;ANA MARIA SILVA DODERO EL;-33.5464644;-70.6770749
671;LEONOR CRUCES;-33.56857722;-70.67299934
672;MAKAI EL BOSQUE;-33.58099142;-70.67198455
673;DONDE MIS QUERIDOS VIEJOS;-33.56142074;-70.66222521
674;BUCANEROS EL BOSQUE;-33.55213062;-70.68911403
675;MAGGY EL BOSQUE;-33.58266226;-70.66724475
676;IMPRESIONATE EL BOSQUE;-33.55089514;-70.67267352
677;DON BENJA;-33.55083103;-70.68725776
678;EL NEGRITO;-33.58208866;-70.66299187
679;LO VASQUEZ;-33.39029046;-70.63756054
680;ADA INGRID;-33.401482;-70.70682264
681;SUPER ALMACEN;-33.43265542;-70.6452158
682;PROVISIONES FERNANDO;-33.40128222;-70.72857896
683;COMERCIAL SEBASTIAN;-33.47224767;-70.53940504
684;CONY;-33.43013053;-70.64172307
685;LA FERIA DEL CASSETTE;-33.59294109;-70.70525262
686;LA PALOMA SN BERNARDO;-33.60192375;-70.68526052
687;EL ARBOLITO PUDAHUEL;-33.45740869;-70.74512686
688;ALMENDRANI SN BERNARDO;-33.563084;-70.705516
689;ZEBALLOS PUDAHUEL;-33.45680211;-70.74740569
690;MINIMARKET VICTORIA PUDAH;-33.44863157;-70.75489846
691;SERVICE EXPRESS PUDAHUEL;-33.43438873;-70.76299338
692;FARM ESPOZ - SN. PABLO 8735;-33.44395475;-70.75353813
693;PAOLA SN BERNARDO;-33.61311374;-70.71027245
694;JOSE MANZO ESCOBAR;-33.43466938;-70.77423203
695;D EMILIO SN BERNARDO;-33.62395124;-70.70370051
696;OLGA REGINA MEZA FUENTES;-33.43136545;-70.75846603
697;KATTY SN BERNARDO;-33.59800475;-70.68383866
698;KARINA PUDAHUEL;-33.43013453;-70.75402211
699;SANDRA SN BERNARDO;-33.50877324;-70.74454815
700;OLGA ELENA SN BERNARDO;-33.61445117;-70.70843293
701;NELLY SN BERNARDO;-33.58196181;-70.67848979
702;CAROLA SN BERNARDO;-33.57249008;-70.70536133
703;MACROSTORE SN BERNARDO;-33.59429523;-70.70459683
704;EL PELONCITO;-33.58147236;-70.68774035
705;DANIELA SN BERNARDO;-33.57912973;-70.68537789
706;GAMERS SN BERNARDO;-33.58238037;-70.68011833
707;LUMAC SN BERNARDO;-33.592716;-70.68857829
708;BAZAR MELISSA;-33.60134;-70.712128
709;PARAISO SAN BERNARDO;-33.57876812;-70.69792378
710;KENA;-33.58368669;-70.68512176
711;BAZAR BRISA;-33.59176939;-70.70929638
712;AQUI REGRESO;-33.57717597;-70.71193539
713;ALMAC.LOMAS DE LO AGUIRRE;-33.450838;-70.848047
714;MINIMARKET FRANEDU;-33.44601963;-70.7641542
715;CATHERINNE PUDAHUEL;-33.4364375;-70.76730587
716;ANGELICA PUDAHUEL;-33.4584228;-70.73892386
717;EL LULO PUDAHUEL;-33.46035751;-70.75543977
718;ISABEL PUDAHUEL;-33.43099949;-70.74559998
719;INGRID PUDAHUEL;-33.46851146;-70.73082064
720;MINIMARKET HOLLYWOOD;-33.45764323;-70.75485636
721;DONDE PANCHO PUDAHUEL;-33.45527809;-70.7550103
722;MINIMARKET FERNANDITA;-33.462234;-70.749462
723;EL PEQUENO PUDAHUEL;-33.43146302;-70.74791469
724;SONIA PUDAHUEL;-33.43094773;-70.74289945
725;YASDANI PUDAHUEL;-33.45601928;-70.76438663
726;JANET OPAZO;-33.43628862;-70.75554228
727;LA BODEGUITA PUDAHUEL;-33.46534913;-70.74783596
728;GISELLE PUDAHUEL;-33.44499871;-70.76990123
729;VIDEO CLUB EL TRANQUE PUD;-33.54809084;-70.79632183
730;RUFINA PUDAHUEL;-33.445429;-70.759383
731;LA ESQUINA PUDAHUEL;-33.46061399;-70.74301973
732;MARCELA PUDAHUEL;-33.45566049;-70.76398713
733;PATRICIA EDULIA VERA GRAC;-33.43179742;-70.75551994
734;ROSA AURORA VEJAR MUNOZ P;-33.43167562;-70.74805057
735;MILAGRO PUDAHUEL;-33.45953261;-70.7561085
736;FARM ARAVIL PROVIDENCIA;-33.42607666;-70.61482773
737;LUCHITO PUDAHUEL;-33.4655;-70.732815
738;OPTICA LOS  ALPES;-33.42208513;-70.6105608
739;PAULI PUDAHUEL;-33.46262787;-70.74683906
740;CHINITA;-33.42013926;-70.60710372
741;RENACA EXPLOTE PROVIDENCI;-33.43437847;-70.61668312
742;DOBLETE;-33.43735602;-70.58553642
743;EL RINCON DE LA SUERTE - C.A;-33.42591776;-70.61463359
744;MANUEL GUILLERMO PROVIDEN;-33.44630311;-70.61918033
745;ERIKA MONTECINOS;-33.42890364;-70.62567386
746;MARIA - PROVIDENCIA;-33.43972654;-70.61993756
747;EL AGUILUCHO PROVIDENCIA;-33.44259466;-70.59451988
748;FERRETERIA NUEVA BILBAO;-33.43710725;-70.60068563
749;EL RINCON DE LA SUERTE - NVA. PROV.;-33.42758415;-70.61681303
750;POLLA LOTERIA LOTO;-33.43137034;-70.60975562
751;CHOCOLATE PROVIDENCIA;-33.43123474;-70.60966084
752;TODO SABROSO MARKET PROVI;-33.43357846;-70.61954423
753;BAZAR ENTRES DOS;-33.44051536;-70.61543925
754;FRANCISCA ORMENO;-33.44726398;-70.61393326
755;AXEL QUILICURA;-33.33889833;-70.71070167
756;NICOLE QUILICURA;-33.36217842;-70.73839974
757;ALICIA QUILICURA;-33.3635771;-70.72634503
758;BERNARDITA QUILICURA;-33.37034394;-70.72129821
759;MARISOL;-33.36910371;-70.71552851
760;MARIA ALICIA DIAZ VELOZO;-33.37159632;-70.71652516
761;REGINA CLEMENCIA ZUNIGA B;-33.35948294;-70.75244701
762;QUILLON QUILICURA;-33.35935546;-70.71671815
763;NODELIA QUILICURA;-33.3505927;-70.74591777
764;NICOLAS QUILICURA;-33.35934847;-70.71772995
765;CONNY QUILICURA;-33.35310272;-70.7456464
766;ALMACEN MIRIAM QUILICURA;-33.36404003;-70.74922012
767;EL ZAR QUILICURA;-33.34870066;-70.74023792
768;MI LUZ QUILICURA;-33.35257497;-70.74689958
769;DEYANIRA;-33.35837748;-70.71784536
770;PIMIENTA Y CANELA;-33.35202345;-70.73390259
771;NOVASISTEM(8);-33.3655194;-70.72920432
772;CENTROCAR;-33.36694221;-70.71842342
773;CONIMAX QUILICURA;-33.36231768;-70.75742318
774;SANTA CORINA;-33.45529119;-70.60246044
775;LIBRERIA STUDIO NUNOA;-33.45546354;-70.59312694
776;BAEZ PIZARRO JUAN Y OTRO;-33.4607078;-70.60578722
777;SAN JORGE NUNOA;-33.45478535;-70.59758605
778;BAZAR R Y R QUILICURA;-33.35408488;-70.75158315
779;PRACC.CL QUILICURA;-33.35829919;-70.73703998
780;ALMACEN EL TITO QUILICURA;-33.35004179;-70.7226608
781;YASNA QUILICURA;-33.36063138;-70.75369885
782;M Y M QUILICURA;-33.36449664;-70.73340096
783;PATITO QUILICURA;-33.35648368;-70.74998172
784;EL TATA NUNOA;-33.46777355;-70.59225256
785;ESTRELLA QUILICURA;-33.36180375;-70.74303469
786;LA PLUMA NUNOA;-33.44600192;-70.6061936
787;LOS BIANCOS;-33.47065;-70.58686872
788;RED POINT NUNOA;-33.45483483;-70.58137045
789;COM NINO NUNOA;-33.45158624;-70.62718765
790;BELORADO NUNOA;-33.44999674;-70.62036234
791;EL RINCON NUNOA;-33.45361886;-70.60814516
792;YULI QUILICURA;-33.3637617;-70.74933226
793;QUISCO NANCYTA NUNOA;-33.47072976;-70.61341947
794;HANS CHISTIAN KORSHOLM;-33.46419005;-70.60120931
795;MANOLITO;-33.44584746;-70.5787811
796;TAG NUNOA;-33.45299694;-70.61348795
797;CARYMBOS 2;-33.46815175;-70.58202784
798;PAOLA CASTRO CASTILLO NUN;-33.45412647;-70.5726798
799;LOS VINEDOS DEL CON. NUNO;-33.45500024;-70.61240075
800;EKEKO NUNOA;-33.45529097;-70.58851205
801;COMERCIAL FRITZ LTDA;-33.44652747;-70.58514976
802;IL TABAC NUNOA;-33.4484718;-70.58176967
803;KIOSCO - RAMON CRUZ;-33.45970783;-70.58040248
804;SAN PANCRACIO QUILICURA;-33.36561042;-70.72643237
805;MINIMARKET TODO EN UNO;-33.45203801;-70.62969999
806;MINIMARKET DIOS PROVEE;-33.46104746;-70.62083124
807;CARLOS MORALES QTA NORMAL;-33.44096229;-70.70470249
808;TIA ZUNI QTA NORMAL;-33.41653532;-70.71201085
809;EL SHADDAI;-33.36061026;-70.74591615
810;PATRICIA QUILICURA;-33.3555645;-70.7338063
811;BAZAR VALENTINO;-33.36662418;-70.71362763
812;SOC. COM. DICER;-33.43944364;-70.70017093
813;MARGARITA MARIA VASQUEZ C;-33.43581004;-70.69652801
814;DANA QTA NORMAL;-33.42251743;-70.69008763
815;PASTELERIA CENATEC QTA NO;-33.42471085;-70.70345581
816;LUIS QUINTANA QTA NORMAL;-33.43123809;-70.69904418
817;MIGUEL PACHECO QTA NORMAL;-33.42469634;-70.70352924
818;LUIS CONCHA;-33.43005167;-70.70359833
819;VIDEO CLUB FERNANDA;-33.41268781;-70.71453712
820;MINIMARKET DANAE QTA NORM;-33.41216238;-70.70633576
821;FARM ESPOZ QTA NORMAL;-33.42254129;-70.6959121
822;MACARENA QTA NORMAL;-33.42660943;-70.71445313
823;TEKNIVISION;-33.42686229;-70.69283956
824;VIVIANA SANDOVAL;-33.43611807;-70.714554
825;IBANEZ QUINTA NORMAL;-33.42792265;-70.70780442
826;AVICOLA AARON;-33.42737318;-70.70923746
827;EMILIA;-33.41802308;-70.74525697
828;ETELVINA CRUZ CAMPOS HERR;-33.43111227;-70.69370998
829;BAZAR MP 7;-33.41274077;-70.72021202
830;YASNA Y CARLITOS;-33.42158709;-70.71809107
831;JORGE DIAZ EIRL;-33.42318036;-70.7109945
832;MI CHIQUITA;-33.42973599;-70.74275174
833;FRANCISCO JAVIER VALENZUE;-33.42667745;-70.73389958
834;ALMACEN OESTE CERRO NAVIA;-33.41681204;-70.7495999
835;CARLOS HUMBERTO VEJAR MUN;-33.42604146;-70.74431176
836;BAZAR WALL-E;-33.42286532;-70.73794336
837;SANTA CECILIA CERRO NAVIA;-33.418126;-70.765152
838;PAPELUCHO CERRO NAVIA;-33.41726558;-70.73468852
839;CYNTHIA CERRO NAVIA;-33.43684126;-70.72697096
840;COMERCIAL M Y F;-33.4152424;-70.7674376
841;LOS LAGOS CERRO NAVIA;-33.41773394;-70.76526916
842;JC CERRO NAVIA;-33.418337;-70.729302
843;ALEX CERRO NAVIA;-33.41943004;-70.74098328
844;VICTORIA CERRO NAVIA;-33.41844849;-70.71970593
845;AGUCHAVE CERRO NAVIA;-33.41701859;-70.72729343
846;SANTA MARIA CERRO NAVIA;-33.41778876;-70.76526912
847;BOTILLERIA GERALDINE CERR;-33.43467274;-70.73329193
848;EL NACHO CERRO NAVIA;-33.42124126;-70.74680618
849;DONDE LA ABUELA CERRO NAV;-33.41546205;-70.74054895
850;FRUTOS ARVEJAS LTDA;-33.50642889;-70.57840222
851;JUANITO CERRO NAVIA;-33.41373621;-70.72331296
852;AUDINA DIAZ CERRO NAVIA;-33.41463528;-70.75446151
853;COM MAGALY CERRO NAVIA;-33.41513585;-70.73944918
854;GABRIELA VILLALOBOS;-33.41481499;-70.74648084
855;LAPICITO;-33.41734716;-70.76203631
856;KIOSKO - LAS CONDES;-33.4169126;-70.59777189
857;JOSE LUIS;-33.4348892;-70.58864248
858;EL NARANJO;-33.42166285;-70.53379806
859;EL CISNE;-33.56611016;-70.67483387
860;EL SOCIO;-33.53713725;-70.63950662
861;HUGO GUZMAN;-33.45573507;-70.76075798
862;COM DEUTSCHI;-33.39686605;-70.72303515
863;FENITA CERRO NAVIA;-33.42731907;-70.74885495
864;NUEVA RESBALON CERRO NAVI;-33.41697601;-70.74160363
865;BAZAR NOR YEN CERRO NAVIA;-33.41905976;-70.75475425
866;VIKINGO CERRO NAVIA;-33.42494872;-70.73042265
867;MINIMARKET AHORA SI;-33.42464803;-70.73279667
868;JESSICA POZO CERRO NAVIA;-33.42778043;-70.73518036
869;EL GUATON VERA;-33.4224045;-70.74669403
870;ROSALIA ELIANETH ARAZAEZ;-33.43353933;-70.72260622
871;MINIMARKET - PADRE HURTADO;-33.43486972;-70.73638028
872;ERNA TROPAN;-33.42989792;-70.76309458
873;CARRASCAL;-33.42184957;-70.69791491
874;MIS MASCOTAS;-33.37812048;-70.72315357
875;EL CAMBUCHO;-33.395238;-70.865107
876;ERBI SANTA ROSA;-33.44634833;-70.64552389
877;RINCON DEL ESTUDIANTE;-33.54922722;-70.76283437
878;ALMACEN TRIUNFO;-33.56189306;-70.59691556
879;EL CRISTO;-33.59725446;-70.56251911
880;LULY;-33.51445161;-70.58726578
881;OASIS - MAIPU;-33.55565;-70.789922
882;ALMACEN LA ESQUINA;-33.57308307;-70.60153004
883;LAS TRES HERMANAS;-33.5865825;-70.58939683
884;LAS HORMIGUITAS;-33.55162951;-70.58274763
885;LA VEGUITA - MAIPU;-33.496585;-70.74397111
886;CIBERGAMERS;-33.58051965;-70.55483076
887;NACIMIENTO;-33.50771262;-70.79053815
888;LA GIULIANA;-33.56255487;-70.55473067
889;LA CAMPANA QTA NORMAL;-33.42094269;-70.71171936
890;ENTRETENIMIENTOS;-33.45451318;-70.69245322
891;ROSA - CERRO NAVIA;-33.41823888;-70.7393489
892;GONI MELGAREJO;-33.45915025;-70.62267059
893;JAMAICA PTE ALTO;-33.61296101;-70.58286217
894;RENE PTE ALTO;-33.58065178;-70.556202
895;SAN ALBERTO PTE ALTO;-33.60902033;-70.595873
896;MARSAN - LAS LLUVIAS;-33.59448667;-70.56803292
897;DONDE LA TIA PATY PTE ALT;-33.60419379;-70.55565864
898;LOS COROTICOS PTE ALTO;-33.58557792;-70.56855417
899;DONDE CLAUDIO;-33.58018767;-70.591778
900;ALMENDRA;-33.5956817;-70.55548055
901;PUNTO BIP JUNNY PTE ALTO;-33.58062513;-70.55839859
902;MARSAN;-33.59750714;-70.57276333
903;ALONSITO;-33.62311798;-70.59647503
904;VERONICA ROJAS PTE ALTO;-33.55777658;-70.55065583
905;EL CHAYAVIENTOS PTE ALTO;-33.58224125;-70.57131338
906;EL FAIFITA PTE ALTO;-33.6140254;-70.59126173
907;LA FERIA DEL CASSETTE PTE;-33.60916147;-70.57407537
908;TRINIDAD PTE ALTO;-33.5718143;-70.57188474
909;CARNICERIA RP PTE ALTO;-33.58434706;-70.55498133
910;CACHUREO PTE ALTO;-33.56360486;-70.56659569
911;BAZAR MONY PTE ALTO;-33.59817891;-70.56886987
912;GLADYS HERNANDEZ FLORES P;-33.57606325;-70.57586492
913;ALMACEN DON TONO;-33.56612817;-70.57410804
914;SANTA ELVIRA;-33.6196539;-70.61946124
915;EL ALBA PTE ALTO;-33.55060514;-70.55821264
916;BAZAR VIKINGO PTE ALTO;-33.57675366;-70.56970397
917;T & K;-33.58799392;-70.59975399
918;NOCEDAL PTE ALTO;-33.62373813;-70.59440432
919;PC PLANET LA FLORIDA;-33.51571625;-70.58278146
920;BAZAR;-33.48089542;-70.59194318
921;JUAN E. GONZALEZ MONSALVE;-33.5365479;-70.58466438
922;MINIMARKET KAREN LA FLORI;-33.56983523;-70.59180139
923;ENRIQUE SANHUEZA OSSES;-33.522618;-70.579019
924;KIOSCO JULIA;-33.535349;-70.573159
925;YINNEREL LA FLORIDA;-33.53682549;-70.60537004
926;MYC;-33.52961248;-70.55977988
927;SANTA TERESITA LA FLORIDA;-33.53009;-70.580665
928;CHO CHOL LA FLORIDA;-33.55196053;-70.60824293
929;ALFONSO RIVERA LA FLORIDA;-33.56179806;-70.59498417
930;YENNEVA;-33.35707248;-70.74139511
931;SANTA CAROLINA;-33.5195417;-70.5527187
932;COMERCIAL JAIME;-33.36772722;-70.71690417
933;ANGELICA GALVEZ LA FLORID;-33.54662705;-70.60682913
934;BELEN LA FLORIDA;-33.5646802;-70.59832025
935;DAYANA LA FLORIDA;-33.55304977;-70.57969339
936;CARLOS HECTOR CASTILLO LA;-33.51510618;-70.56324576
937;ELENA SOTO BENAVIDES LA F;-33.53589893;-70.58073985
938;ERBI LA FLORIDA;-33.5276372;-70.5785632
939;ALISON;-33.5548618;-70.5695765
940;EL VECINO - LA FLORIDA;-33.51081444;-70.58071071
941;WALDO CHRISTIAN RUBIO LA;-33.54975932;-70.56680329
942;KIOKO KRISMAN LA FLORIDA;-33.53557692;-70.57416103
943;ALEJANDRO OLIVARES J LA F;-33.5505838;-70.6082311
944;JUAN AVILES LA FLORIDA;-33.56391;-70.61022
945;SANTA HELITA LA FLORIDA;-33.5178366;-70.5792151
946;GEMITA;-33.50583233;-70.67806633
947;SANTA TERESITA;-33.43175754;-70.76758018
948;LA ESQUINA MAIPU;-33.49011209;-70.78042766
949;ALMACEN GUILLERMINA MAIPU;-33.51067246;-70.78929444
950;LA PANCHITA MAIPU;-33.51529667;-70.78061762
951;MARY - QUILICURA;-33.36296933;-70.73971656
952;CASA MARCOS MAIPU;-33.510484;-70.757889
953;SERVICIO TOTAL MAIPU;-33.50890995;-70.75823032
954;MINIMARKET MACARENA MAIPU;-33.4909392;-70.7402278
955;FARM PRINCIPAL - CHACABUCO;-33.50912673;-70.75825567
956;EL CIELO MAIPU;-33.47816319;-70.72537427
957;GENESIS - LA GALAXIA;-33.51732888;-70.79463938
958;LAS VENTANAS MAIPU;-33.51609892;-70.74837946
959;MARY MAIPU;-33.47228728;-70.7327878
960;MAGGY MAIPU;-33.53435198;-70.78335562
961;ANGEL MAIPU;-33.52136913;-70.78649747
962;ALMACEN NICOLE;-33.46837182;-70.75545711
963;JUEGOS BIP MAIPU;-33.47185115;-70.74858419
964;LA EMERGENCIA MAIPU;-33.50103576;-70.74541463
965;DELFA MAIPU;-33.50812291;-70.79747825
966;RAFAEL HERNANDEZ;-33.50841869;-70.77574836
967;ACIERTO EIRL;-33.51044214;-70.75750968
968;FARM PRINCIPAL MAIPU;-33.51079445;-70.75963399
969;FARM ESPOZ MAIPU;-33.50932892;-70.75869322
970;VERONICA - PORTALES;-33.51847466;-70.78289624
971;ELISA ALARCON MAIPU;-33.54816145;-70.76519105
972;LA VEGUITA MAIPU;-33.51738726;-70.79465539
973;LOS PORTALES MAIPU;-33.54901944;-70.76717556
974;MI AMIGA;-33.47929405;-70.73100182
975;EL MONTINO MAIPU;-33.51343912;-70.74772708
976;MINIMARKET MELITA MAIPU;-33.52084833;-70.75944333
977;BOTILLERIA ROYAL MAIPU;-33.52704742;-70.77332103
978;SANTA ENRIQUETA MAIPU;-33.51878106;-70.7845547
979;LUPITA MAIPU;-33.56639424;-70.78046538
980;PANADERIA SUPER PAN;-33.50452471;-70.73864587
981;NICO- TUCAN;-33.47036154;-70.75244524
982;MINIMARKET EL TATA MAIPU;-33.46826754;-70.75117297
983;JAMES PAUL FLORES ALCANTARA;-33.40707054;-70.64307581
984;GENESIS MAIPU;-33.53523042;-70.78729667
985;MARIELA MORALES MALDONADO;-33.52301424;-70.77020303
986;ALMACEN GUTIERREZ MAIPU;-33.53239472;-70.76698367
987;ALMACEN EL VECINO;-33.56490655;-70.77675065
988;AINHOITA;-33.47918232;-70.74652417
989;ELIZABETH MAIPU;-33.53516496;-70.78501373
990;SANTA TERESA MAIPU;-33.49493175;-70.74177861
991;ERBI;-33.52127603;-70.77270506
992;MARIA ELENA;-33.54610354;-70.76778182
993;TIA MARGOT;-33.51103174;-70.74462837
994;CIRCULO AHORRO;-33.54406617;-70.774638
995;ANTONELLA MAIPU;-33.51554676;-70.79713257
996;EL FILODENDRO MAIPU;-33.56641228;-70.78322941
997;LOS LAGOS;-33.54056192;-70.78162456
998;LA PICA DE LUCHITO;-33.46567655;-70.75920336
999;SILVANA SAAVEDRA GARCIA M;-33.53849966;-70.77759839
1000;MINIMARKET AGUA LUNA MAIP;-33.50878729;-70.79099479
1001;CARYPED;-33.54117452;-70.78620725
1002;D LUKAS MAIPU;-33.50932732;-70.79516822
1003;BOTILLERIA WINNER MAIPU;-33.49615985;-70.75192488
1004;LIN Y KIM MAIPU;-33.49722179;-70.73803363
1005;LOS 5 MAIPU;-33.49671855;-70.73786043
1006;JULY N 1 MAIPU;-33.51946834;-70.78442172
1007;TIO HOMERO MAIPU;-33.4860297;-70.76791336
1008;NICO MAIPU;-33.5250472;-70.79652515
1009;LA ESQUINA - MAIPU 1;-33.49564432;-70.73471023
1010;COMERCIAL CATALAN Y LOPEZ LTDA;-33.48582513;-70.73671114
1011;PATRICIO RODRIGO;-33.50875;-70.74274711
1012;PATODOS;-33.51012081;-70.75056806
1013;MIS POLLITOS;-33.52478124;-70.78226211
1014;DONA ELENA;-33.49052489;-70.74294716
1015;JUANA FELISA BINE MARIMAN;-33.5007075;-70.74844541
1016;ALMACEN CHOLI MAIPU;-33.51091312;-70.79059678
1017;EMA LUISA ARIAS ARMIJO MA;-33.51944083;-70.78026615
1018;AMASANDERIA BAHIA MAIPU;-33.52847335;-70.7641134
1019;CLAUDIO MARCELO;-33.558049;-70.790555
1020;MATY;-33.5946929;-70.5690834
1021;TOESCA;-33.45404689;-70.66443649
1022;ELIDAN;-33.447704;-70.635557
1023;MINIMARKET - COQUIMBO;-33.45670284;-70.64919482
1024;JUANA CORTES;-33.43806262;-70.65565905
1025;LIBRERIA PINOCHO - SALVADOR SANFUENTES;-33.45135426;-70.67419649
1026;PANAMTUR SANTIAGO;-33.43947455;-70.65073311
1027;LIBRERIA PINOCHO SANTIAGO;-33.45108665;-70.67744292
1028;ERBI STGO PORTUGAL;-33.44791358;-70.63521919
1029;CONFITERIA LOS PEQUES SAN;-33.43848368;-70.65238425
1030;ITALMARKET SANTIAGO;-33.44543208;-70.63294792
1031;SITEC SANTIAGO;-33.43999103;-70.65311674
1032;TELCOM;-33.44182634;-70.65101697
1033;DUCAL SANTIAGO;-33.43590802;-70.65809534
1034;SANTA TERESITA SANTIAGO;-33.42920522;-70.67510834
1035;DULCES TENTACIONES;-33.46310315;-70.64406464
1036;JEAN PAUL SANTIAGO;-33.45699266;-70.66480647
1037;PROMARKET;-33.46509972;-70.64167659
1038;BOTILLERIA DON CESAR SANT;-33.46975591;-70.64809485
1039;PAN BEGO - ARTURO PRAT;-33.46375242;-70.64690594
1040;BRAVO Y JARA LIMITADA SAN;-33.44374179;-70.64385126
1041;WIDANI SANTIAGO;-33.43473821;-70.66775177
1042;MINIMARKET SANTIAGO;-33.44312407;-70.64647383
1043;RED SERVICE;-33.45590802;-70.65228906
1044;JOSE LUIS MALDONADO MIRAN;-33.43930455;-70.64902226
1045;MORITOS SANTIAGO;-33.46647476;-70.64179181
1046;DON PATO SANTIAGO;-33.46824879;-70.64650743
1047;PANADERIA STANDARD STGO;-33.47327921;-70.67146045
1048;PAN SANTIAGO;-33.43152665;-70.67860257
1049;EVITA;-33.46347299;-70.63808661
1050;ALMACEN ZAIR;-33.45992517;-70.64922486
1051;MINIMARKET PIERO;-33.46994977;-70.63876208
1052;CIRCULO_NET PENALOLEN;-33.45303481;-70.63411537
1053;A.B.C.A.D.;-33.45719226;-70.66830275
1054;LA UNIVERSAL SANTIAGO;-33.46732405;-70.6368669
1055;EL ARCA DE NOE SANTIAGO;-33.43464144;-70.66520443
1056;NELIDA JEANNETTE DEL PILA;-33.47054878;-70.62846891
1057;DANY SANTIAGO;-33.47483109;-70.63686158
1058;PRALINE;-33.44911774;-70.65509423
1059;RAUL SALINAS SANTIAGO;-33.4573436;-70.647635
1060;PARINACOTA JOYAS SANTIAGO;-33.43724702;-70.64949263
1061;PROIN SANTIAGO;-33.44529657;-70.6676463
1062;GREEN LIV SANTIAGO;-33.44935125;-70.66493606
1063;LOS TOPOS;-33.47282292;-70.65617722
1064;VANESSA;-33.46837799;-70.67681101
1065;DIARIOS Y REVISTAS;-33.44287675;-70.64541693
1066;SAN TOMAS;-33.55573688;-70.65521856
1067;FRANCESCA - CERRO NAVIA;-33.42152708;-70.73544846
1068;OASIS - LA FLORIDA;-33.55900749;-70.57962771
1069;TODO EN UNO;-33.45421983;-70.65031933
1070;GABE;-33.56257955;-70.64853576
1071;LA CASERITA;-33.37197095;-70.71783834
1072;CAVA;-33.55719167;-70.55969
1073;MARIA ANGELICA - PUDAHUEL;-33.43244045;-70.75055553
1074;KIOSKO CRISTIAN;-33.44495639;-70.59756398
1075;CENTRO DE LLAMADOS - SANTIAGO;-33.43430014;-70.64908408
1076;ALEJANDRA;-33.45363567;-70.531211
1077;KIOSKO - PROVIDENCIA;-33.4236564;-70.61086054
1078;LUCRI;-33.3865981;-70.67960918
1079;VICTORIA ILUSION;-33.40102403;-70.66178336
1080;JORGE RUBIO;-33.4908262;-70.60767075
1081;ELENA;-33.55225739;-70.68537425
1082;LA PANCHITA;-33.37747418;-70.68699752
1083;LOS PEQUES;-33.56736871;-70.68039135
1084;KAMMY;-33.64303454;-70.66863322
1085;J Y P;-33.54111762;-70.61063706
1086;MICHAEL;-33.46022417;-70.75208869
1087;MARINOE;-33.53664861;-70.77701012
1088;EL PROGRESO;-33.40405167;-70.637065
1089;AVICOLA FEMIX;-33.36837333;-70.7203575
1090;CATITA;-33.41932185;-70.735495
1091;PILAR DE CAUQUENES;-33.42079572;-70.6567612
1092;LAURA PAMELA;-33.42510687;-70.65406301
1093;LOS PAPIS;-33.479875;-70.59076
1094;GIRASOL;-33.52131227;-70.77369006
1095;EL SOL AZUL;-33.37377414;-70.67602624
1096;LIQUIDADORA VICVAL;-33.35814367;-70.67072667
1097;LAYKA;-33.52311038;-70.79631656
1098;EL ROSARIO;-33.592218;-70.67480108
1099;UNKUANTOHAY;-33.50743652;-70.78322806
1100;EL RUBIO;-33.431779;-70.650474
1101;OSCAR CUEVAS;-33.50774475;-70.75300709
1102;RSV ENTRETENIMIENTOS EIRL - LO PRADO;-33.44400662;-70.72020054
1103;AMARANTA;-33.40150352;-70.69073113
1104;SONIA SOLIS;-33.42188139;-70.66363639
1105;MARTA SANTIBAÃEZ;-33.49842853;-70.62677644
1106;JORGE DAVID;-33.386964;-70.541615
1107;JUDITH;-33.40542726;-70.66170155
1108;LAS PRINCESAS;-33.51605333;-70.65191261
1109;JUANITO;-33.49526767;-70.58809762
1110;CORAOS;-33.50752297;-70.786205
1111;NANYVAN;-33.49738584;-70.74764979
1112;RSV ENTRETENIMIENTOS EIRL - PUDAHUEL;-33.44018045;-70.75296207
1113;LA PUNTA DE DIAMANTE;-33.38065297;-70.67109022
1114;SHELL CHILE - HUECHURABA;-33.36021004;-70.67056062
1115;SAN ANDRES - PUDAHUEL;-33.42973375;-70.74963958
1116;EL TATA NANO;-33.4738508;-70.69294645
1117;SANTA TERESITA PENALOLEN;-33.4663071;-70.56046365
1118;POLO OPUESTO SANTIAGO;-33.4415304;-70.65713237
1119;URIEL ORDOÃES;-33.38687939;-70.56461064
1120;EL RORO - EL BOSQUE;-33.64325575;-70.6684188
1121;ROSSY;-33.54406238;-70.66620487
1122;SUPER MARIO;-33.52095417;-70.63608583
1123;LAS PEQUES;-33.41222813;-70.5375215
1124;SERGIO CAYUPAN;-33.43702679;-70.71956896
1125;SANDRA TAPIA;-33.37711114;-70.62690822
1126;ESTESY Y BENJY;-33.36518447;-70.74653307
1127;LA ESTRELLITA;-33.59497629;-70.56666565
1128;COMODIN;-33.49921112;-70.6156002
1129;LA BOTICA CUBANA;-33.42806495;-70.64636243
1130;EL BROTHER;-33.48766544;-70.58267096
1131;KIOSCO - NUNOA;-33.46962533;-70.5819905
1132;PLAZA LILLO;-33.45819918;-70.60743318
1133;SANTA GEMITA - LA GRANJA;-33.52456294;-70.62889855
1134;COMERCIAL FRENTE FRIA;-33.395837;-70.500586
1135;FARMACIA LORENA;-33.42530344;-70.56337089
1136;WELLA;-33.40699403;-70.73760307
1137;NUEVO AMANECER;-33.5406042;-70.78587087
1138;CRISTI;-33.38507905;-70.67481913
1139;GIPSLIN;-33.50591341;-70.75096111
1140;DONDE CARLITOS;-33.36072542;-70.68740631
1141;CONI;-33.50092595;-70.77231857
1142;FLORES HERMANOS;-33.42706521;-70.65010279
1143;MA Y CE;-33.47795089;-70.55651726
1144;DELMA;-33.45928813;-70.64665001
1145;DONDE JUANITO CONCHALI;-33.38941315;-70.66154426
1146;JANO;-33.47251383;-70.56067175
1147;BELEN - LA PINTANA;-33.58278837;-70.63972409
1148;JORGE ORTIZ;-33.43925619;-70.64657125
1149;KATALINA;-33.40921269;-70.74158569
1150;DON OSVALDO;-33.44397066;-70.75337389
1151;EL AVE DEL PARAISO;-33.615395;-70.7068219
1152;TOMAS NET;-33.39874962;-70.74828151
1153;MIS TESOROS;-33.56855591;-70.56278423
1154;LO ALMENDRO LTDA;-33.46206942;-70.61195039
1155;PATRICIA MORA;-33.61358667;-70.55037
1156;VERONICA - NUNOA;-33.46500708;-70.59809975
1157;CAPACOM;-33.53489761;-70.779982
1158;PIN PON;-33.5057887;-70.78212816
1159;DILAN Y JAVIERA;-33.47551942;-70.69382679
1160;LAS TRES ANGELITAS;-33.64303758;-70.66863029
1161;LA CHOLITA - PUENTE ALTO;-33.6256063;-70.61482113
1162;EL JUMBITO;-33.52663506;-70.64198474
1163;LOS VINEDOS DEL CONSISTORIAL;-33.45145725;-70.58563183
1164;AIRE;-33.64019204;-70.69693393
1165;ISRAEL;-33.50879049;-70.62858748
1166;AYLIN;-33.45184578;-70.53815781
1167;PATO  ;-33.46275414;-70.7614271
1168;ERBI PROVIDENCIA;-33.44272855;-70.5957698
1169;ERBI CONCHALI;-33.36723583;-70.68895458
1170;ERBI MACUL;-33.475214;-70.592226
1171;ERBI LAS CONDES 2;-33.41856316;-70.59841949
1172;ERBI PEDRO AGUIRRES CERDA;-33.48014436;-70.6759854
1173;ERBI SAN DIEGO;-33.4499197;-70.65051953
1174;ERBI SAN DIEGO 2;-33.45764333;-70.64946278
1175;ERBI SAN PABLO;-33.44301836;-70.71567708
1176;ERBI SAN BERNARDO;-33.63892856;-70.70795754
1177;ERBI LA CISTERNA;-33.52860614;-70.66175812
1178;LAS CARMELITAS;-33.40827559;-70.64353737
1179;ANGELITO  ;-33.46853469;-70.61721063
1180;M Y C;-33.426962;-70.683554
1181;NELIDA;-33.58986323;-70.60072228
1182;BENJAMIN Y ROCIO Y CONSTANZA;-33.47005662;-70.70684318
1183;EL GRIFO-RECOLETA;-33.40626421;-70.62947733
1184;DON OSCAR;-33.44233869;-70.57829272
1185;PERLA;-33.45530496;-70.59602003
1186;LAS CUATRO JEHOVA;-33.39237686;-70.67426621
1187;DONDE EL PABLO;-33.61434359;-70.62256303
1188;ROSITA - RECOLETA;-33.3982004;-70.63007151
1189;CHAVITA;-33.50882321;-70.64497115
1190;KATHERINE;-33.46235361;-70.55914753
1191;RAQUEL MORA;-33.40591062;-70.59861184
1192;FABIOLA;-33.56596207;-70.57665454
1193;FORESTAL;-33.36773388;-70.69311777
1194;E OASIS;-33.45322271;-70.56852833
1195;CAROLINA;-33.51194167;-70.79061
1196;CYBERNAUTA;-33.51143176;-70.75494798
1197;ELE PROGRESO;-33.56211533;-70.61555185
1198;PROJECTPOINT CHILE;-33.35922768;-70.7117165
1199;EBEN EZER - LA PINTANA;-33.57937594;-70.65707964
1200;YESSICA;-33.44675058;-70.76450388
1201;WILLIAMS;-33.59222873;-70.6191306
1202;LAS CONTRERAS;-33.43315233;-70.76628631
1203;BELEN - CERRO NAVIA;-33.42784667;-70.73158119
1204;PATRICIA - PUENTE ALTO;-33.61486459;-70.619116
1205;CRISTOBAL - SAN BERNARDO;-33.56618861;-70.70178583
1206;MAXIMARKET;-33.54375423;-70.57563127
1207;DONDE LA KATITA;-33.47127856;-70.56276069
1208;PATRICIA - ESTACION CENTRAL;-33.47549062;-70.68473127
1209;TIO MANUEL;-33.43045085;-70.62154372
1210;ELSA  ;-33.45671274;-70.66232758
1211;BERNARDITA;-33.61601412;-70.70545126
1212;EL MAX;-33.59283089;-70.62755976
1213;ALEDANY;-33.6104006;-70.69451453
1214;LI;-33.59007719;-70.67506664
1215;M Y R;-33.39591181;-70.6264527
1216;CLAUDIA BATRIZ VALLADARES HANISCH;-33.42129625;-70.60742272
1217;PESTAÃITA;-33.47571789;-70.5897239
1218;JUMBITO 2.0;-33.48741712;-70.6454546
1219;SAN DANIEL;-33.51705067;-70.7005045
1220;LA MARITA;-33.35150993;-70.72860221
1221;VANESSA - LA REINA;-33.44521444;-70.55476111
1222;A Y E;-33.37038542;-70.74254893
1223;MARTIN - LA FLORIDA;-33.54720419;-70.57801498
1224;AFY;-33.45119783;-70.55842367
1225;ALMACEN - EL BOSQUE;-33.56918071;-70.6594234
1226;CASIMILA;-33.56513115;-70.63350628
1227;LUIS DAVID;-33.48214661;-70.69296387
1228;AMERICAN;-33.41280329;-70.60417161
1229;DON BOSCO;-33.45146932;-70.63259874
1230;COMERCIAL TRIMED LTDA;-33.43679122;-70.62215272
1231;JANET;-33.44775525;-70.67770996
1232;ARCELISA;-33.44628652;-70.67804976
1233;D ALEXSANDER;-33.43802686;-70.67569718
1234;ANITA - RENCA;-33.40286207;-70.69031879
1235;LAS 5 DELICIAS;-33.62554286;-70.62553424
1236;ANNABELLA;-33.57499075;-70.65456601
1237;ANTONIETA;-33.42616848;-70.65684554
1238;JORGE;-33.36958357;-70.72109261
1239;GEMA;-33.3648041;-70.74996091
1240;SANDRA;-33.41499103;-70.74533707
1241;COMERCIALIZADORA MASERVICIO LTDA;-33.59787434;-70.68470939
1242;DONDE PABLITO;-33.6123827;-70.7028798
1243;CURICO;-33.46202912;-70.63500706
1244;EBEN EZER - CERRILLOS;-33.4927958;-70.71388482
1245;CHRISTOPHER;-33.58656369;-70.63948196
1246;EL NOGAL 7;-33.45142012;-70.76129283
1247;RINCONADA DEL SALTO;-33.39391666;-70.61239242
1248;JACQUES;-33.41178298;-70.68573431
1249;NICOL;-33.51907656;-70.61767516
1250;JOCELIN;-33.52109343;-70.64531735
1251;PAOLA ;-33.51806832;-70.61737676
1252;JUANA  ;-33.4286295;-70.772225
1253;GIOVANNA;-33.48407054;-70.61176428
1254;MARCELA;-33.48586218;-70.59022664
1255;UNO MAS DOS;-33.40122333;-70.67118083
1256;LA FERIA;-33.37908494;-70.6807542
1257;JUAN CARLOS - CONCHALI;-33.37972467;-70.66735583
1258;DON JULIO;-33.43481351;-70.71552334
1259;CHITO PLASMA;-33.41519367;-70.74493187
1260;HACIA EL FUTURO;-33.35767931;-70.68877812
1261;JUMBITO  ;-33.41616304;-70.67080841
1262;JUAN FRANCISCO;-33.6264356;-70.59208169
1263;EL TOCO;-33.35572472;-70.73728492
1264;ALONSITO - ESTACION CENTRAL;-33.45813113;-70.68363515
1265;ANDRES - CERRO NAVIA;-33.41965844;-70.75697946
1266;KRSNA COMERCIAL LTDA;-33.43842369;-70.64844887
1267;JANAOS;-33.43897322;-70.7235364
1268;JOSE;-33.41727621;-70.7476926
1269;YAYO;-33.51386149;-70.56968548
1270;DONDE JULIA;-33.54722807;-70.65120684
1271;LA RUCA;-33.5114041;-70.57263084
1272;SHALOM;-33.46644295;-70.68871326
1273;MARIO  ;-33.56402466;-70.64328995
1274;BETO;-33.49639266;-70.66814295
1275;SANTA MARIA ;-33.50317623;-70.77712499
1276;LA ESPINA;-33.52981782;-70.65890414
1277;LA ESPIGA DE ORO;-33.58851214;-70.56467079
1278;EDUARDO DE LAS FLORES;-33.44064992;-70.54332842
1279;LA HACIENDA;-33.59908167;-70.548715
1280;MAIRA;-33.6108234;-70.55296558
1281;KARINA - ABATE MOLINA;-33.45795194;-70.67197952
1282;MARY CON JUAN;-33.511471;-70.64405997
1283;SOL DEL CIELO;-33.56094544;-70.60531396
1284;SOUVENIR;-33.5618213;-70.64918098
1285;IVAL;-33.59788668;-70.67358608
1286;JOSE MIGUEL;-33.44344144;-70.64994864
1287;GABY;-33.4983457;-70.7644313
1288;EL TOPE;-33.50953993;-70.76628585
1289;SAN SEBASTIAN - MAIPU;-33.515744;-70.77105359
1290;MARTITA - MAIPU;-33.52518654;-70.765008
1291;LAS ARANDELAS ;-33.41714592;-70.68505938
1292;SNOOPY;-33.57722838;-70.67357565
1293;SAN GUILLERMO;-33.53647044;-70.77526866
1294;XD MARKET;-33.56134759;-70.62326537
1295;COMERCIAL SAVAN E RM;-33.46963773;-70.55171008
1296;DONDE CALISTO;-33.54562879;-70.66706023
1297;LAS DOS PLAZAS;-33.59948874;-70.56557828
1298;DE LAS CARTERAS;-33.51425492;-70.67686774
1299;FLORES HERMANOS - LO PRADO;-33.43908446;-70.72368323
1300;SPEEDNET;-33.36553453;-70.73794643
1301;DIANIT;-33.41383379;-70.53567474
1302;SPARKS;-33.45968154;-70.65075756
1303;CONTINENTAL EXPRESS;-33.43657478;-70.65354798
1304;EL MERCADITO;-33.41765981;-70.69919963
1305;THE MANSO BROTHERS;-33.5261974;-70.62075314
1306;TOMASITO;-33.58367648;-70.66042602
1307;DON RENE;-33.43477679;-70.77513968
1308;EL FAROLITO - SAN BERNARDO;-33.61338473;-70.7001502
1309;EL BOLICHE;-33.55676365;-70.63465808
1310;JOSE ANDRES FARIAS LLANCA;-33.46020211;-70.75306535
1311;ANDREA;-33.58931243;-70.60997396
1312;EL NANO;-33.57953411;-70.63852052
1313;RAVERA;-33.36895319;-70.63490146
1314;CASTILLO MARKET;-33.431563;-70.67393114
1315;CIBER BAZAR JP;-33.3644346;-70.75782621
1316;PIPI;-33.37694504;-70.6340899
1317;KIOSKO;-33.43848147;-70.64714386
1318;TIA TITA;-33.44941467;-70.6404966
1319;KIOSKO - CERRILLOS;-33.49935817;-70.71542486
1320;COMERCIAL RAVOL LTDA;-33.5022086;-70.67627891
1321;ANGELA;-33.47729581;-70.73185244
1322;BICHITOS;-33.55414994;-70.60220732
1323;TOPACIO;-33.56020345;-70.60936943
1324;JACQUELINE;-33.56317851;-70.64111797
1325;EL PATO;-33.54983804;-70.6901185
1326;KATITA;-33.570645;-70.69953833
1327;CASTILLO DE SANDY;-33.59008208;-70.68359466
1328;INTERNET SAN LUIS LIMITADA;-33.50619118;-70.57788124
1329;CAVANET;-33.44741175;-70.6412564
1330;DON TITO;-33.44269714;-70.74522863
1331;LA HERRADURA;-33.4406833;-70.7106744
1332;CINDY;-33.5850646;-70.5630913
1333;LA ESQUINA;-33.36752928;-70.69163088
1334;OMAR NAVARRETE CURTI;-33.50040141;-70.6270331
1335;AMELIA UGARTE VERGARA;-33.51198707;-70.74201495
1336;KIOSKO - MAIPU;-33.51509262;-70.79717369
1337;BOTILLERIA ONUCHA;-33.56114392;-70.63178533
1338;TOMASITO DOS;-33.58134103;-70.66063029
1339;EL CHICHO;-33.43107836;-70.7695843
1340;PILAR;-33.48314876;-70.67812025
1341;BOTILLERIA NATY;-33.48643613;-70.67444013
1342;ELY;-33.49736833;-70.63750667
1343;YELENA;-33.47873096;-70.65835549
1344;ALEJANDRA GLADYS CERDA VENEGAS;-33.474495;-70.70033167
1345;CAMILA - PUENTE ALTO;-33.59656593;-70.60204932
1346;BAZAR DE CARLOS;-33.59102937;-70.67835475
1347;LA MOTO;-33.57755718;-70.63482424
1348;MINIMARKET NABIHA;-33.45981189;-70.56241136
1349;LA FORTALEZA;-33.53043461;-70.58704283
1350;BARON;-33.38275309;-70.68644179
1351;BELEN Y JAIN;-33.44912064;-70.69382224
1352;FARM ESPOZ QTA NORMAL - SAN PABLO;-33.43809487;-70.69092161
1353;PATRICIA SILVA LEAL;-33.51948249;-70.63141344
1354;LI-LI;-33.19159864;-70.66542636
1355;D TECNO OFFICE;-33.45200333;-70.67952917
1356;BAZAR ESPERANZA;-33.41375932;-70.72211121
1357;LOS 4 M;-33.55077548;-70.61796805
1358;BAZAR NANY;-33.42743579;-70.74736237
1359;MINIMARKET;-33.46672883;-70.6765229
1360;DONDE LA LELA;-33.49266548;-70.60215731
1361;RICARGO EDGAR FAURE;-33.50403224;-70.67414406
1362;MAYKA;-33.43998365;-70.73804015
1363;J Y E;-33.39569453;-70.66719966
1364;TOYITO;-33.5080701;-70.67415417
1365;ALMACEN LAS 3 M;-33.47651527;-70.70956017
1366;SAN SEBASTIAN - LA PINTANA;-33.5940856;-70.62102923
1367;LA NANA;-33.53150502;-70.7825841
1368;DANY;-33.42926;-70.674304
1369;EBEN EZER - PUENTE ALTO2;-33.59193167;-70.60351833
1370;DANNY;-33.59441775;-70.61744769
1371;ALMACEN CHABE;-33.41949037;-70.7141659
1372;BAZAR NENA;-33.47151986;-70.56574593
1373;JEREMY;-33.43665203;-70.7673586
1374;EL BICHO;-33.50736917;-70.56978688
1375;LA MARITIMA;-33.42109409;-70.74463964
1376;EL PARRON - EL PARRON;-33.56003594;-70.63790793
1377;IVONNE;-33.48018696;-70.66338984
1378;APOLO-GULYT;-33.59962414;-70.67524528
1379;BAJO CERO;-33.44970752;-70.74786761
1380;ALMACEN ROSITA;-33.43080065;-70.7469984
1381;IVAN-JOR;-33.48682004;-70.63062824
1382;CARNICERIA ALEX;-33.51183941;-70.62593325
1383;CLAUDIO ELESTOR SEPULVEDA GOMEZ;-33.57500312;-70.65447421
1384;ADELITA LEONOR TOLOZA TOLOZA;-33.59219074;-70.62257139
1385;MINIMERCADO 21 DE MAYO;-33.57562838;-70.65618238
1386;GUILLERMO LOPEZ GAUNA;-33.44393061;-70.64983255
1387;JOHANNA;-33.55792899;-70.70720748
1388;LA NONA;-33.58979003;-70.69953976
1389;JUAN MIGUEL DE LA CRUZ TORRES;-33.36800211;-70.75227597
1390;ALONDRITA;-33.40273037;-70.72087655
1391;PAZ MARIA YEOMANS LOPEZ;-33.46221059;-70.64170691
1392;MINIMARKET FRAN Y JAVI;-33.50161324;-70.66250059
1393;INTICOM;-33.43782863;-70.65486775
1394;DALIA;-33.43908724;-70.65900348
1395;MINIMARKET SEBASTIAN;-33.61934252;-70.58820937
1396;CIBER ALAMEDA;-33.45186897;-70.68342293
1397;LA CASCADA;-33.53105537;-70.78274468
1398;BOTILLERIA EL FLACO;-33.42161203;-70.72299546
1399;ALMENDRAL;-33.43935467;-70.75734529
1400;CRISTOBAL - RENCA;-33.4005049;-70.74006887
1401;PEDRO ENRIQUE GARRIDO HERNANDEZ;-33.40338238;-70.67686345
1402;ALMACEN LA CHELITA;-33.57783645;-70.66877216
1403;S Y S;-33.41312391;-70.71638344
1404;LUIS CORTEZ NILO;-33.499995;-70.6645
1405;FLORENCIA;-33.49247409;-70.6372575
1406;ALMACEN TREBOL;-33.62075342;-70.61252451
1407;EDUVIJES DEL CARMEN RIVAS ECHEVERRIA;-33.40987544;-70.72901367
1408;ERWIN;-33.40094651;-70.74835272
1409;CYBER;-33.36217667;-70.7458085
1410;TABAQUERIA;-33.44176752;-70.65194928
1411;JUEGOS DE AZAR;-33.43442196;-70.65250476
1412;MARTA - INDEPENDENCIA;-33.42201521;-70.66463787
1413;MINIMARKET IVONNE ;-33.53120665;-70.55989289
1414;ALMACEN RODRIGO;-33.45613762;-70.63695852
1415;EL FABBI;-33.47714238;-70.63799843
1416;DONDE EL EZE;-33.36107999;-70.74491756
1417;LA NEGRA - SAN BERNARDO;-33.56131358;-70.70812019
1418;COLO-COLO;-33.47571595;-70.6954425
1419;FREDDIE HERNAN GONZALEZ NAVARETE;-33.49776622;-70.68765176
1420;LA ESQUINA - PENALOLEN;-33.48122301;-70.52484952
1421;EL PINAR;-33.49407456;-70.62563344
1422;IBANEZ;-33.42658033;-70.70866833
1423;VALENTINA;-33.43738424;-70.77132145
1424;PO-LOTO;-33.45319331;-70.61723466
1425;ISOLINA RAMIREZ SOTO;-33.46892179;-70.58617187
1426;ORIANA CORTES CARDENAS;-33.49269206;-70.65107973
1427;REGALO DE DIOS;-33.44194299;-70.70820618
1428;DON RICARDO;-33.47390484;-70.55798144
1429;ARMANDO ANTONIO QUIÃINAO ÃANCUPAN;-33.47053813;-70.57112
1430;LIRAMAI;-33.62495608;-70.68045896
1431;MINIMARKET - LA CISTERNA;-33.54065044;-70.68159769
1432;PRODUCTOS A4;-33.41680122;-70.6586884
1433;MINIMARKET MICHEL Y CELESTE;-33.41670334;-70.66272967
1434;ALMACEN DONDE MATIAS;-33.47715016;-70.560886
1435;EL ENCANTO;-33.45929323;-70.55588829
1436;YURI CORDOVA SALINAS;-33.62712233;-70.59343995
1437;MARISOL PEZOA ARANGUIZ;-33.45454936;-70.59927062
1438;ROXANA LORENA BASILIO HILARIO;-33.46131597;-70.64732233
1439;HECTOR OÃATE MOYA;-33.40978759;-70.73618058
1440;MIRIAM DE LAS MERCEDES LUCO ROJAS;-33.43383058;-70.74193872
1441;SUSANA SILVA PALMA;-33.42770095;-70.70899013
1442;DE LA PEÃA INVERSIONES Y CIA. LTDA.;-33.45537879;-70.69620626
1443;JORGE DIAZ OÃATE;-33.47273585;-70.64150302
1444;KATIA POLO MORILLOS;-33.39630072;-70.67184588
1445;KATIA POLO MORILLOS-2;-33.39109369;-70.67015251
1446;JOCELYN CLERVIL PIERRE;-33.48814017;-70.6799392
1447;SOLEDAD SILVA MARTINEZ;-33.52008652;-70.68161586
1448;HECTOR MORALES ESTUPIÃAN;-33.50015889;-70.67379255
1449;MONICA CESPEDES OTAROLA;-33.47332007;-70.53499683
1450;EUSEBIA MUÃOZ FERNANDEZ;-33.47459893;-70.54266883
1451;MIRIAM LARRAIN LOMAYER;-33.47455677;-70.58079287
1452;MARCOS BAEZ SEPULVEDA;-33.39212944;-70.66877172
1453;LUIS ROJAS JAQUE;-33.504455;-70.76916667
1454;LUIS ROJAS JAQUE-2;-33.51077306;-70.79070506
1455;EL PIRATA COQUI;-33.5678855;-70.69766488
1456;VERDURERIA CUBILLOS;-33.59194352;-70.69029886
1457;JUAN JOSE;-33.55217042;-70.67392554
1458;SEBASTIAN - SAN BERNARDO;-33.57180201;-70.7073267
1459;MARIA JARA VEJAR;-33.39255267;-70.58128328
1460;YOLITA;-33.49051589;-70.67524882
1461;CARLOS ALBERTO CAMPOS BRAVO;-33.50274499;-70.59583967
1462;LUKAS;-33.44010437;-70.70211109
1463;BOTILLERIA LOS VERA;-33.3833;-70.9
1464;IQUIQUE;-33.43319186;-70.75499477
1465;INES LEIVA SILVA;-33.45186193;-70.721931
1466;LOS LOPEZ;-33.45105205;-70.71486802
1467;VIVIAN MORELIA ELENA DROUILLAS ZUÃIGA;-33.4349981;-70.7687166
1468;ANAKAREN;-33.43459065;-70.76090648
1469;LA BOTICA DE LA ALE;-33.41669967;-70.73998117
1470;JUAN;-33.40849125;-70.71697676
1471;CRISTHIAN DEL CARMEN TOLEDO MENDEZ;-33.36911557;-70.68844791
1472;EBEN EZER;-33.49315801;-70.6758802
1473;PATRICIO ANTONIO RETAMAL JARA;-33.55077548;-70.61796805
1474;EL MEZON;-33.51765873;-70.57914376
1475;LA NANY;-33.47007461;-70.54429507
1476;FULL MARKET;-33.59597219;-70.678865
1477;CAROLINA MODACA PALMA;-33.48115654;-70.68879333
1478;JUANA CALCUMIL REYES;-33.48391646;-70.66082028
1479;JAIMITO;-33.48198304;-70.66062599
1480;MIREYA DEL CARMEN NAVARRETE SEPULVEDA;-33.51866623;-70.61746606
1481;EL SABADO;-33.45593703;-70.53683775
1482;MINIMARKET ABASTO LARRAIN;-33.45248458;-70.55984762
1483;LA CHASCONA;-33.5325599;-70.56579833
1484;ROXANA PAULINA ESPINOZA LEAL ;-33.51308607;-70.60911116
1485;EL TOMECINO;-33.51916291;-70.56650696
1486;GUSTAVITO;-33.40916554;-70.69771503
1487;CIBER CIP;-33.45374553;-70.68069843
1488;JUAN CARLOS MILLAN SEPULVEDA;-33.3838405;-70.66992992
1489;RAUL RICARDO DEL CANTO GUTIERREZ;-33.45725299;-70.63708824
1490;EL PRINCIPITO;-33.43462726;-70.72688741
1491;MINIMARKET MARY;-33.40916457;-70.66573023
1492;YAYU;-33.45988171;-70.76253477
1493;LA COSECHA;-33.45893309;-70.7576044
1494;BELGRANO;-33.41944163;-70.61575701
1495;JAZMIN ELIZABETH ROCA VILLANUEVA;-33.53822428;-70.62459349
1496;KELLY;-33.60687979;-70.59018457
1497;SANTA GEMITA - LA REINA;-33.46092231;-70.55807468
1498;5 ESTRELLAS;-33.51016843;-70.58312834
1499;VALPARAISO;-33.36006488;-70.75217411
1500;ALANYS Y RANDY;-33.4604995;-70.65506987
1501;EL BUEN AMIGO - PENALOLEN;-33.50118478;-70.58331571
1502;MANA;-33.40673898;-70.72359363
1503;PAOLA ANDREA FARIAS CORNEJO;-33.40895687;-70.67206602
1504;COOL MARKET;-33.35305034;-70.73647727
1505;MARISOL HERMANDINA ALBORNOZ MAELLA;-33.53719459;-70.61408354
1506;CARMEN ANDREA JEREZ MATURANA;-33.48608856;-70.64052769
1507;BUENA SEMILLA;-33.36651229;-70.72314485
1508;BAZAR CHEPINA;-33.51818471;-70.62242106
1509;CAMY;-33.54727564;-70.76015443
1510;MARJU;-33.47219547;-70.72005106
1511;SAN CRISTOBAL - SAN JOAQUIN;-33.5006326;-70.6301575
1512;GATTOS;-33.47321153;-70.55677267
1513;ITALIA;-33.57670466;-70.57312231
1514;ANMAROAN;-33.53961832;-70.6344911
1515;EL ORIENTE;-33.60125105;-70.68910415
1516;COMERCIAL ENTRETENIMIENTOS SMR SPA-2;-33.38525341;-70.67171498
1517;COMERCIAL ENTRETENIMIENTOS SMR SPA;-33.46987305;-70.75468253
1518;EL FARO;-33.46508039;-70.74716654
1519;ALONSITO - NUNOA;-33.46763167;-70.61463
1520;FLORITA;-33.48436758;-70.59917793
1521;MANUEL MUÃOZ FAMBUENA;-33.4393279;-70.63891998
1522;ORANGE+;-33.42449786;-70.58434915
1523;KRISS;-33.4672875;-70.67430917
1524;EDUARDO ALFONSO BRAVO ESCOBAR;-33.50453795;-70.6263594
1525;BOTILLERIA EL BURRITO;-33.40354428;-70.7345703
1526;MARIA BENAVENTE;-33.44434274;-70.72431082
1527;MARISELLA FIGUEROA VEGA;-33.42544111;-70.61155389
1528;EL GALLO;-33.41334409;-70.70852112
1529;LA LIMENITA;-33.4675095;-70.646927
1530;CLAUDIO ALEJANDRO MORA GUTIERREZ;-33.48629496;-70.76570503
1531;POBLETE CASTRO Y COMPAÃÃA LTDA;-33.45003427;-70.65053409
1532;BOTILLERIA EL CHILENO;-33.52247543;-70.69000557
1533;MIS NIETOS K;-33.51592016;-70.76305154
1534;MINIMARKET MARCHANT;-33.50392192;-70.79234303
1535;DONDE LA LALY;-33.5848943;-70.68317965
1536;SOCIEDAD COMERCIAL BELMAR Y ROJAS LIMITADA;-33.47924763;-70.60413948
1537;EL CASTILLO - EL BOSQUE;-33.57199034;-70.67016051
1538;MARIO ENRIQUE DAVILA VEGA;-33.36530105;-70.50940281
1539;ALMACEN ROBLES DOÃA PAULA;-33.36216608;-70.50834067
1540;MAYORISTA DE FRUTAS Y VERDURAS;-33.45200062;-70.55564078
1541;EMPORIO DOMINGA;-33.45127872;-70.58916032
1542;CAAN GOOL CRIS;-33.43867003;-70.61570642
1543;PATITO - LA FLORIDA;-33.51953173;-70.58433391
1544;E MENDOZA;-33.43066019;-70.70705169
1545;MARINA;-33.3907937;-70.69520276
1546;LOS HERMANOS;-33.56122319;-70.55372833
1547;EBEN EZER - SAN RAMON 2;-33.54996238;-70.63559375
1548;FOOD MARKET LA COLOMBIANA;-33.48952043;-70.74656713
1549;EL JAVITO;-33.43645843;-70.74770624
1550;MICA;-33.56906224;-70.57675752
1551;EL EMPORIO VERDE LIMITADA;-33.37815304;-70.63915984
1552;ANGIE;-33.40134212;-70.64581245
1553;DN FRANCIS;-33.44654058;-70.64568231
1554;DON AARON;-33.53243082;-70.62786909
1555;CAMILA - LO ESPEJO;-33.5203976;-70.6935977
1556;EL GLOTON;-33.42540867;-70.7192508
1557;CORDILLERA - LA FLORIDA;-33.55976645;-70.61121123
1558;YERKO;-33.62452796;-70.70184164
1559;LOS SANTOS;-33.47336032;-70.59513692
1560;RODRIGO - CERRILLOS;-33.50088466;-70.73188074
1561;CAMILA - SANTIAGO;-33.43980263;-70.67585854
1562;SAJOWALDANA;-33.38735244;-70.65367916
1563;JUMBITO;-33.40181956;-70.67497096
1564;EL BOLICHE 3.0;-33.58729198;-70.61028207
1565;DONDE LA ANY;-33.60534057;-70.5633016
1566;CIBERNAUTA.NET;-33.41744203;-70.6969399
1567;LOS NEGRITOS;-33.4173174;-70.5357133
1568;MATY - SANTIAGO;-33.45828574;-70.67413753
1569;EL MORRA;-33.51264154;-70.82635199
1570;BAZAR ELY;-33.49369827;-70.74331676
1571;ROCKY;-33.5090519;-70.79034129
1572;LA ESQUINA - CERRO NAVIA;-33.43387324;-70.74056458
1573;MINIMARKET PEPE;-33.42967403;-70.73978227
1574;POLLA Y LOTERIA;-33.44440126;-70.65159746
1575;EVELYN;-33.51316466;-70.78490872
1576;SHAGUITO;-33.50331068;-70.79228056
1577;BRASIL - MAIPU;-33.52174575;-70.79423135
1578;DONDE EL BENJA - PUENTE ALTO;-33.63215453;-70.61835843
1579;LA NENITA;-70.62877505;6277865
1580;SUPERIOR;-33.63194156;-70.61641594
1581;JUAN Y XIMENA;-33.38706191;-70.69616418
1582;GIOVANA;-33.52868929;-70.67297111
1583;BAMBI;-33.40764861;-70.73125465
1584;KIOSKO - LA CISTERNA;-33.54133622;-70.66539129
1585;AKANE;-33.51315626;-70.65933085
1586;VIVIANA;-33.52329425;-70.62203136
1587;LA JOVY;-33.58548889;-70.58991365
1588;LA ESQUINA - PUENTE ALTO-J.O;-33.62035296;-70.58528306
1589;ZONA TABACOS;-33.37891168;-70.63877996
1590;LA BARRACA;-33.5306102;-70.6736736
1591;DON CHONO;-70.71917743;6302205
1592;FAMILIA DE ISAI;-70.62973661;6306918
1593;MARJORIE;-33.54864652;-70.64766013
1594;ALMACEN AMARO;-33.56542125;-70.56262952
1595;ELENA VALENZUELA HENRIQUEZ;-33.57213641;-70.57860984
1596;GLORIA - SAN RAMON;-33.54370946;-70.64128903
1597;COMERCIAL LAS BRUJAS;-33.53946771;-70.60190866
1598;MAXCE  FRUTAS Y VERDURAS;-33.50410768;-70.79642983
1599;KIOSCO - MIGUEL CLARO;-33.4300119;-70.62193475
1600;VERONICA;-33.51169857;-70.77944345
1601;PLAZA PANAMA;-33.43390791;-70.66859007
1602;BAZAR DEYKA LTDA.;-33.58312681;-70.59181508
1603;LAS DELICIAS DE SU MASCOTA;-33.51594704;-70.69866967
1604;ZONA TABACOS - RECOLETA;-70.64247759;6303933
1605;INTERNET Y OTROS;-33.51747269;-70.65806991
1606;KIOSKO - OSSA;-33.53881506;-70.66497682
1607;EL DECRETO;-33.42367839;-70.72737722
1608;BOTILLERIA LIBERTAD;-33.41071417;-70.63658635
1609;DON KIKO;-33.47523697;-70.56098601
1610;MARY - CERRO PROVIDENCIA;-33.51493043;-70.56053884
1611;FRUGOSEC;-33.45372173;-70.68866753
1612;MAYRA - RENATO;-33.51799358;-70.55359603
1613;GENNESIS;-33.42920639;-70.77214257
1614;LA ESQUINA - LA CISTERNA;-33.53041686;-70.67132227
1615;PEUMAYEN;-33.3885742;-70.68469203
1616;LOS VIDEOS;-33.62679347;-70.61770793
1617;ALMACEN MATIAS;-33.59682833;-70.673795
1618;ALMACEN EL AÃE;-33.59396558;-70.67903692
1619;TRES HERMANOS;-33.56405086;-70.62643891
1620;NALDO;-33.56312807;-70.78735023
1621;EL DIAMANTE;-33.5284564;-70.76685708
1622;CHRISTIAN CORTEZ;-33.42834496;-70.61884079
1623;LOS NONOS;-33.38651339;-70.65931713
1624;JAVIER;-33.4649887;-70.60161576
1625;SHAN;-33.45488857;-70.75815988
1626;VALESKA;-33.42303833;-70.73524758
1627;DONDE EL LOLO SPA;-33.53805889;-70.54817118
1628;PLANOVIDENCIA;-33.49484444;-70.68935778
1629;DELICIAS DEL PERU;-33.471682;-70.62965433
1630;ZARELA;-33.45201938;-70.69404282
1631;NATALY - INDEPENDENCIA;-33.41883457;-70.67250639
1632;LA CASA DEL VIAJE;-33.43725309;-70.65139866
1633;FLORES HERMANOS - QUINTA NORMAL;-33.43632352;-70.70772093
1634;POLLA Y LOTERIA - ARTURO PRAT;-33.44431917;-70.65018469
1635;YAMY;-33.58226833;-70.660497
1636;ELECTRONICA ALEX;-33.4295546;-70.73800792
1637;POLLA Y LOTERIA - 21 DE MAYO;-33.43639881;-70.65002508
1638;JOSE - LO BARNECHEA;-33.36258095;-70.50623127
1639;SANTA OLGA LO ESPEJO;-33.50743293;-70.68547326
1640;B Y V;-33.45023012;-70.74437889
1641;ERICKO;-33.48095913;-70.5664934
1642;SERVICELL;-33.4519176;-70.68128984
1643;LA CIELO;-33.47110688;-70.71169157
1644;CIMABAZAR;-33.45669884;-70.59226228
1645;FRABA;-33.48791626;-70.6095357
1646;TIO RODY;-33.4707196;-70.67023113
1647;SAN ALBERTO;-33.50941604;-70.62252883
1648;AMPORIO 2125;-33.44005379;-70.66619664
1649;MEME;-33.48674125;-70.76859858
1650;SIN ENVIDIA;-33.53057802;-70.69941925
1651;DON PROMO;-33.54894462;-70.76129518
1652;IM;-33.40125644;-70.62534229
1653;CONCESIONRIA CASINO;-33.52807956;-70.71519158
1654;KIOSKO - PAJARITOS;-33.50856579;-70.75709006
1655;HASSMARKET;-33.5536703;-70.5706243
1656;MARY - VENEZUELA;-33.5329098;-70.582524
1657;TIA PATY;-33.63187667;-70.6228763
1658;ROSA;-33.61874924;-70.59010912
1659;BAYRON;-33.56112389;-70.62105806
1660;DE TODO UN POCO - PUDAHUEL;-33.45720537;-70.75879148
1661;BAZAR SEBASTIAN;-33.48264135;-70.60959301
1662;ERICK;-33.54289385;-70.66635698
1663;KIOSCO ANITA;-33.46246989;-70.61610011
1664;MUSTAFA;-33.36981167;-70.74683167
1665;EL PIPE;-33.36211039;-70.7479345
1666;ELLIET;-33.43256756;-70.71149572
1667;DULCE AMANECER;-33.52779666;-70.67586313
1668;MAGUS;-33.40293714;-70.71957
1669;SHALOM - NUNOA;-33.45580833;-70.59793333
1670;ESTRELLA AZUL;-33.5894246;-70.56252367
1671;DON LALO - QUILICURA;-33.35813074;-70.72839558
1672;ALE;-33.53686522;-70.61809835
1673;INTERNET Y SERVICIOS;-33.53213806;-70.64717299
1674;ALMACEN ESQ. HUERFANOS;-33.44398716;-70.69792846
1675;JEHOVAH YIREH;-33.40890131;-70.74243744
1676;CHUNDO;-33.52958433;-70.70134567
1677;IRMA;-33.51859671;-70.77009175
1678;EDUARDO - MAIPU;-33.53596966;-70.7910588
1679;DOUGLAS;-33.51183898;-70.78674704
1680;ANTONELLA - LA PINTANA;-33.58077405;-70.6378366
1681;LOS SEIS TESOROS;-33.4032497;-70.66070734
1682;MINI MARQUE BARUCK;-33.39248485;-70.84914327
1683;SERGITO;-33.44857617;-70.74744008
1684;ROSA VERGARA;-33.43511748;-70.77658677
1685;DON RAUL;-33.47780354;-70.59109649
1686;ALMACEN LA ESQUINA - MACUL;-33.49009065;-70.61049049
1687;GETSEMANI;-33.45088631;-70.66084342
1688;STUTTGART;-33.40245906;-70.71426123
1689;DONA EMILIA;-33.39694929;-70.64267792
1690;KEVIN - SAN BERNARDO;-33.62425058;-70.69528979
1691;D LA ESQUINA - NUNOA;-33.45354555;-70.61098272
1692;LOS ALEJANDROS;-33.35169925;-70.74021113
1693;COMERCIAL XEROGRAFIX;-33.43635389;-70.60782352
1694;NIC-SJR;-33.5257721;-70.79237212
1695;LAS CHINAS;-33.49514123;-70.59172659
1696;DONA FLOR;-33.48361225;-70.58928112
1697;LAS 3 B;-33.39779219;-70.75146336
1698;PEHUEN;-33.40712073;-70.72984954
1699;SANTA GEMITA - RENCA;-33.39216043;-70.69968953
1700;BAZAR CAROLINA;-33.40369111;-70.72659264
1701;LA CACHORRITA;-33.39784971;-70.69621521
1702;BAZAR - ESTACION CENTRAL;-33.46085195;-70.6930346
1703;FLORERIA Y REGALOS CAROLINA;-33.45048205;-70.70278158
1704;ALMACEN PAOLA - EST. CENTRAL;-33.47395028;-70.71827722
1705;MI LOPEZ;-33.45700424;-70.68337911
1706;OVID;-33.45107408;-70.68367012
1707;LA PAZ DE SAN MARTIN;-33.50275667;-70.729275
1708;LOS PRIMOS - CERRILLOS;-33.51307104;-70.70647957
1709;DANIEL;-33.50699766;-70.72433911
1710;ESTABLECIMIENTOS MAURY;-33.4999867;-70.71411948
1711;DONDE CARLITOS - CERRILLOS;-33.50381743;-70.73099416
1712;ALMACEN GERARDO;-33.40212551;-70.67315688
1713;LAS BRUJAS;-33.42317589;-70.66632967
1714;BAZAR Y PAQUETERIA NIZA;-33.42508946;-70.65641277
1715;MINIMARKET BLANCA;-33.40919578;-70.66308473
1716;BAZAR XIMENA;-33.40683546;-70.69921882
1717;LOS PITUFOS;-33.46634722;-70.65178257
1718;STREETMARKET;-33.38866896;-70.56432714
1719;BONELESS;-33.44537545;-70.57140083
1720;LA PIÃATA;-33.66488237;-70.92776562
1721;ALMACEN M Y B;-33.4445035;-70.76764161
1722;THENIGGA;-33.46149532;-70.74916501
1723;LODIEL;-33.40909056;-70.65675498
1724;ALMACEN SONIA;-33.42213688;-70.65724264
1725;JANETTE ALEJANDRA SOTO GARRIDO;-33.43528859;-70.76321448
1726;FRAN Y CRIST;-33.40094256;-70.75198962
1727;CENTRO DE INTERNET;-33.41293801;-70.65842401
1728;LOS HORNITOS DE RENCA;-33.39405833;-70.75019333
1729;KIOSKO Y CONFITES;-33.42066585;-70.65323426
1730;ALMACEN - BAZAR;-33.40369721;-70.69259027
1731;ALMACEN LAS GEMELAS;-33.47236266;-70.70899239
1732;ALMACEN CAFETERIA LACTEOS CECINAS;-33.44945411;-70.68716367
1733;PLAZUELA EL NOGAL;-33.44561909;-70.69125638
1734;NATANAEL;-33.45898993;-70.7233216
1735;PATRICIA VILLAROEL GONZALEZ;-33.49802144;-70.72769456
1736;ILUSION;-33.4851369;-70.7277399
1737;ALMACEN BOTILLERIA;-33.4846024;-70.70329555
1738;DON JUAN;-33.49433961;-70.72492398
1739;ENTRE DOS;-33.51169054;-70.70306367
1740;LAS TRES B;-33.51619695;-70.70491922
1741;DIONE;-33.44395758;-70.67771773
1742;MANUEL;-33.50708833;-70.75181592
1743;EL CHIMBOTANO - COPIAPO;-33.45372324;-70.6395299
1744;DON MARTIN;-33.46450456;-70.56518842
1745;PAOLA;-33.39102005;-70.65958982
1746;KJLH LTDA;-33.4730008;-70.645743
1747;DON PEPE - LA REINA;-33.43054723;-70.55460021
1748;LOS VECINOS ;-33.55504911;-70.57296505
1749;ISABELLA;-33.49954519;-70.76674559
1750;FRANCISCO;-33.48596307;-70.73726947
1751;JAVY;-33.44596941;-70.75400477
1752;ALMACEN M Y B - PUDAHUEL;-33.44898108;-70.74401524
1753;EL 21 DE QUERI;-33.44757247;-70.74837475
1754;JUPENDY;-33.44475719;-70.76622982
1755;JUPENDY - PUDAHUEL;-33.43856762;-70.77076429
1756;DON REINA;-33.47412116;-70.59028159
1757;MATIUS;-33.40751676;-70.74241052
1758;LINDSAY;-33.45894433;-70.6868187
1759;ALMACEN FENITA;-33.44627824;-70.69459719
1760;ROBIN MARKET;-33.45809896;-70.72060583
1761;LA JULITA - ESTACION CENTRAL;-33.47911671;-70.70030128
1762;LAS MONITAS;-33.39800147;-70.74748707
1763;JAIRITO;-33.4128288;-70.66589233
1764;JAVIER - INDEPENDENCIA;-33.42236489;-70.67081013
1765;LAS DOS HERMANAS;-33.40716661;-70.72723703
1766;PIRY;-33.4193922;-70.66370616
1767;LORENA;-33.49314694;-70.71183673
1768;MARIA FERNANDA;-33.39697727;-70.74646502
1769;LA VIVI;-33.50311083;-70.7291185
1770;SANTY;-33.40174667;-70.72556667
1771;ALMACEN AGUSTINA;-33.49071634;-70.70920005
1772;PABLO SELAIVA ULLOA;-33.49119795;-70.71224026
1773;LA ESTRELLA - PENALOLEN;-33.48174652;-70.52682738
1774;LELA;-33.54662761;-70.59822883
1775;COMERCIAL ENTRETENIMIENTOS SMR SPA - SAN PABLO;-33.44413529;-70.75350901
1776;MARIA;-33.62021054;-70.59657372
1777;DON ROLA;-33.52542598;-70.59749974
1778;CASI PERFECTO;-33.45015516;-70.64923325
1779;SEÃORA RAQUEL;-33.54890375;-70.5760205
1780;NOEMI;-33.62574529;-70.60753052
1781;EL LORITO;-33.57569487;-70.56172778
1782;MAKALU;-33.35957034;-70.68026092
1783;LA TRUFFA;-33.53378167;-70.64366667
1784;APTC MASCOTAS;-33.52816338;-70.63746183
1785;D Y S;-33.48919348;-70.73162279
1786;DONDE CACHIPERTO;-33.50121862;-70.69358532
1787;DOÃA BARBARA;-33.48260088;-70.52530524
1788;ANCLAMAR;-33.55273377;-70.58136365
1789;LOS 4 PEQUES;-33.45722;-70.552948
1790;LOS COLELOS;-33.38784941;-70.69606818
1791;COLORIN;-33.40001886;-70.71273184
1792;ALMACEN Y BAZAR - RENCA;-33.40456985;-70.72272467
1793;ALMACEN LOYDITA;-33.40126359;-70.67467134
1794;COMERCIALIZADORA Y DISTRIBUIDORA GERMAN IGNACIO GARIN GODOY E.I.R.L;-33.468935;-70.69884333
1795;RANDY I;-33.45283302;-70.69536656
1796;TIA SONIA;-33.41554539;-70.66209833
1797;LA VEGUITA;-33.55891926;-70.60190625
1798;SOLEDAD DE LAS MERCEDES QUIEMPI LEON;-33.39781751;-70.75134735
1799;MI WHISKY;-33.47423282;-70.60999736
1800;CAMILITA;-33.48659218;-70.72896555
1801;DULCERIA LOS GIRASOLES;-33.52310099;-70.57697062
1802;EMILIANA;-33.42091852;-70.70720702
1803;LA ESPERANZA;-33.51727022;-70.7630335
1804;DIPAN;-33.46121154;-70.74540997
1805;ADRIAN Y ANDREA;-33.58211722;-70.67000667
1806;ACUARIO;-33.58723619;-70.68155496
1807;EVELYN - LA PINTANA;-33.57963192;-70.65247372
1808;JORGITO - PUENTE ALTO;-33.58306161;-70.59761009
1809;GADAKY;-33.58664568;-70.67391753
1810;MARIA - CERRO NAVIA;-33.42556518;-70.74762004
1811;DONA PAULINA;-33.37007116;-70.7380365
1812;LA FENITA;-33.38197738;-70.67088814
1813;SANTA ISABEL;-33.50063057;-70.58558169
1814;LA MARTITA;-33.40819847;-70.69513724
1815;ROMA;-33.42412679;-70.75327376
1816;KIKA MONY;-33.4263894;-70.72495039
1817;202-CRP PROVIDENCIA;-33.41922206;-70.60100524
1818;206-CRP SAN BERNARDO;-33.59167954;-70.70390047
1819;213-APUMANQUE;-33.41025089;-70.56901098
1820;229-CRP REPUBLICA;-33.4520955;-70.68204693
1821;248-SAN DIEGO;-33.45311661;-70.65001086
1822;250-CRP HUERFANOS;-33.43970175;-70.65298961
1823;256-CRP GRAN AVENIDA;-33.5123;-70.657289
1824;258-CRP LA FLORIDA;-33.51865254;-70.60002583
1825;266-CRP MIRAFLORES;-33.43893956;-70.64536835
1826;268-CRP BUIN;-33.73314355;-70.74157575
1827;302-MALL PARQUE ARAUCO;-33.40036695;-70.57631265
1828;303-LIDER EL ALBA;-33.40102831;-70.51623337
1829;304-JUMBO BILBAO;-33.43115065;-70.57874111
1830;305-JUMBO ALTO LAS CONDES;-33.38904057;-70.54556044
1831;308-LIDER MACUL;-33.47415316;-70.59890147
1832;310-MONTSERRAT IRARRAZAVAL;-33.45320082;-70.61544197
1833;314-EL MOLINO SANTA ROSA;-33.4723934;-70.64223536
1834;316-JUMBO MAIPU;-33.48562899;-70.75146343
1835;318-MONTSERRAT MAIPU;-33.53146787;-70.77504674
1836;319-MALL PLAZA OESTE TOTTUS;-33.51506134;-70.71741989
1837;321-SANTA ISABEL MELIPILLA;-33.69152417;-71.21501684
1838;322-SANTA ISABEL SAN PABLO;-33.44017841;-70.70182802
1839;325-LIDER MAIPU;-33.48156735;-70.74546174
1840;326-SANTA ISABEL CARLOS VALDOVINOS;-33.47893789;-70.66318936
1841;331-MONTSERRAT INDEPENDENCIA;-33.40693226;-70.66052436
1842;336-MONTSERRAT EL PEÃON;-33.5946649;-70.55872528
1843;337-SANTA ISABEL LA FLORIDA;-33.55810795;-70.58603117
1844;340-SANTA ISABEL EL BOSQUE;-70.67225258;6286498
1845;373-SANTA ISABEL LA REINA;-33.4526017;-70.56074049
1846;374-SANTA ISABEL GRECIA (EXTRA GRECIA);-33.46953054;-70.57455351
1847;377-MALL PLAZA VIVACETA;-33.42030144;-70.66312044
1848;379-SANTA ISABEL QUILICURA;-33.36583587;-70.72877164
1849;380-SANTA ISABEL LA GRANJA;-33.52809713;-70.63540359
1850;383-LIDER VITACURA;-33.38648768;-70.56810589
1851;396-SAN FRANCISCO SAN BERNARDO;-33.5942756;-70.69895949
1852;397-MONTSERRAT QUINTA NORMAL;-33.431504;-70.692454
1853;398-SAN FRANCISCO BUIN;-33.73200032;-70.7360597
1854;403-CENTRO COMERCIAL TIKAL;-33.45369038;-70.68902303
1855;404-LIDER SANTA AMALIA;-33.54354142;-70.56493158
1856;405-LIDER LA REINA;-33.4625346;-70.54715961
1857;406-EL MERCURIO;-33.38395175;-70.59256643
1858;414-MONTSERRAT EL BOSQUE;-70.69086563;6283705
1859;416-UNIVERSIDAD DE CHILE BEAUCHEF;-33.45722162;-70.66381586
1860;417-MALL PLAZA LYON;-33.42280189;-70.60934021
1861;418-LIDER QUILIN;-33.48523393;-70.57936076
1862;426-SODIMAC RENCA;-33.39759061;-70.68553679
1863;439-LIDER RECOLETA;-33.39382816;-70.64247582
1864;442-LIDER LAS CONDES;-33.37071232;-70.51239755
1865;454-JUMBO PAJARITOS (EX MONTECARLO);-33.49796996;-70.7572239
1866;457-JUMBO LA FLORIDA;-33.51071617;-70.60851559
1867;460-MUNICIPALIDAD DE CONCHALI;-33.39823886;-70.66966449
1868;464-TOPs PUENTE ALTO;-33.60129009;-70.57771977
1869;471-SHOPPING LA DEHESA;-33.35295179;-70.52079272
1870;474-JUMBO LA REINA;-33.42865955;-70.54065413
1871;475-MONTSERRAT CONCHALI;-33.3953728;-70.67197428
1872;481-DGA CIVIL;-33.44093974;-70.61789931
1873;495-SANTA ISABEL RENCA;-33.40683057;-70.70053385
1874;496-SANTA ISABEL LOS PENSAMIENTOS;-33.550921;-70.61918317
1875;498-MALL DEL CENTRO;-70.65142355;6299269
1876;506-JUMBO LA DEHESA;-33.35835041;-70.51703954
1877;507-MALL PLAZA NORTE;-33.36810778;-70.67771798
1878;517-JUMBO PENALOLEN;-33.48683307;-70.55765874
1879;518-SANTA ISABEL CAMPANARIO;-33.52225851;-70.57914236
1880;523-MALL MELIPILLA;-71.21372508;6270604
1881;524-UNIMARC GRAN AVENIDA;-33.503801;-70.655094
1882;532-SANTA ISABEL MAPOCHO;-33.43388359;-70.64942856
1883;533-MONTSERRAT PAJARITOS;-33.46778922;-70.73003196
1884;534-MONTSERRAT PAINE;-33.81424288;-70.74300228
1885;551-SAN FRANCISCO TALAGANTE LOS AROMOS;-33.656297;-70.90982
1886;558-SANTA ISABEL EL ALBA (EX MONTECARLO);-33.53970893;-70.57198985
1887;559-SANTA ISABEL DOWNTOWN;-33.44445005;-70.65730602
1888;560-SANTA ISABEL CIUDAD SATELITE;-33.56085311;-70.7871728
1889;563-SANTA ISABEL HUERFANOS;-33.44011211;-70.65709652
1890;567-CENTRO COMERCIAL  FRANKLIN;-33.47332636;-70.64673178
1891;568-MALL PASEO ESTACION;-33.45241009;-70.68019048
1892;576-SANTA ISABEL LONQUEN;-33.62344114;-70.79886254
1893;581-TOTTUS PUENTE ALTO;-33.59380738;-70.57936142
1894;584-METRO U. CHILE-SERRANO;-33.44376503;-70.65029168
1895;586-BODEGAS SAN FRANCISCO;-33.45080099;-70.78413563
1896;589-ENAER;-70.68694071;6285509
1897;590-LIDER QUILICURA;-33.360227;-70.72986
1898;639-PORTAL EXPOSICION;-33.45123192;-70.6777745
1899;647-ESTACION METRO CERRO BLANCO;-33.42247685;-70.64493917
1900;652-ANIBAL PINTO;-33.37022849;-70.73825858
1901;653-MONTSERRAT ISLA DE MAIPO;-33.75414543;-70.90192362
1902;654-CTI;-33.52036542;-70.75544136
1903;661-ACADEMIA DE GUERRA;-33.4448629;-70.53632398
1904;666-INTERMODAL;-33.53662611;-70.66540141
1905;667-JUMBO PLAZA PUENTE ALTO;-33.61169811;-70.57697778
1906;668-METRO ESTACION TOBALABA;-33.4183253;-70.601805
1907;683-LIDER LAS REJAS;-33.45717127;-70.70633884
1908;684-LIDER OESTE;-33.51733622;-70.70984589
1909;686-SANTIAGO CENTRO;-33.44338828;-70.64976092
1910;691-PeNaflor;-33.60840383;-70.89961389
1911;698-SANTA ISABEL LA TRAVESIA;-33.451482;-70.763151
1912;707-SANTA ISABEL LO MARCOLETA;-33.36048697;-70.7453896
1913;709-SANTA ISABEL VALLE GRANDE;-70.73738841;6313640
1914;713-SANTA ISABEL ACUENTA GABRIELA;-33.58239747;-70.60582291
1915;725-MALL PLAZA SUR;-33.62948511;-70.71326824
1916;730-SAN ANTONIO II;-33.43958745;-70.64798047
1917;731-MUNICIPALIDAD VITACURA;-33.39540034;-70.60004201
1918;745-SANTA ISABEL BUSTAMANTE;-33.45483501;-70.62978636
1919;748-LIDER GENERAL VELASQUEZ;-33.452832;-70.691487
1920;749-LIDER CENTRAL;-33.503596;-70.757311
1921;750-A CUENTA PeNaflor;-33.60693146;-70.89768721
1922;752-LIDER SHOPPING PUENTE ALTO;-33.59954944;-70.57748517
1923;756-TOTTUS EL BOSQUE;-70.67508439;6286072
1924;757-MONTSERRAT COLINA;-33.20486651;-70.6756368
1925;758-ACUENTA SANTA ROSA;-33.55025448;-70.63264616
1926;759-TOTTUS NATANIEL;-33.45356944;-70.65277054
1927;762-MONTSERRAT BUIN;-33.73203317;-70.74844989
1928;763-LIDER ESPACIO URBANO;-33.44131353;-70.53537466
1929;768-SANTA ISABEL CERRO NAVIA;-33.42928442;-70.73603719
1930;773-JUMBO LOS DOMINICOS;-33.40099294;-70.5159471
1931;776-LIDER 10 DE JULIO;-33.45439691;-70.65726428
1932;790- MONSERRAT PEÃALOLEN;-33.47611253;-70.54340247
1933;791-JUMBO CONCHA Y TORO;-33.57166778;-70.58294397
1934;794-EASY OCHAGAVIA;-70.68285552;6288462
1935;802-MALL PASEO SANTA FILOMENA;-33.42884622;-70.64448419
1936;808-TOTTUS LA FLORIDA;-33.519805;-70.595659
1937;810-SANTA ISABEL LA CISTERNA;-33.51801682;-70.65880359
1938;813-COSTANERA CENTER;-33.41777537;-70.60817181
1939;815-SANTA ISABEL HUECHURABA;-33.3476445;-70.67033791
1940;817-CENTRO COMERCIAL ORIENTE;-71.19345709;6271089
1941;PCMA59;-33.40102831;-70.51623337
1942;PCMA60;-33.44272566;-70.644872
1943;PCMA61;-33.486436;-70.750752
1944;PCMA 64;-33.53329836;-70.66306932
1945;PCMA66;-33.50796909;-70.75917383
1946;PCMA74;-33.39605624;-70.67138398
1947;PCMA94;-33.6109281;-70.87877293
1948;PCMA112;-33.59954944;-70.57748517
1949;PCMA156;-33.49015569;-70.63130684
1950;PCMA 849;-33.41430637;-70.60383468
1951;PCMA 880;-33.51865254;-70.60002583
1952;PCMA883;-33.6008218;-70.57781592
1953;PCMA885;-33.52665739;-70.59636822
1954;PCMA889;-33.51733622;-70.70984589
1955;PCMA891;-33.43499796;-70.68022995
1956;PCMA924;-33.501358;-70.654389
1957;PCMA925;-33.58303;-70.628772
1958;PCMA927;-33.43061221;-70.72070705
1959;PCMA934;-33.53958299;-70.57176677
1960;PCMA935;-33.47778024;-70.54418706
1961;PCMA937;-33.43208276;-70.69111059
1962;PCMA941;-33.60808837;-70.57542239
1963;PCMA959;-33.47233065;-70.6482392
1964;PCMA975;-33.43788426;-70.64825045
1965;PCMA979;-33.4362748;-70.65084421
1966;PCMA980;-33.44970599;-70.67353148
1967;PCMA981;-33.42900787;-70.64704488
1968;PCMA982;-33.45062299;-70.67811003
1969;PCMA986;-33.45382053;-70.57107139
1970;PCMA987;-33.43872044;-70.65523364
1971;PCMA994;-33.45062299;-70.67811003
1972;PCMA996;-33.56087405;-70.78582651
1973;ServiPag;-33.364559;-70.729876
1974;ServiPag;-33.55377964;-70.60100683
1975;ServiPag;-33.37432667;-70.63698733
1976;ServiPag;-33.58145859;-70.59725275
1977;ServiPag;-33.55459775;-70.63156399
1978;ServiPag;-33.37419077;-70.6863347
1979;ServiPag;-33.49010105;-70.59975715
1980;ServiPag;-33.52006894;-70.69607578
1981;ServiPag;-33.40544;-70.703798
1982;ServiEstado;-33.42539318;-70.55225938
1983;ServiPag;-33.5071968;-70.6395121
1984;ServiPag;-33.44435705;-70.75222914
1985;ServiEstado;-33.43829264;-70.60827258
1986;ServiEstado;-33.591856;-70.70359
1987;ServiPag;-33.47708477;-70.74080559
1988;ServiPag;-33.4308276;-70.71897926
1989;Fullcarga;-33.46446688;-70.70536213
1990;Fullcarga;-33.40213054;-70.63049293
1991;Fullcarga;-33.40693226;-70.66052437
1992;Fullcarga;-33.43468597;-70.63540677
1993;Fullcarga;-33.49499467;-70.67679261
1994;Fullcarga;-33.45349244;-70.64663853
1995;ServiEstado;-33.51014368;-70.75978192
1996;Fullcarga;-33.45369234;-70.60497064
1997;Fullcarga;-33.45131842;-70.54041139
1998;ServiPag;-33.5104986;-70.77537733
1999;ServiPag;-70.6287687;6282420
2000;ServiPag;-33.40084676;-70.72159562
2001;ServiPag;-33.37244302;-70.67088721
2002;ServiPag;-33.46409349;-70.59838606
2003;ServiPag;-33.57334036;-70.66166123
2004;ServiPag;-33.55918781;-70.67004011
2005;ServiPag;-70.56120668;6291822
2006;ServiEstado;-33.61835375;-70.62583379
2007;ServiPag;-33.47150984;-70.75968337
2008;ServiPag;-33.35562011;-70.50717276
2009;Fullcarga;-33.41368386;-70.68021963
2010;Fullcarga;-33.39798575;-70.66902128
2011;Fullcarga;-70.51823825;6306333
2012;Fullcarga;-70.7536128;6293937
2013;Fullcarga;-33.45863627;-70.64546527
2014;Fullcarga;-33.40669382;-70.56641797
2015;Fullcarga;-33.43182356;-70.69208889
2016;Fullcarga;-33.53970893;-70.57198985
2017;Fullcarga;-70.56686824;6304628
2018;Fullcarga;-33.44213337;-70.76370119
2019;Fullcarga;-33.5609627;-70.78703201
2020;Fullcarga;-70.54340248;6294939
2021;Fullcarga;-33.43899046;-70.64945726
2022;Fullcarga;-33.45443311;-70.57627383
2023;Fullcarga;-33.41939539;-70.65618073
2024;Fullcarga;-33.35653;-70.729274
2025;Fullcarga;-33.4919904;-70.72248535
2026;Fullcarga;-70.57914236;6289715
2027;Fullcarga;-33.53386688;-70.63491407
2028;Fullcarga;-33.51443989;-70.69298685
2029;Fullcarga;-33.50553946;-70.69187847
2030;Fullcarga;-33.43588584;-70.67947505
2031;Fullcarga;-33.54930279;-70.67143075
2032;Fullcarga;-33.3961275;-70.62808045
2033;Fullcarga;-33.41978514;-70.60625436
2034;Fullcarga;6283705;343093
2035;Fullcarga;-33.43107403;-70.74061478
2036;Fullcarga;-33.54323954;-70.60362917
2037;Fullcarga;-33.59386867;-70.68569716
2038;Fullcarga;-33.57671597;-70.57027373
2039;Fullcarga;-33.39176167;-70.54273182
2040;Fullcarga;-33.422138;-70.750818
2041;Fullcarga;-33.43210303;-70.70420727
2042;Fullcarga;-33.48213055;-70.6946811
2043;Fullcarga;-33.36595835;-70.63328222
2044;Fullcarga;-33.46217341;-70.74673336
2045;Fullcarga;355451;0
2046;Fullcarga;6290027;340494
2047;Fullcarga;-33.36666804;-70.73797892
2048;UNIMARC ZAPADORES;-33.38626173;-70.6641478
2049;UNIMARC LAS REJAS;-33.46882;-70.70507104
2050;UNIMARC JUAN ANTONIO RIOS;-33.41956667;-70.67080617
2051;UNIMARC-INDEPENDENCIA;-33.39459154;-70.65786796
2052;UNIMARC LO OVALLE;-33.51683208;-70.65963512
2053;UNIMARC VICUÃA PARAD 19;-33.5394802;-70.59141
2054;UNIMARC ROJAS MAGALLANES;-33.535927;-70.55477987
2055;UNIMARC MIRADOR;-33.513935;-70.60716833
2056;UNIMARC VICENTE VALDES;-33.52643697;-70.59346118
2057;UNIMARC LA REINA;-33.43903393;-70.55662167
2058;UNIMARC BATUCO;-33.23051417;-70.80771749
2059;UNIMARC LAMPA;-33.28562289;-70.87704195
2060;UNIMARC LARAPINTA;-33.29424983;-70.86674258
2061;UNIMARC LAS CONDES;-33.36715867;-70.49928632
2062;UNIMARC LOS MILITARES;-33.39033521;-70.57279427
2063;UNIMARC ESC. MILITAR;-33.41519578;-70.58541373
2064;UNIMARC MANQUEHUE;-33.42677676;-70.56382415
2065;UNIMARC LOS TRAPENSES;-33.36129381;-70.5441601
2066;UNIMARC 2da TRANSVERSAL MAIPU;-33.48849172;-70.74240076
2067;UNIMARC EL ROSAL;-33.47909147;-70.75586504
2068;UNIMARC MAIPU 4 PONIENTE ;-33.53111333;-70.79298833
2069;UNIMARC SILVA CARVALLO;-33.53175788;-70.77488116
2070;UNIMARC RINCONADA;-33.50743652;-70.78322806
2071;UNIMARC RAMON FREIRE;-33.51362866;-70.75720412
2072;UNIMARC ABRAZO DE MAIPU;-33.54210556;-70.77119667
2073;UNIMARC IGNACIO CARRERA PINTO;-33.46566448;-70.5941923
2074;UNIMARC IRARRAZAVAL;-33.45468281;-70.5832589
2075;UNIMARC VILLA OLIMPICA;-33.46220267;-70.62012654
2076;UNIMARC GRECIA;-33.45704364;-70.62477437
2077;UNIMARC LOS LEONES;-33.44928174;-70.59799284
2078;UNIMARC BUIN MAIPO;-33.73107942;-70.77384619
2079;UNIMARC MANUEL MONTT;-33.45343509;-70.61292618
2080;UNIMARC CONSISTORIAL;-33.48475083;-70.54804094
2081;UNIMARC PEÃALOLEN;-33.48220667;-70.55876167
2082;UNIMARC LAS PARCELAS;-33.47236773;-70.53850591
2083;UNIMARC FCO. BILBAO;-33.43787741;-70.60635639
2084;UNIMARC CIUDAD DE LOS VALLES;-33.45137851;-70.84886812
2085;UNIMARC CONCHA y TORO;-33.58108722;-70.58109306
2086;UNIMARC TRONCAL SAN FRANCISCO;-33.58999731;-70.55648055
2087;UNIMARC CARRASCAL;-33.41897607;-70.69770881
2088;UNIMARC SAN BERNARDO;-33.63333128;-70.67636403
2089;UNIMARC BUIN;-33.58695204;-70.69300031
2090;UNIMARC ALTO JAHUEL;-33.57986092;-70.70179448
2091;UNIMARC SAN JOAQUIN;-33.50572389;-70.63829167
2092;UNIMARC GRAN AVENIDA 1;-33.50367933;-70.655225
2093;UNIMARC DIEGO PORTALES;-33.44124154;-70.63928769
2094;UNIMARC ESTADO;-33.44197592;-70.64903178
2095;UNIMARC ESPACIO M;-33.43862993;-70.65404277
2096;UNIMARC LAS TRANQUERAS;-33.38471122;-70.55406998
2097;UNIMARC RENCA BIGGER;-33.4003926;-70.74520527
2098;UNIMARC VITACURA;-33.39845425;-70.58644919
2099;UNIMARC SANTA MARIA;-33.37672679;-70.56850153
2100;UNIMARC PUDAHUEL;-33.44430626;-70.7513312
2101;UNIMARC HUECHURABA;-33.34913513;-70.67026189
2102;UNIMARC PORTUGAL;-33.4492999;-70.63514241
2103;UNIMARC EL ABRAZO;-33.53881097;-70.77332932
2104;UNIMARC LOS DOMINICOS;-33.40979394;-70.54444399
2105;UNIMARC ALFEREZ REAL;-33.43751413;-70.61596575
2106;OK MARKET VICUÃA MACKENNA;-33.49549696;-70.61643189
2107;OK MARKET ELIODORO YAÃEZ;-33.43295614;-70.62545893
2108;OK MARKET EL RODEO;-33.35236727;-70.51831066
2109;OK MARKET PLAZA NORTE;-33.36843862;-70.67782127
2110;OK MARKET CHICUREO;-33.285618;-70.676051
2111;LIDER EXPRESS LYON;-33.42195385;-70.60816616
2112;LIDER HIPER INDEPENDENCIA;-33.39004531;-70.67557636
2113;LIDER EXPRESS SANTO DOMINGO;-33.43608804;-70.65165481
2114;LIDER HIPER PUENTE ALTO;-33.59946712;-70.5775014
2115;LIDER EXPRESS HUERFANOS;-33.43926193;-70.64857297
2116;LIDER HIPER PUENTE NUEVO;-33.37071591;-70.51241327
2117;LIDER HIPER DEPARTAMENTAL;-33.51396927;-70.59084231
2118;LIDER EXPRESS SAN PABLO;-33.43511172;-70.67030959
2119;LIDER EXPRESS VITACURA;-33.39989905;-70.5905763
2120;LIDER EXPRESS MAIPU;-33.5102456;-70.77678711
2121;LIDER EXPRESS NONATO COO;-33.57819761;-70.56950876
2122;LIDER EXPRESS PLAZA ITALIA;-33.44081747;-70.6302176
2123;LIDER HIPER IRARRAZAVAL;-33.45476517;-70.60062107
2124;LIDER EXPRESS LAS REJAS;-33.45711517;-70.70642142
2125;LIDER EXPRESS PUENTE ALTO;-33.59465742;-70.55920165
2126;LIDER HIPER LOS MORROS;-33.54591631;-70.66781838
2127;LIDER HIPER MATUCANA;-33.43157147;-70.68043902
2128;LIDER HIPER HUECHURABA;-33.36843862;-70.67782127
2129;LIDER HIPER AVDA CENTRAL;-33.503596;-70.757311
2130;LIDER HIPER MAIPU;-33.48156735;-70.74546173
2131;LIDER HIPER QUILIN;-33.48523393;-70.57936075
2132;LIDER HIPER VESPUCIO MAIPU;-33.47150984;-70.75968337
2133;LIDER HIPER CORDILLERA;-33.5664713;-70.55810641
2134;LIDER VICUÃA MACKENNA;-33.52079733;-70.60117578
2135;LIDER HIPER MACUL;-33.47415316;-70.59890146
2136;LIDER HIPER VITACURA;-33.38648768;-70.56810589
2137;LIDER HIPER PLAZA VESPUCIO;-33.51453451;-70.60018983
2138;LIDER EXPRESS COLON ;-33.41778739;-70.55354602
