code;name;latitude;longitude;services
30954;Mercado;-36.71183344;-73.11545266;Linea 1
30955;El Arenal;-36.72516015;-73.11689611;Linea 1
30956;Hospital Las Higueras;-36.73934248;-73.10297629;Linea 1
30957;Los Cóndores;-36.75695328;-73.09162097;Linea 1
30958;Univ. Técnica Federico Santa María;-36.78362584;-73.08558093;Linea 1
30961;Chiguayante;-36.91519607;-73.02908005;Linea 1
30962;Pedro Medina;-36.9254817;-73.0215968;Linea 1
30964;La Leonera;-36.95144259;-73.01316541;Linea 1
30965;Hualqui;-36.98049532;-72.94096075;Linea 1
31013;Alborada;-36.84647657;-73.13094824;Linea 2
31017;Costa Mar;-36.85492754;-73.13301928;Linea 2
31021;Lomas Coloradas;-36.88307467;-73.13982906;Linea 2
32488;Punta Corralillo - Caleta Plata;-36.72032694;-73.1471996;02k-02p-70g-70h
32489;Punta Corralillo - Caleta Chipana;-36.71848173;-73.14678489;02p-70j-70k
32490;Punta Corralillo - Punta Lavapie;-36.7169793;-73.14523117;02p-70j-70k
32491;Bahia Dichato - Playa El Huevillo;-36.71675033;-73.14037766;02p-70j-70k
32492;Bahia Dichato - Caleta El Sold;-36.71491367;-73.13935836;02p-70j-70k
32493;Bahia Dichato - Playa Chivilongo;-36.7131874;-73.13848198;02p-70j-70k
32494;San Vicente - Playa El Parron / Sur;-36.71271592;-73.13542585;02d-02p-10l-10n-70f-70j-70k
32495;San Vicente 882;-36.71246165;-73.13243167;02d-02p-10l-10n-70f-70j-70k
32496;San Vicente - Camino San Francisco / Oriente;-36.71168214;-73.13100637;02d-02p-10l-70f-70j
32497;Camino Nueva Los Lobos - Calle Uno / Oriente;-36.70939548;-73.12946091;02d-02p-10l-70f-70j-70k
32498;Camino Nuevo Los Lobos - Camino A Tumbes;-36.71041734;-73.12566344;02d-02p-10l-70f-70j-70k
32499;Camino A Tumbes - Los Araucanos;-36.71410436;-73.12626797;02d-02p-10k-10p-70f-70j-70k
32500;Los Araucanos - Violeta Parra / Norte;-36.71463559;-73.12966971;02d-02p-10n-10p
32501;Los Araucanos - Quentrahue / Poniente;-36.71562371;-73.13175054;02d-02p-10n-10p
32502;Los Araucanos - Runcamanque / Oriente;-36.71820721;-73.13268441;02a-02k-10a-10b-10c-31d-32e-32h
32503;Los Araucanos - Rucamanque / Poniente;-36.71804608;-73.13275549;02d-02p-10n-10p
32504;Los Araucanos - Los Diaguitas;-36.72071253;-73.13265734;02d-02p-10n-10o-10p-31f-32g-32y
32505;Los Araucanos 1351 / Norte;-36.72189291;-73.133782;02d-02p-10n-10o-10p-31f-32g-32y
32506;Los Araucanos - Porvenir;-36.72287798;-73.13567281;02d-02p-10n-10o-10p-31f-32g-32y
32507;Los Araucanos - Los Yaganes / Poniente;-36.7244659;-73.13692207;02d-02p-10n-10o-10p-31f-32g-32y
32508;Almirante Latorre - La Marina;-36.72363351;-73.13097425;02d-02p-10n-10o-10p-31f-32g-32y-62h-62o-80z
32509;Pedro Montt - La Marina / Sur;-36.72454537;-73.12992202;02d-02p-10n-10o-10p-14t-16k-16v-31f-32g-32y-57y-62h-62o-80h-80q-80z
32510;Pedro Montt - Lautaro;-36.72263311;-73.12696768;02d-02p-10n-10o-10p-14t-16k-16v-31f-32g-32y-57y-62h-62o-80h-80q-80z
32511;Brasil - Pedro Montt;-36.72218265;-73.12583656;02d-02p-10n-10o-10p-14t-16k-16v-31f-32g-32y-57y-62h-62o-80h-80q-80z
32512;Municipalidad De Talcahuano;-36.72353563;-73.12303806;02d-02p-10n-10o-10p-14t-16k-16v-31f-32g-32y-57y-62h-62o-80h-80q-80z
32513;Brasil - Talcahuano;-36.7248532;-73.12028511;02d-02p-10n-10o-10p-14t-16k-16v-31f-32g-32y-57y-62h-62o-80h-80q-80z
32514;Valdivia - Miranda;-36.72393659;-73.11760901;02d-02p-10n-10p-14t-16k-16v-31f-32g-80q-80z
32515;Valdivia - Riquelme / Oriente;-36.72151363;-73.11828396;02d-02p-10n-10p-14t-16k-16v-31f-32g-80h-80q-80z
32516;Valdivia - Freire Bajo;-36.71745208;-73.11850622;02d-02p-10n-10p-14t-16k-16v-31f-32g-80h-80q-80z
32517;Valdivia - Castellon;-36.71521121;-73.11758686;02d-02p-10n-10p-14t-16k-16v-31f-32g-70f-70j-70k-80h-80q-80z
32518;Valdivia - Sgto Aldea;-36.71421759;-73.11631244;02d-02p-10k-10n-10p-16k-16v-31f-32g-70f-70j-70k-80h-80q-80z
32519;Valdivia - Anibal Pinto;-36.7131406;-73.11546551;02d-02p-10k-10n-10p-14t-16k-16v-31f-32g-70f-70j-70k-80h-80q-80z
32520;Colon 135;-36.71241782;-73.11478906;02d-02p-10k-10l-10m-10n-10p-11q-11r-12a-12b-13s-14t-16k-16v-20l-20v-20w-31f-32g-52d-56v-70k-80h-80q-80z
32521;Colon 367;-36.71357454;-73.11327181;02d-02p-10k-10l-10m-10n-10p-11q-11r-12a-12b-13s-14t-16k-16v-20l-20v-20w-31f-32g-52d-56v-70k-80h-80q-80z
32522;Colon - Covadonga;-36.71464783;-73.11161101;02d-02p-10k-10l-10m-10n-10p-11q-11r-12a-12b-13s-14t-16k-16v-20l-20v-20w-31f-32g-52d-56v-70k-80h-80q-80z
32523;Colon - Angamos;-36.71749571;-73.10988428;02d-02p-10k-10l-10m-10n-10p-11q-11r-12a-12b-13s-14t-16k-16v-20l-20v-20w-31f-52d-56v-70k-80h-80q-80z
32524;Colon - Veintiuno De Mayo;-36.72066531;-73.11025445;02d-02p-10k-10l-10m-10n-10p-11q-11r-12a-12b-13s-14t-16k-16v-20l-20v-20w-31f-52d-56v-70f-70j-70k-80h-80q-80z-81s
32525;Colon - Orella;-36.72259925;-73.11000551;02d-02p-10k-10l-10m-10n-10p-11q-11r-12a-12b-13s-14t-16k-16v-20l-20v-20w-31f-52d-56v-70f-70j-70k-80h-80q-80z-81s
32526;Colon - Manuel Rodriguez;-36.72445671;-73.11004956;02d-02p-10k-10l-10m-10n-10o-10p-11q-12q-12r-13s-14t-16k-16v-20l-20v-20w-31f-52d-56v-70f-70j-70k-80h-80q-80z-81c
32527;Colon - O´Higgins;-36.7262386;-73.11044257;02d-02p-10k-10l-10m-10n-10o-10p-11q-13s-14t-16k-16v-20l-20v-20w-31f-52d-56v-70f-70j-70k-80h-80q-80z
32528;Colon - Chabuco;-36.72824361;-73.11069576;02d-02p-10k-10l-10m-10n-10o-10p-11q-13s-14t-16k-16v-20l-20v-20w-31f-32g-52d-56v-70f-70j-70k-80h-80q-80z
32529;Colon - Hualpen;-36.73233618;-73.10845662;02d-02p-10k-10l-10m-10n-10o-10p-11q-13s-14t-16k-16v-20l-20v-20w-31f-32g-52d-56v-70f-70j-70k-80h-80q-80z
32530;Colon - Lircay Sur;-36.73517902;-73.10528487;02d-02p-10k-10l-10m-10n-10o-10p-11q-13s-14t-16k-16v-20l-20v-20w-31f-32g-52d-56v-70f-70j-70k-80h-80q-80z
32531;Colon - Bernardita;-36.73715834;-73.10279488;02d-02p-10k-10l-10m-10n-10o-10p-11q-13s-14t-16k-16v-20l-20v-20w-31f-32g-52d-56v-70f-70j-70k-80h-80q-80z
32532;Colon - Zenteno;-36.73937079;-73.10023181;02d-02p-10k-10l-10m-10n-10o-10p-11q-13s-14t-16k-16v-20l-20v-20w-31f-32g-52d-56v-70f-70j-70k-80h-80q-80z
32533;Colon - Ercilla;-36.74191124;-73.09845566;02d-02p-10k-10l-10m-10n-10o-10p-13s-14t-20l-20v-20w-31f-32g-52d-56v-70f-70j-70k-80h-80q-80z
32534;Colon - Desiderio Garcia;-36.74429717;-73.0971648;02d-02p-10k-10l-10m-10n-10o-10p-13s-14t-20l-20v-20w-31f-32g-32y-52d-56v-62h-62o-70f-70j-70k-80h-80q-80z
32535;Colon 3646;-36.74778888;-73.09456969;02d-02p-10k-10l-10m-10n-10o-10p-13s-14t-20l-20v-20w-31f-32g-32y-52d-56v-62h-62o-70f-70j-70k-80h-80q-80z
32536;Colon - Simon Bolivar;-36.75071518;-73.09325402;02d-02p-10k-10l-10m-10n-10o-10p-13s-14t-20l-20v-20w-31f-32g-32y-52d-56v-62h-62o-70f-70j-70k-80h-80q-80z
32537;Colon - Juan Guillermo Sosa / Poniente;-36.7538373;-73.09234784;02d-02p-10k-10l-10m-10n-10o-10p-13s-14t-20l-20v-20w-31f-32g-32y-52d-56v-62h-62o-70f-70j-70k-80h-80q-80z
32538;Colon - Los Condores;-36.75671543;-73.09140283;02d-02p-10k-10l-10m-10n-10o-10p-13s-14t-20l-20v-20w-31f-32g-32y-52d-56v-62h-62o-70f-70j-70k-80h-80q-80z
32539;Colon - Petunias / Poniente;-36.75897514;-73.09011461;02d-02p-10k-10l-10m-10n-10o-10p-11r-13s-14t-20l-20v-20w-30b-30c-31f-32g-32y-50s-52d-56v-57y-62h-62o-70f-70j-70k-80h-80q-80z
32540;Colon - La Camelia / Poniente;-36.76087767;-73.08903682;02d-02p-10k-10l-10m-10n-10o-10p-11r-13s-14t-16k-16v-20l-20v-20w-30b-30c-31f-32g-32y-50s-52d-56v-57y-62h-62o-70f-70j-70k-80h-80q-80z
32541;Colon - Diecisiete Nte / Poniente;-36.76945589;-73.08607904;02d-02p-30b-31f-32g-32y-52d-56v-62h-62o-70f-70j
32542;Colon - Los Pinos / Poniente;-36.77194077;-73.08590521;02d-02p-30b-31f-32g-32y-52d-56v-62h-62o-70f-70j
32543;Colon - Talcahuano / Poniente;-36.77400851;-73.08613389;02d-02p-30b-31f-32g-32y-52d-56v-62h-62o-70f-70j
32544;Colon - Seis Nte;-36.77576919;-73.0863254;02d-02p-30b-31f-32g-32y-52d-56v-62h-62o-70f-70j
32545;Colon - Concepcion / Poniente;-36.77843355;-73.08666251;02p-30b-31f-32g-32y-52d-56v-62h-62o-70f-70j
32546;Colon - Banco Estado;-36.78032973;-73.08687308;02p-30b-31f-32g-32y-52d-56v-62h-62o-70f-70j
32547;Colon - Aga / Poniente;-36.78137684;-73.0869703;02p-30b-31f-32g-32y-52d-56v-62h-62o-70f-70j
32548;Cristobal Colon - Club Hipico;-36.78441492;-73.08700682;02p-12a-30b-31f-32g-32y-40n-41v-42u-52d-56v-62h-62o-70f-70j
32549;Crsitobal Colon - Campanario;-36.78759661;-73.08700614;02p-12a-30b-31f-32g-32y-40n-41v-42u-52d-56v-62h-62o-70f-70j
32550;Cristobal Colon - Curanilahue / Poniente;-36.78977732;-73.08697432;02p-12a-30b-31f-32g-32y-41v-42u-52d-56v-62h-62o-70f-70j
32551;Curanihue - Chaiten;-36.79000617;-73.08775308;02p-41v-60x-60y-81c
32552;Curanilahue - Pto Octay;-36.79028;-73.09133235;02p-41v-60x-60y-81c
32553;Curanilahue - Corral / Norte;-36.79094052;-73.09317626;02p-41v-60x-60y-81c
32554;La Reconquista - Ancahual;-36.79241317;-73.09451818;02p-41v-44e
32555;La Reconquista - Toscania / Norte;-36.7934811;-73.09591501;02p-30m-30n-40p-41r-43t-71i
32556;La Reconquista - Pista;-36.79469925;-73.0976892;02p-30m-30n-40p-43t-71i
32557;Terminal Bio Bus;-36.82993104;-73.06080318;B02
32569;Quinchamali / Poniente;-36.80040138;-73.0991733;02p-41v
32571;Av Rulcahue - Calle Dos;-36.80163183;-73.09833589;02p
32575;Hotel Holiday;-36.79296754;-73.06411143;B02
32576;Calle Uno - Av Rulcahue;-36.80242837;-73.09741953;02p
32577;Calle Uno - Pje Doce;-36.8036428;-73.09839823;02p-65e
32578;Oceano Pacifico - Guarilihue;-36.80434874;-73.10083545;02p-65e
32579;Oceano Pacifico - Mar Mediterraneo;-36.80355157;-73.10227861;02p-41v
32580;Oceano Pacifico - Mar Rojo;-36.80199473;-73.10469318;02p-41v
32581;Gran Bretaña - Av La Reconquista / Oriente;-36.80077771;-73.10581037;02p-41v
32582;Gran Bretaña - Atenas / Oriente;-36.79988083;-73.10609024;02p-41v
32583;Gran Bretaña - Frankfort;-36.79803284;-73.1066401;02p-41v-65r
32584;Av. Dos - Calle Uno;-36.79773219;-73.10927009;02p-41v-60l-60y
32585;Av. Dos - Pje Doce / Norte;-36.79752069;-73.11184182;02p-41v-60l-60y
32586;Calle 9 / Oriente;-36.79596435;-73.11430083;02p-60l-60y
32587;Calle Seis - Calle 9;-36.79405129;-73.11472878;02p
32588;Calle Seis;-36.79323929;-73.11410988;02p-60l
32589;Postdam - Calle Tres / Norte;-36.79219308;-73.11406829;02d-02p-41v-60k
32590;Monaco - Sarajevo / Oriente;-36.79122547;-73.11386789;02d-02p-41v-60k
32591;Monaco - Polesia / Oriente;-36.78989066;-73.11267911;02d-02p-41c-41q-60k
32592;Gibraltar - Seis Nte;-36.78853058;-73.11160306;02d-02p-42f-60k
32593;Gibraltar - Cuatro Nte;-36.78741817;-73.11193293;02d-02p-42f-60k
32594;Gibraltar - Sidney;-36.78581234;-73.11240937;02d-02p-42f
32595;Gibraltar - Budapest;-36.78458315;-73.1127645;02d-02p-42f-42h-60x
32596;Gibraltar 2795;-36.78306688;-73.11320509;02d-02p-42f-42h-60x
32597;Gibraltar - Escutari;-36.78056485;-73.11400598;02d-02p-42f-42h
32598;Acceso A Gran Bretaña;-36.77563831;-73.11310712;02d-02p-12q-12r-30m-30n-41v-42f-42h-81c
32599;4 Esquinas;-36.7685589;-73.11399767;02a-02d-02k-02p-41q-41v-42h-42u
32600;Gran Bretaña - John Dalton / Poniente;-36.76750012;-73.11600658;02a-02k-12a-12b-30d-30e-41q-42f-42u-42w-81s
32601;Gran Bretaña - Camino A Lenga;-36.77549296;-73.11360367;02a-02k-12a-12b-30d-30e-41q-42u-42w-81s
32602;Gran Bretaña - Dinamarca / Poniente;-36.77924184;-73.1124249;02a-02k-12a-12b-30d-30e-40b-40g-41q-42u-42w-71z-81s
32603;Gibraltar - Dibra;-36.78011809;-73.11425224;02a-02k-42u-42w
32604;Gibraltar - Yugoslavia;-36.78144569;-73.11384993;02a-02k-42u-42w
32605;Gibraltar - Eger;-36.78332075;-73.11329971;02a-02k-42u-42w-60l
32606;Gibraltar - Finlandia;-36.78531206;-73.11269059;02a-02k-42u-42w-60l
32607;Gibraltar - Bratislava;-36.78689121;-73.11223722;02a-02k-42w
32608;Gibraltar - Monaco;-36.7888288;-73.11165177;02a-02k-42w-60y
32609;Polonia - Monaco;-36.78920301;-73.11194516;02a-02k-41r-60y
32610;Monaco - Polesia / Poniente;-36.7897746;-73.1127492;02a-02k-41r-60y
32611;Monaco - Sarajevo / Poniente;-36.79111842;-73.11393775;02a-02k-41r-60y
32612;Postdam - Calle Tres / Sur;-36.7923482;-73.11418777;02a-02k-60y
32613;Postdam - Pje Diecisiete / Sur;-36.79266984;-73.11344023;02k-60y
32614;Postdam - Pje Catorce / Sur;-36.79315027;-73.11247585;02k-60y
32615;Postdam - Pje Nueve / Sur;-36.79382161;-73.11104729;02k-60y
32616;Postdam - Calle Dos;-36.79427196;-73.1098931;02k-60y
32617;Gran Bretaña - Bremen / Oriente;-36.79168965;-73.10847727;02k-12r-40p-71i
32618;Gran Bretaña - Cinco Nte;-36.78708845;-73.10990152;02k-12r-41c-41q-42w
32619;Gran Bretaña - Finalandia / Oriente;-36.78537487;-73.11040306;02k-12r-41c-41q-42w
32620;Finladia - Dover / Sur;-36.7847314;-73.10848027;02k-40g-41q-42u-60l
32621;Suiza - Belgica / Oriente;-36.78280294;-73.10850527;02k-40g-41q-42u-60l
32622;Suiza - Yugoslavia;-36.78109873;-73.10902899;02k-40b-40g-41c-41q-42u-42w-60l
32623;Yugoslavia - Lisboa;-36.78053301;-73.10746297;02k-12a-30d-30e-40b-40g-41c-41q-42u-42w-60l-71z-81s
32624;Yugoslavia - Oslo;-36.78033641;-73.10643694;02k-12a-30d-30e-40b-40g-41c-41q-42u-42w-60l-71z-81s
32625;Alemania - Belgica / Poniente;-36.78152855;-73.10432343;02k-12a-30d-30e-40b-40g-41c-41q-42u-42w-43j-60l-71z-81s
32626;Sapu Hualpen;-36.78266956;-73.10296187;02k-12a-40b-41c-42u-42w-81s
32627;Alemania - Finlandia / Poniente;-36.78447149;-73.10178567;02k-12a-40b-41c-42u-42w-81s
32628;Grecia - Atenas / Sur;-36.78678261;-73.09919609;02k-44e-60k-60l-81s
32629;Grecia - Suecia;-36.78676264;-73.09682091;02k-44e-60k-60l-81s
32630;Suecia - Escocia / Oriente;-36.7823059;-73.09656138;02k-12a-42u-42w-44u
32631;Escuela Arturo Prat Chacon / Norte;-36.77624325;-73.08946206;02d
32632;Escuela Arturo Prat Chacon / Sur;-36.77632686;-73.08961685;02k
32633;Autopista Conce. Talcahuano - Los Aleites;-36.76542529;-73.08597759;02a-02k-10a-10b-10c-10d-10j-10t-11f-13g-14h-16h-16i-20a-20j-20z-30q-30r-31d-32e-32h-50u-52a-56o-57p-62m-62n-70g-70h-70i-80j-80k-80l
32634;Suecia - Milan;-36.7810123;-73.09626843;02k-12a-42u-42w-43t-44u
32635;Chiloe - Dalcahue;-36.7799093;-73.09662067;02k-44u
32636;Chiloé - Tarapacá;-36.77848562;-73.09608444;02k-44u
32637;Tarapacá - Porvenir;-36.77860175;-73.09489385;02k-44u
32638;Colon - Talcahuano / Oriente;-36.7743579;-73.08600196;02a-02k-30r-31d-32e-32h-52a-56o-57p-62m-62n-70g-70h-70i
32639;Colon - Los Pinos / Oriente;-36.77228098;-73.08576231;02a-02k-30r-31d-32e-32h-52a-56o-57p-62m-62n-70g-70h-70i
32640;Colon - Diescisiete Nte / Oriente;-36.76964131;-73.08583916;02a-02k-30r-31d-32e-32h-52a-56o-57p-62m-62n-70g-70h-70i
32641;Colon - Los Geranios;-36.76142908;-73.08857504;02a-02k-10a-10b-10c-10d-10j-10t-11f-13g-14h-16h-16i-20a-20j-20z-30q-30r-31d-32e-32h-52a-56o-57p-62m-62n-70g-70h-70i-80j-80l
32642;Colon - Petunias;-36.75840157;-73.09031927;02a-02k-10a-10b-10c-10d-10j-10t-11f-13g-14h-20a-20j-20z-30q-30r-31d-32e-32h-52a-56o-57p-62m-62n-70g-70h-70i-80j-80l
32643;Colon - Las Rosas;-36.7560523;-73.09164329;02a-02k-10a-10b-10c-10d-10j-10t-13g-14h-20a-20j-20z-31d-32e-32h-52a-56o-62m-62n-70g-70h-70i-80j-80k-80l
32644;Colon - Juan Guillermo Sosa;-36.75307922;-73.09228821;02a-02k-10a-10b-10c-10d-10j-10t-13g-14h-20a-20j-20z-31d-32e-32h-52a-56o-62m-62n-70g-70h-70i-80j-80k-80l
32645;Colon - Villa El Sauce;-36.74997906;-73.09344025;02a-02k-10a-10b-10c-10d-10j-10t-13g-14h-20a-20j-20z-31d-32e-32h-52a-56o-62m-62n-70g-70h-70i-80j-80k-80l
32646;Colon - Manuel Zañartu;-36.74711566;-73.09474314;02a-02k-10a-10b-10c-10d-10j-10t-13g-14h-20a-20j-20z-31d-32e-32h-52a-56o-62m-62n-70g-70h-70i-80j-80k-80l
32647;Colon - Iquique;-36.74329398;-73.09755916;02a-02k-10a-10b-10c-10d-10j-10t-13g-14h-16h-20a-20j-20z-31d-32e-52a-56o-70g-70h-70i-80j-80k-80l
32648;Colon - Manuel Montt;-36.74088101;-73.09885066;02a-02k-10a-10b-10c-10d-10j-10t-11e-13g-14h-16h-16i-20a-20j-20z-31d-32e-52a-56o-70g-70h-70i-80j-80k-80l
32649;Colon - Buzo Sobenez;-36.73864199;-73.10087692;02a-02k-10a-10b-10c-10d-10j-10t-11e-13g-14h-16h-16i-20a-20j-20z-31d-32e-52a-56o-70g-70h-70i-80j-80k-80l
32650;Colon - Itata;-36.73646628;-73.10348383;02a-02k-10a-10b-10c-10d-10j-10t-11e-13g-14h-16h-16i-20a-20j-20z-31d-32e-52a-56o-70g-70h-70i-80j-80k-80l
32651;Colon - Lircay;-36.73461977;-73.10582495;02a-02k-10a-10b-10c-10d-10j-10t-11e-13g-14h-16h-16i-20a-20j-20z-31d-32e-52a-56o-70g-70h-70i-80j-80k-80l
32652;Perez Gacitua - Hualpen;-36.73148718;-73.10891418;02a-02k-10a-10b-10c-10d-10j-10t-11e-13g-14h-16h-16i-20a-20j-20z-31d-32e-52a-56o-70g-70h-70i-80j-80k-80l
32653;Perez Gacitua;-36.72769044;-73.10878336;02a-02k-10a-10b-10c-10d-10j-10t-11e-13g-14h-16h-16i-20a-20j-20z-31d-32e-52a-56o-70g-70h-70i-80j-80k-80l
32654;Perez Gacitua - Manuel Rodriguez;-36.72460646;-73.10642927;02a-02k-10a-10b-10c-10d-10j-10t-11e-11f-12q-12r-13g-14h-16h-16i-20a-20j-20z-31d-32e-52a-56o-70g-70h-70i-80j-80k-80l-81c
32655;Estadio El Morro De Talcahuano;-36.72294226;-73.10776896;02a-02k-10a-10b-10c-10d-10j-10t-11e-11f-12q-12r-13g-14h-16h-16i-20a-20j-20z-31d-32e-52a-56o-70g-70h-70i-80j-80k-80l-81c
32656;Banco Encalada - Angamos;-36.71820329;-73.10846743;02a-02k-10a-10b-10c-10d-10j-10t-11e-11f-12q-12r-13g-14h-16h-16i-20a-20j-20z-31d-32e-52a-56o-70g-70h-70i-80j-80k-80l-81c
32657;Banco Encalada - Baquedano;-36.7170352;-73.10869761;02a-02k-10a-10b-10c-10d-10j-10t-11e-11f-12q-12r-13g-14h-16h-16i-20a-20j-20z-31d-32e-52a-56o-70g-70h-70i-80j-80k-80l-81c
32658;Banco Encalada - Esmeralda / Norte;-36.71473849;-73.10994065;02a-02k-10a-10b-10c-10d-10j-10t-11e-11f-12q-12r-13g-14h-16h-16i-20a-20j-20z-31d-32e-52a-56o-70g-70h-70i-80j-80k-80l-81c
32659;Banco Encalada / Norte;-36.71357689;-73.11171559;02a-02k-10a-10b-10c-10d-10j-10t-11e-11f-12q-12r-13g-14h-16h-16i-20a-20j-20z-31d-32e-52a-56o-70g-70h-70i-80j-80k-80l-81c
32660;Banco Encalada - Maipu / Norte;-36.71222907;-73.11368535;02a-02k-10a-10b-10c-10d-10j-10t-11e-11f-12q-12r-13g-14h-16h-16i-20a-20j-20z-31d-32e-52a-56o-70g-70h-70i-80j-80k-80l-81c
32661;Valdivia - Colon;-36.71181064;-73.11515095;02a-02k-10a-10b-10c-10l-10m-11e-11q-11r-12a-12b-13s-14h-16h-16i-20l-20v-20w-31d-32e-52d-56v-70g-70h-70i-80j-80k-80l
32662;Valdivia - Condell;-36.71296199;-73.11557063;02a-02k-10a-10b-10c-14h-16h-16i-31d-32e-70g-70h-70i-80j-80k-80l
32663;Valdivia 451;-36.71424728;-73.11647965;02a-02k-10a-10b-10c-14h-14t-16h-16i-31d-32e-70g-70h-70i-80j-80k-80l
32664;Valdivia - Tumbes / Poniente;-36.71558983;-73.1181598;02a-02k-10a-10b-10c-14h-16h-16i-31d-32e-80j-80k-80l
32665;Valdivia - La Unión;-36.71756232;-73.11863788;02a-02k-10a-10b-10c-14h-16h-16i-31d-32e-80j-80k-80l
32666;Valdivia - Riquelme / Poniente;-36.72149792;-73.1184299;02a-02k-10a-10b-10c-14h-16h-16i-31d-32e-80j-80k
32667;Valdivia;-36.72421555;-73.1175798;02a-02k-10a-10b-10c-14h-16h-16i-31d-32e-80h-80j-80k
32668;España - Malaquias Concha;-36.72475776;-73.11823838;02a-02k-10a-10b-10c-14h-16h-16i-31d-32e-32h-57p-62m-62n-80j-80k-80l
32669;España - Talcahuano;-36.72414617;-73.11946258;02a-02k-10a-10b-10c-14h-16h-16i-31d-32e-32h-57p-62m-62n-80j-80k-80l
32670;España - Schuyler;-36.72305546;-73.12173973;02a-02k-10a-10b-10c-14h-16h-16i-31d-32e-32h-57p-62m-62n-80j-80k-80l
32671;España - Juan De La Cruz Tapia;-36.72238341;-73.12313329;02a-02k-10a-10b-10c-14h-16h-16i-31d-32e-32h-57p-62m-62n-80j-80k-80l
32672;Pedro Montt - España;-36.72157405;-73.12553785;02a-02k-10a-10b-10c-14h-16h-16i-31d-32e-32h-57p-62m-62n-80j-80k-80l
32673;Pedro Montt - Cervantes;-36.72295108;-73.12769894;02a-02k-10a-10b-10c-14h-16h-16i-31d-32e-32h-57p-62m-62n-80j-80k-80l
32674;Pedro Montt - La Marina / Norte;-36.72443918;-73.13004777;02a-02k-10a-10b-10c-14h-16h-16i-31d-32e-32h-57p-62m-62n-80j-80k-80l
32675;Los Araucanos - Los Yaganes / Oriente;-36.72442793;-73.13679982;02a-02k-10a-10b-10c-31d-32e-32h
32676;Los Araucanos - Rucamanque;-36.72300307;-73.1356026;02a-02k-10a-10b-10c-31d-32e-32h
32677;Los Araucanos 1351 / Sur;-36.72200156;-73.13381296;02a-02k-10a-10b-10c-31d-32e-32h
32678;Los Araucanos - Los Onas;-36.72084645;-73.13257572;02a-02k-10a-10b-10c-31d-32e-32h
32679;Los Araucanos - Quentrahue / Oriente;-36.71554601;-73.13139416;02a-02k-10a-10c
32680;Los Araucanos - Violeta Parra / Sur;-36.71470609;-73.12956724;02a-02k-10a-10c
32681;Camino A Tumbes - Rosa Linares;-36.71079524;-73.12562068;02a-02k-10c-70g-70h-70i
32682;Camino Nueva Los Lobos - Calle Uno / Poniente;-36.7095352;-73.12974859;02a-02k-10j-70g-70h-70i
32683;San Vicente - Camino San Francisco / Poniente;-36.71171269;-73.13122953;02a-02k-10j-70g-70h-70i
32684;San Vicente - Caleta Coliumo;-36.71289683;-73.13374218;02a-02k-10a-10j-70g-70h-70i
32685;San Vicente - Playa El Parrón / Norte;-36.71263342;-73.13533828;02a-02k-10a-10j-70g-70h-70i
32686;San Vicente - Camino Al Litral;-36.71197942;-73.1378954;02a-02k-10a-10j-70g-70h-70i
32687;Bahia Dichato - Caleta El Chalet;-36.71285315;-73.13843407;02k-70g-70h
32688;Bahia Dichato - Caleta Chome;-36.71456105;-73.1392885;02k-70g-70h
32689;Bahia Dichato - Caleta Cantera;-36.71624296;-73.14021076;02k-70g-70h
32690;Punta Corralillo - Punta Liles;-36.71682956;-73.1448765;02k-70g-70h
32691;Punta Corralillo - Caleta Horcon;-36.71806709;-73.14678366;02k-70g-70h
32692;Tarapacá - Chiloé;-36.77823949;-73.09591125;02d
32693;Interior Urba Playa Pingueral;-36.70898235;-73.14799824;02a-02d-10j
32694;Playa Pingueral / Sur;-36.71237253;-73.14228564;02d-10l-10n-70f
32695;Escuela C / Oriente;-36.71128014;-73.14044237;02d-10l-10n-70f
32696;Camino Al Litral - San Vicente;-36.71189458;-73.1382333;02d-10l-10n-70f
32697;Aviacion;-36.77727691;-73.09265212;02d
32698;Aviacion - Tres Sur;-36.7791287;-73.09402924;02d
32699;Las Golondrinas - Napoles;-36.78022383;-73.09768857;02d
32700;Gran Bretaña - Postdam;-36.7934778;-73.1081307;02d
32701;Dinamarca - Roma;-36.77969245;-73.11355675;02d-42f-42h
32702;Suecia - Las Golondrinas;-36.78079714;-73.09634099;02d-12q-42f-42h-44e
32703;Suecia - Escocia / Poniente;-36.78232679;-73.09674015;02d-12q-42f-42h-44e
32704;Suecia - Finlandia;-36.7845349;-73.09673035;02d-12q-42f-42h-44e
32705;Suecia - Grecia;-36.78656245;-73.0967026;02d-44u-81c
32706;Grecia - Atenas / Norte;-36.78664871;-73.09927784;02d-44u-60x-60y-81c
32707;Alemania - Finlandia / Oriente;-36.78440538;-73.10159681;02d-12q-40p-41r-42f-42h-43t
32708;Liceo Industrial Henan Valenzuela Leyton;-36.782347;-73.10308188;02d-12q-40p-41r-42f-42h-43t-81c
32709;Alemania - Belgica / Oriente;-36.78145415;-73.10417959;02d-12q-30m-30n-40p-41r-42f-42h-43t-60x-71i-81c
32710;Colegio Sta Teresita;-36.78016148;-73.10620594;02d-12q-30m-30n-40p-41r-42f-42h-60x-71i-81c
32711;Yugoslavia - Suiza;-36.78066269;-73.10881561;02d-12q-30m-30n-40p-41r-42f-42h-60x-71i-81c
32712;Suiza - Belgica / Poniente;-36.78251907;-73.10879239;02d-40p-41r-42f-42h-60x
32713;Finlandia - Dover / Norte;-36.78459482;-73.10839399;02d-42h-60x
32714;Gran Bretaña - Grecia;-36.78641806;-73.11025417;02d-12b-41r-42f
32715;Colegio Montaner;-36.78716267;-73.11003417;02d-12b-41r-42f
32716;Gran Bretaña - Monaco;-36.78857999;-73.10960713;02d-12b-41r-42f
32717;Gran Bretaña - Bremen / Poniente;-36.79190803;-73.10860638;02d-12b-40b-40g-71z
32718;Postdam - Pje Cinco;-36.79408097;-73.10978572;02d-41v-60k
32719;Postdam - Pje Nueve / Norte;-36.79371965;-73.11087048;02d-41v-60k
32720;Postdam - Pje Catorce / Norte;-36.79299568;-73.11238999;02d-41v-60k
32721;Postdam - Pje Diecisiete / Norte;-36.79249847;-73.11343322;02d-41v-60k
32722;Santiago Watt;-36.76669825;-73.11375198;02a-42f
32723;Evangelista Torricheli;-36.76500204;-73.11535073;02a-42f
32724;Gran Bretaña - Burdeos;-36.778013;-73.11280239;02a-12a-12b-30d-30e-41q-42u-42w-71z-81s
32725;Calle 9 / Poniente;-36.79583222;-73.11449459;02a-60k
32726;Oceano Pacifico - Mar Rojo / Sur;-36.80204157;-73.10480411;02a-65e
32727;Av. Dos - Pje Doce / Sur;-36.79767563;-73.1119501;02a-60k
32728;Av. Dos - Pje Uno;-36.79779661;-73.10878657;02a-60k
32729;Gran Bretaña - Avenida Dos;-36.79769422;-73.1068838;02a-65e
32730;Gran Bretaña - Atenas / Poniente;-36.79976692;-73.10629479;02a
32731;Gran Bretaña - Av La Reconquista / Poniente;-36.8006728;-73.10601469;02a
32732;Oceano Pacifico - Mar Egeo;-36.80343169;-73.10267387;02a-65e
32733;Calle Uno - Pje Dieciseis;-36.80458549;-73.09929402;02a-65e
32734;Calle Uno - Pje Pinto;-36.80262819;-73.09751546;02a
32735;Av Rucalhue;-36.80193606;-73.09763346;02a
32736;Pilpilco - Postdam;-36.79932709;-73.09681259;02a
32737;Playa Pingueral / Final;-36.71001746;-73.15022357;02a-10j
32738;La Reconquista - Quillon;-36.79544899;-73.0983543;02a-30d-30e-40b-40g-43j-71z
32739;La Reconquista - Toscania / Sur;-36.79394418;-73.09612769;02a-30d-30e-40b-40g-43j-71z
32740;La Reconquista - Patria Nva;-36.79153618;-73.0943494;02a-44u
32741;Curanilahue - Corral / Sur;-36.79118593;-73.09330465;02a-60k-60l-81s
32742;Curanilahue - Calbuco;-36.7906676;-73.09133394;02a-60k-60l-81s
32743;Los Metálicos;-36.7902932;-73.08934847;02a-40g-60k-60l-81s
32744;Curanihue - Pto Cisnes;-36.79025952;-73.0872537;02a-40g-60k-60l-81s
32745;Cristobal Colon - Curanilahue / Oriente;-36.78978291;-73.08676126;02a-12q-30r-31d-32e-32h-40g-42h-52a-56o-57p-62m-62n-70g-70h-70i
32746;Clinica De Dialisis;-36.78776455;-73.08680026;02a-12q-30r-31d-32e-32h-40g-42h-52a-56o-57p-62m-62n-70g-70h-70i
32747;Cristobal Colon - Gasolinera;-36.78409616;-73.08680184;02a-12q-30r-31d-32e-32h-40g-42h-52a-56o-57p-62m-62n-70g-70h-70i
32748;Colon - Aga / Oriente;-36.78123899;-73.08680565;02a-30r-31d-32e-32h-52a-56o-57p-62m-62n-70g-70h-70i
32749;Colon - Concepcion / Oriente;-36.77865627;-73.08650011;02a-30r-31d-32e-32h-52a-56o-57p-62m-62n-70g-70h-70i
32750;Colon - Cuatro Nte;-36.77690459;-73.08630837;02a-30r-31d-32e-32h-52a-56o-57p-62m-62n-70g-70h-70i
32751;Camino Al Litral - Bahia Inglesa;-36.71035027;-73.13977069;02a-10a-10j-70i
32752;Escuela C / Poniente;-36.71122818;-73.14057796;02a-10a-10j-70i
32753;Playa Pingueral / Sur;-36.71228138;-73.14222066;02a-10a-10j-70i
33634;Calle 201 - Manuel Rodriguez;-36.95812409;-73.01172268;12q-12r-13g-16h-16i
33635;Manuel Rodriguez - Pje 6;-36.95803082;-73.01207327;10b-10d-12q-12r-13g-16h-16i-17o-18y-80j-80k-81c
33636;Manuel Rodriguez - Pje 4;-36.95624367;-73.01299573;10b-10d-12q-12r-13g-16h-16i-17o-18y-80j-80k-81c
33637;Manuel Rodriguez - España;-36.95424047;-73.01339593;10a-10b-10d-12q-12r-13g-16h-16i-17o-18y-80j-80k-81c
33638;Manuel Rodríguez - Los Pinos;-36.95056177;-73.01438989;10a-10b-10d-10j-11e-11f-12q-12r-13g-16h-16i-17a-17o-18y-80j-80k-81c
33639;Manuel Rodriguez - Porvenir / Oriente;-36.9473307;-73.0157427;10a-10b-10c-10d-10j-10t-11e-11f-12q-12r-13g-16h-16i-17a-17o-18y-80j-80k-81c
33640;Manuel Rodriguez - Esperanza / Oriente;-36.94546938;-73.01654334;10a-10b-10c-10d-10j-10t-11e-11f-12q-12r-13g-16h-16i-17a-17o-18y-80j-80k-81c
33641;Manuel Rodríguez - Sta María;-36.94186308;-73.01809657;10a-10b-10c-10d-10j-10t-11e-11f-12q-12r-13g-16h-16i-17a-17o-18y-80j-80k-81c
33642;Manuel Rodriguez - Independencia;-36.93843656;-73.01962253;10a-10b-10c-10d-10j-10t-11e-11f-12q-12r-13g-16h-16i-17a-17o-18y-80j-80k-81c
33643;Manuel Rodriguez - Carriel;-36.93659303;-73.02041129;10a-10b-10c-10d-10j-10t-11e-11f-12q-12r-13g-16h-16i-17a-17o-18y-80j-80k-81c
33644;Manuel Rodriguez - Calle Nueva;-36.93304935;-73.02194006;10a-10b-10c-10d-10j-10t-11e-11f-12q-12r-13g-16h-16i-17a-17o-18y-80j-80k-81c
33645;Manuel Rodriguez - Pinares / Oriente;-36.93112622;-73.02282057;10a-10b-10c-10d-10j-10t-11e-11f-12q-12r-13g-16h-16i-17a-17o-18y-80j-80k-81c
33646;Manuel Rodriguez - Sto Domingo;-36.92790459;-73.02420608;10a-10b-10c-10d-10j-10t-11e-11f-12q-12r-13g-16h-16i-17a-17o-18y-80j-80k-81c
33647;Manuel Rodriguez - Los Cipreses;-36.92545232;-73.02524606;10a-10b-10c-10d-10j-10t-11e-11f-12q-12r-13g-16h-16i-17a-17o-18y-80j-80k-81c
33648;Manuel Rodriguez - Los Carrera;-36.92310796;-73.02627196;11e-11f-12q-12r-13g-16h-16i-17a-17o-80j-80k-81c
33649;Manuel Rodriguez - Sn Ignacio;-36.92257039;-73.02646544;10a-10b-10c-10d-10j-10t-12q-12r-13g-17a-17o-18y-80j-80k-81c
33650;Manuel Rodríguez - Guacolda;-36.91928925;-73.02752662;10a-10b-10c-10d-10j-10t-11e-11f-12q-12r-13g-14z-16h-16i-17a-17o-18y-80j-80k-81c
33651;Obispo Sn Miguel / 1sur / Oriente;-36.91566965;-73.02883214;10a-10c-10d-10j-10t-11e-11f-12q-13g-14h-16h-16i-17o-80h-80j
33652;Bomberos De Chiguayante;-36.91469919;-73.02955305;10a-10c-10d-10j-10t-11e-11f-12q-13g-14h-16h-16i-17o-80h-80k
33653;Obispo San Miguel - Las Delicias;-36.91273726;-73.03081576;10a-10c-10d-10j-10t-11e-11f-12q-13g-14h-16h-16i-17o-80j-80k
33654;Obispo Sn Migue - Pedro Aguirre Cerda;-36.91085946;-73.03171707;10a-10c-10d-10j-10t-11e-11f-12q-13g-14h-16h-16i-17o-80j-80k
33655;Obispo Sn Miguel - Calle2;-36.90750301;-73.0315003;10a-10c-10d-10j-10t-11e-11f-12q-13g-14h-16h-16i-17o-80j-80k
33656;Obispo San Miguel / Oriente;-36.90519162;-73.03125668;10a-10c-10d-10j-10t-11e-11f-12q-13g-14h-16h-16i-17o-80j-80k
33657;Colón Viejo - Las Violetas / Oriente;-36.90125756;-73.03153735;10a-10c-10d-10j-10t-11e-11f-12q-13g-14h-16h-16i-17o-80j-80k
33658;Colón Viejo - Estadio Español / Oriente;-36.89812801;-73.03250431;10a-10c-10d-10j-10t-11e-11f-12q-13g-14h-16h-16i-17o-80j-80k
33659;Cno. A Chiguayante - Las Palmas / Oriente;-36.89058351;-73.03573893;10a-10b-10c-10d-10j-10t-11e-11f-12q-12r-13g-14h-14z-16h-16i-17a-17o-18y-80j-80k-80l-81c
33660;Cno. A Chiguayante - Pje C / Oriente;-36.88490584;-73.03741038;10a-10b-10c-10d-10j-10t-11e-11f-12q-12r-13g-14h-14z-16h-16i-17a-17o-18y-80j-80k-80l-81c
33661;Cno. A Chiguayante - Ignacio Verdugo / Oriente;-36.87967736;-73.03790326;10a-10b-10c-10d-10j-10t-11e-11f-12q-12r-13g-14h-14z-16h-16i-17a-17o-18y-80j-80k-80l-81c
33662;Cno A Chiguayante - Av. Nahuelbuta;-36.87587691;-73.03972823;10k-10l-10m-10n-10o-10p-12q-12r-13g-14t-14u-18p
33663;Cno A Chiguayante - Uno Pte / Oriente;-36.87024425;-73.04194755;10a-10b-10c-10d-10j-10t-11e-11f-12q-12r-13g-14h-14z-16h-16i-17a-17o-18y-80j-80k-80l-81c
33664;Cno. Chiguayante - Abraham Romero / Oriente;-36.86741702;-73.04267036;10a-10b-10c-10d-10j-10t-11e-11f-12q-12r-13g-14h-14z-16h-16i-17a-17o-18y-80j-80k-80l-81c
33665;Cno. A Chiguayate - Errázuriz / Oriente;-36.86552417;-73.04321222;10a-10b-10c-10d-10j-10t-11e-11f-12q-12r-13g-14h-14z-16h-16i-17a-17o-18y-80j-80k-80l-81c
33666;Pedro De Valdivia - Corina Vargas De Medina;-36.86060726;-73.04675873;10a-10b-10c-10d-10j-10t-11e-11f-12q-12r-13g-14h-14z-16h-16i-17a-17o-18y-72w-72z-80j-80k-80l-81c
33667;Colegio Concepción P. De Valdivia;-36.85745165;-73.04944123;10a-10b-10c-10d-10j-10t-11e-11f-12q-12r-13g-14h-14z-16h-16i-17a-17o-18y-72w-72z-80j-80k-80l-81c
33668;Pedro De Valdivia - Sanders / Oriente;-36.85586821;-73.04961607;10a-10b-10c-10d-10j-10t-11e-11f-12q-12r-13g-14h-14z-16h-16i-17a-17o-18y-60m-72w-72z-80j-80k-80l-81c
33669;Pedro De Valdivia - Inglesa / Oriente;-36.85285227;-73.05037687;10a-10b-10c-10d-10j-10t-11e-11f-12q-12r-13g-14h-14z-16h-16i-17a-17o-18y-60m-72w-72z-80j-80k-80l-81c
33670;Pedro De Valdivia - Av Alemana / Oriente;-36.85094153;-73.0509301;10a-10b-10c-10d-10j-10t-11e-11f-12q-12r-13g-14h-14z-16h-16i-17a-17o-18y-60m-72w-72z-80j-80k-80l-81c
33671;Pedro De Valdivia - La Mochita;-36.84693712;-73.05132337;10a-10b-10c-10d-10j-10t-11e-11f-12q-12r-13g-14h-14z-16h-16i-17a-17o-18y-60m-72w-72z-80j-80k-80l-81c
33672;Pedro De Valdivia - Arturo Junge;-36.84418059;-73.05251477;10a-10b-10c-10d-10j-10t-11e-11f-12q-12r-13g-14h-14z-16h-16i-17a-17o-18y-60m-72w-72z-80j-80k-80l-81c
33673;Pedro De Valdivia - Geswein;-36.84226726;-73.05346043;10a-10b-10c-10d-10j-10t-11e-11f-12q-12r-13g-14h-14z-16h-16i-17a-17o-18y-60m-72w-72z-80j-80k-80l-81c
33674;Pedro De Valdivia - Pje Ccu;-36.84007756;-73.05459246;10a-10b-10c-10d-10j-10t-11e-11f-12q-12r-13g-14h-14z-16h-16i-17a-17o-18y-60m-72w-72z-80j-80k-80l-81c
33675;Pedro De Valdivia - Alonso De Ercilla;-36.83862958;-73.0553356;10a-10b-10c-10d-10j-10t-11e-11f-12q-12r-13g-14h-14z-16h-16i-17a-17o-18y-60m-72w-72z-80j-80l-81c
33676;Pedro De Valdivia - Rancagua / Oriente;-36.83634741;-73.05577465;10a-10b-10c-10d-10j-10t-11e-11f-12q-12r-13g-14h-14z-16h-16i-17a-17o-18y-60m-72w-72z-80j-80k-80l-81c
33677;Arturo Prat - Chacabuco;-36.83415313;-73.05607688;10a-10b-10c-10d-10j-10t-11e-11f-12q-12r-13g-14h-14z-16h-16i-17a-17o-18y-60m-72w-72z-80j-80k-80l-81c
33678;Arturo Prat - Cochrane;-36.83348347;-73.05646385;10a-10b-10c-10d-10j-10t-11e-11f-12q-12r-13g-14h-14z-16h-16i-17a-17o-18y-60m-72w-72z-80j-80k-80l-81c
33679;Arturo Prat - San Martín;-36.83248485;-73.05712824;10a-10b-10c-10d-10j-10t-11e-11f-12q-12r-13g-14h-14z-16h-16i-17a-17o-18y-60m-72w-72z-80j-80k-80l-81c
33680;San Martín - Serrano;-36.83173801;-73.05665379;10a-10b-10c-10d-10j-10t-11e-11f-13g-14h-14z-16h-16i-17o-18y-42u-56v-72w-72z-80j-80k-80l
33681;San Martín - Salas;-36.83125892;-73.05546618;10a-10b-10c-10d-10j-10t-11e-11f-13g-14h-14z-16h-16i-17o-18y-20j-42u-56v-72w-72z-80j-80k-80l
33682;San Martín - Lincoyán;-36.83018908;-73.05288081;10a-10b-10c-10d-10j-10t-11e-11f-13g-14h-14z-16h-16i-17o-18y-20j-21q-22j-22r-22s-22x-24t-40n-42u-56v-72w-72z-80j-80k-80l-B02
33683;San Martín - Caupolicán;-36.82910908;-73.0502285;10a-10b-10c-10d-10j-10t-11e-11f-13g-14h-14z-16h-16i-17o-18y-20j-21q-22j-22r-22s-22x-24t-40n-42u-56v-72w-72z-80j-80k-80l-B02
33684;San Martín - Aníbal Pinto;-36.82861246;-73.04907506;10a-10b-10c-10d-10j-10t-11e-11f-13g-14h-14z-16h-16i-17o-18y-20j-21q-22j-22r-22s-22x-24t-40n-42u-56v-72w-72z-80j-80k-80l
33685;San Martín - Tucapel;-36.82708113;-73.04529073;10a-10b-10c-10d-10j-10t-11e-11f-13g-14h-14z-16h-16i-17o-18y-20j-21q-22j-22r-22s-22x-24t-40n-42u-56v-72w-72z-80j-80k-80l
33686;San Martín - Orompello;-36.82640682;-73.04374947;10a-10b-10c-10d-10j-10t-11e-11f-13g-14h-14z-16h-16i-17o-18y-20j-21q-22j-22r-22s-22x-24t-40n-42u-56v-72w-72z-80j-80k-80l
33687;San Martín - Ongolmo;-36.82583603;-73.04247467;10a-10b-10c-10d-10j-10t-11e-11f-13g-14h-14z-16h-16i-17o-18y-20j-21q-22j-22r-22s-22x-24t-40n-42u-56v-72w-72z-80j-80k-80l-B02
33688;San Martín - Paicaví;-36.82535661;-73.04127604;10a-10b-10c-10d-10j-11e-11f-13g-14h-14z-16h-16i-17o-18y-20j-21q-22j-22r-22s-22x-24t-40n-42u-56v-72w-72z-80j-80k-80l
33689;Picavi 358;-36.82468973;-73.04128184;10a-10b-10c-10d-11e-11f-13g-14h-16h-16i-20j-40n-80j-80k
33690;Paicaaví - Barros Arana / Oriente;-36.8232185;-73.04224988;10a-10b-10c-10d-11e-11f-13g-14h-16h-16i-20j-40n-80j-80k-80l-B02
33691;Paicaví - Freire;-36.82249538;-73.04267191;10a-10b-10c-10d-10t-11e-11f-13g-14h-16h-16i-20j-40n-80j-80k-80l-B02
33692;Paicaví - Maipú / Oriente;-36.82141612;-73.04336085;10a-10b-10c-10d-10j-10t-11e-11f-13g-14h-16h-16i-20j-40n-80j-80k-80l-B02
33693;Paicaví - Martínez De Rosas;-36.81837506;-73.04533287;10a-10b-10c-10d-10j-10t-11e-11f-13g-14h-16h-16i-20a-20j-20z-40n-41v-42f-60k-60l-80j-80k-80l-B02
33694;Paaicaví - Manuel Bulnes / Norte;-36.81662671;-73.04644231;10a-10b-10c-10d-10j-10t-11e-11f-13g-14h-16h-16i-20a-20j-20z-40n-41v-42f-60k-60l-80j-80k-80l
33695;Univ Sn Sebastián - Paicaví;-36.81473456;-73.04757778;10a-10b-10c-10d-10j-10t-11e-11f-13g-14h-16h-16i-20a-20j-20z-40n-41v-42f-60k-60l-80j-80k-80l-B02
33696;Paicaví - Bandera / Norte;-36.81268391;-73.04894141;10a-10b-10c-10d-10j-10t-11e-11f-13g-14h-16h-16i-20a-20j-20z-40n-41v-42f-60k-60l-80j-80k-80l
33697;Paicaví - Brasil / Norte;-36.81058709;-73.05023888;10a-10b-10c-10d-10j-10t-11e-11f-13g-14h-16h-16i-20a-20j-20z-40n-41v-42f-60k-60l-80j-80k-80l-B02
33698;Paicaví - Juan De Dios Rivera;-36.80839445;-73.05174047;10a-10b-10c-10d-10j-10t-11e-11f-13g-14h-16h-16i-20a-20j-20z-40n-41v-42f-60k-60l-80j-80k-80l-B02
33699;Paicaví - Ventus;-36.80628987;-73.05311644;10a-10b-10c-10d-10j-10t-11e-11f-13g-14h-16h-16i-20a-20j-20z-40n-41v-42f-60k-60l-80j-80k-80l-B02
33700;Paicaví - El Carmen;-36.80434707;-73.05446583;10a-10b-10c-10d-10j-10t-11e-11f-13g-14h-16h-16i-20a-20j-20z-40n-41v-42f-80j-80k-80l
33701;Paicaví - A Gral. Bonilla;-36.800975;-73.05660222;10a-10b-10c-10d-10j-10t-11e-11f-13g-14h-16h-16i-20a-20j-20z-40n-41v-42f-80j-80k-80l-B02
33702;Duoc - Uc / Paicaví;-36.79762983;-73.06149479;10a-10b-10c-10d-10j-10t-11e-11f-13g-14h-16h-16i-20a-20j-20z-40n-41v-42f-80j-80k-80l-B02
33703;Mall Plaza Trebol;-36.7915681;-73.07006376;10a-10b-10c-10d-10j-10t-11e-11f-13g-14h-16h-16i-20a-20j-20z-30q-40n-41v-42f-50u-80j-80k-80l-B02
33704;Inacap;-36.78140449;-73.07639192;10a-10b-10c-10d-10j-10t-11e-11f-13g-14h-16h-16i-20a-20j-20z-30q-50u-80j-80k-80l
33705;Autopista Concep. Talcahuano - Benavente;-36.77453055;-73.08049641;10a-10b-10c-10d-10j-10t-11e-11f-13g-14h-16h-16i-20a-20j-20z-30q-50u-80j-80k-80l
33706;Autopista Concep. Talcahuano - Rio Colorado / Oriente;-36.7723618;-73.08182774;10a-10b-10c-10d-10j-10t-11e-11f-13g-14h-16h-16i-20a-20j-20z-30q-50u-80j-80k-80l
33713;Autopista Concep. Talcahuano - Rio Lluta;-36.77007427;-73.08306112;10a-10b-10c-10d-10j-10t-11e-11f-13g-14h-16h-16i-20a-20j-20z-30q-50u-80j-80k-80l
33714;Autopista Concep. Talcahuano - Jaime Repullo;-36.76813072;-73.08438668;10a-10b-10c-10d-10j-10t-11f-13g-14h-16h-16i-20a-20j-20z-30q-50u-80j-80k-80l
33736;Almirante Villarroel;-36.70713986;-73.11389934;11f-11r-12a-12b-12q-12r-13g-13s-20a-20j-20z-56o-81c
33770;Autopista Talcahuna Concep. - Rio Lenga;-36.76965335;-73.08378862;10k-10l-10m-10n-10o-10p-11q-11r-13s-14t-16k-16v-20l-20v-20w-30c-50s-57y-70k-80h-80q-80z
33771;Autopista Talcahuna Concep. - Rio Petorca;-36.77165312;-73.08259605;10k-10l-10m-10n-10o-10p-11q-11r-13s-14t-16k-16v-20l-20v-20w-30c-50s-57y-70k-80h-80q-80z
33772;Autopista Talcahuano Concep. - Benavente;-36.77469725;-73.08077236;10k-10l-10m-10n-10o-10p-11q-11r-13s-14t-16k-16v-20l-20v-20w-30c-50s-57y-70k-80h-80q-80z
33773;Inacap / Poniente;-36.78175913;-73.07658475;10k-10l-10m-10n-10o-10p-11q-11r-13s-14t-16k-16v-20l-20v-20w-30c-50s-57y-70k-80h-80q-80z-B02
33774;Mall Plaza Trebol / Poniente;-36.79195668;-73.07068158;10k-10l-10m-10n-10o-10p-11q-11r-13s-14t-16k-16v-20l-20v-20w-30c-40g-42w-50s-57y-70k-80h-80q-80z-B02
33775;Paicaví - Gral Bonilla;-36.79903664;-73.05932985;10k-10l-10m-10n-10o-10p-11q-11r-13s-14t-16k-16v-20l-20v-20w-30c-40g-42w-50s-57y-70k-80h-80q-80z-B02
33776;Paicaví - Calle Nueva;-36.80180666;-73.05620012;10k-10l-10m-10n-10o-10p-11q-11r-13s-14t-16k-16v-20l-20v-20w-30c-40g-42w-50s-57y-70k-80h-80q-80z-B02
33777;Paicaví - Ongolmo;-36.80484738;-73.05419537;10k-10l-10m-10n-10o-10p-11q-11r-13s-14t-16k-16v-20l-20v-20w-30c-40g-42w-50s-57y-70k-80h-80q-80z-B02
33778;Paicaví - Manuel Gutierrez;-36.80721951;-73.05264454;10k-10l-10m-10n-10o-10p-11q-11r-13s-14t-16k-16v-20l-20v-20w-30c-40g-42w-50s-57y-60x-60y-70k-80h-80q-80z-B02
33779;Paicaví - Paredes;-36.80917185;-73.05132844;10k-10l-10m-10n-10o-10p-11q-11r-13s-14t-16k-16v-20l-20v-20w-30c-40g-42w-50s-57y-60x-60y-70k-80h-80q-80z-B02
33780;Paicaví - Brasil / Sur;-36.81123191;-73.04998713;10k-10l-10m-10n-10o-10p-11q-11r-13s-14t-16k-16v-20l-20v-20w-30c-40g-42w-50s-57y-60x-60y-70k-80h-80q-80z-B02
33781;Paicaví - Bandera / Sur;-36.81337249;-73.04861006;10k-10l-10m-10n-10o-10p-11q-11r-13s-14t-16k-16v-20l-20v-20w-30c-40g-42w-50s-57y-60x-60y-70k-80h-80q-80z-B02
33782;Paicaví - Gral Cruz;-36.81558402;-73.04716385;10k-10l-10m-10n-10o-10p-11q-11r-13s-14t-16k-16v-20l-20v-20w-30c-40g-42w-50s-57y-60x-60y-70k-80h-80q-80z-B02
33783;Paicaví - Manuel Bulnes;-36.81747598;-73.04601715;10k-10l-10m-10n-10o-10p-11q-11r-13s-14t-16k-16v-20l-20v-20w-30c-40g-42w-50s-57y-60x-60y-70k-80h-80q-80z-B02
33784;Paicaví - Las Heras;-36.81926937;-73.04490653;10k-10l-10m-10n-10o-10p-11q-11r-13s-14t-16k-16v-20l-20v-20w-30c-40g-42w-50s-57y-60x-60y-70k-80h-80q-80z-B02
33785;Paicaví - Maipú / Poniente;-36.82151799;-73.04352642;10k-10l-10m-10n-10o-10p-11q-11r-13s-14t-16k-16v-30c-40g-41c-42w-50s-57y-60x-60y-80h-80q-80z-B02
33786;Paicaví - Barros Arana / Poniente;-36.82365885;-73.04217139;10k-10l-10m-10n-10o-10p-11q-11r-13s-14t-16k-16v-40g-41c-42w-50s-57y-80h-80q-80z-B02
33787;Bdo O'Higgins - Ongolmo;-36.82450208;-73.04247503;10k-10l-10m-10n-10o-10p-11q-11r-13s-14t-14u-16k-16v-17w-17x-18p-21b-22c-22d-22e-24m-30q-30r-31d-32e-32h-40g-42w-43t-50s-56o-57p-57y-62m-62n-70g-70h-70i-72j-72k-80h-80q-80z-90x-B02
33788;Bdo O'Higgins - Orompello;-36.82506534;-73.04383969;10k-10l-10m-10n-10o-10p-11q-11r-13s-14t-14u-16k-16v-17w-17x-18p-21b-22c-22d-22e-24m-30q-30r-31d-32e-32h-40g-42w-43t-50s-56o-57p-57y-62m-62n-70g-70h-70i-72j-72k-80h-80q-80z-90x-B02
33789;Palacio De Tribunales - Bdo O'Higgins;-36.82610704;-73.04634699;10l-10m-10n-10o-10p-11q-11r-13s-14t-14u-16k-16v-17w-17x-18p-21b-22c-22d-22e-24m-30q-30r-31d-32e-32h-40g-42w-50s-56o-57p-57y-62m-62n-70g-70h-70i-72j-72k-80h-80q-80z-90x-B02
33790;Bdo O'Higgins - Colo Colo;-36.82662374;-73.0476232;10l-10m-10n-10o-10p-11q-11r-13s-14t-14u-16k-16v-17w-17x-18p-21b-22c-22d-22e-24m-30q-30r-31d-32e-32h-40g-42w-50s-56o-57p-57y-62m-62n-70g-70h-70i-72j-72k-80h-80q-80z-90x-B02
33791;Bdo O'Higgins - Plaza De Concepción;-36.82723401;-73.04911007;10l-10m-10n-10o-10p-11q-11r-13s-14t-14u-16k-16v-17w-17x-18p-21b-22c-22d-22e-24m-30q-30r-31d-32e-32h-40g-42w-50s-56o-57p-57y-62m-62n-70g-70h-70i-72j-72k-80h-80q-80z-90x-B02
33792;Bdo. O'Higgins - Rengo;-36.82846204;-73.051994;10l-10m-10n-10o-10p-11q-11r-13s-14t-14u-16k-16v-17w-17x-18p-21b-22c-22d-22e-24m-30q-30r-31d-32e-32h-40g-42w-50s-56o-57p-57y-62m-62n-63i-70g-70h-70i-72j-72k-80h-80q-80z-90x-B02
33793;Bdo O'Higgins - Lincoyán;-36.82899688;-73.05328104;10l-10m-10n-10o-10p-11q-11r-13s-14t-14u-16k-16v-17w-17x-18p-21b-22c-22d-22e-24m-30q-30r-31d-32e-32h-40g-42w-50s-56o-57p-57y-62m-62n-63i-70g-70h-70i-72j-72k-80h-80q-80z-90x-B02
33794;Bdo O'Higgins - Angol;-36.82938077;-73.05415706;10l-10m-10n-10o-10p-11q-11r-13s-14t-14u-16k-16v-17w-17x-18p-21b-22c-22d-22e-24m-30q-30r-31d-32e-32h-40g-42w-50s-50u-56o-57p-57y-62m-62n-63i-70g-70h-70i-72j-72k-80h-80q-80z-90x-B02
33795;Bdo O'Higgins - Pedro Villa;-36.82971004;-73.05500085;10k-10l-10m-10n-10o-10p-11q-11r-13s-14t-14u-16k-16v-17w-17x-18p-21b-22c-22d-22e-24m-30q-30r-31d-32e-32h-40g-42f-42w-50u-56o-57p-57y-62m-62n-63i-70g-70h-70i-72j-72k-80h-80q-80z-90x-B02
33796;Bdo O'Higgins - Serrano;-36.83087619;-73.05741561;13s
33797;Barrio Cívico - Bdo O'Higgins;-36.83129549;-73.05880656;10k-10l-10m-10n-10o-10p-11q-11r-13s-14t-14u-16k-16v-17w-17x-18p-72j-72k-80h-80q-80z-B02
33798;Andres Bello;-36.83426577;-73.05745321;10k-10l-10m-10n-10o-10p-11q-11r-12a-12b-13s-14t-14u-16k-16v-17w-17x-18p-60z-72j-72k-80h-80q-80z-81s
33799;Pedro De Valdivia - Rancagua / Ponniente;-36.83644246;-73.05607499;10k-10l-10m-10n-10o-10p-12a-12b-13s-14t-14u-18p
33800;Pedro De Valdivia - Juan Calvino;-36.84072532;-73.05451998;10k-10l-10m-10n-10o-10p-11q-11r-12a-12b-13s-14t-14u-16k-16v-17w-17x-18p-60z-72j-72k-80h-80q-80z-81s
33801;Pedro De Valdivia - La Canchas;-36.84176216;-73.05398908;10k-10l-10m-10n-10o-10p-11q-11r-12a-12b-13s-14t-14u-16k-16v-17w-17x-18p-60z-72j-72k-80h-80q-80z-81s
33802;Supermercado Sta Isabel;-36.84640243;-73.05169581;10k-10l-10m-10n-10o-10p-11q-11r-12a-12b-13s-14t-14u-16k-16v-17w-17x-18p-60z-72j-72k-80h-80q-80z-81s
33803;Pedro De Valdivia - Sta Lucía;-36.84820984;-73.05143685;10k-10l-10m-10n-10o-10p-11q-11r-12a-12b-13s-14t-14u-16k-16v-17w-17x-18p-60z-72j-72k-80h-80q-80z-81s
33804;Pedro De Valdivia - Av. Alemana / Poniente;-36.85110683;-73.05111656;10k-10l-10m-10n-10o-10p-11q-11r-12a-12b-13s-14t-14u-16k-16v-17w-17x-18p-60z-72j-72k-80h-80q-80z-81s
33805;Pedro De Valdivia - Inglesa / Poniente;-36.8525601;-73.05069833;10k-10l-10m-10n-10o-10p-11q-11r-12a-12b-13s-14t-14u-16k-16v-17w-17x-18p-60z-72j-72k-80h-80q-80z-81s
33806;Pedro De Valdivia - Sanders / Poniente;-36.85540358;-73.04986341;10k-10l-10m-10n-10o-10p-11q-11r-12a-12b-13s-14t-14u-16k-16v-17w-17x-18p-60z-72j-72k-80h-80q-80z-81s
33828;Pedro De Valdivia - Corina Vargas;-36.86066445;-73.04694796;10k-10m-10p-11q-11r-12a-12b-13s-16k-16v-17w-17x-18p-72j-72k
33829;Cno. A Chiguayante - Errázuriz / Poniente;-36.86535908;-73.04358661;10k-10l-10m-10n-10o-10p-11q-11r-12a-12b-13s-14t-14u-16k-16v-17w-17x-18p-72j-72k-80h-80q-80z-81s
33830;Cno. Chiguayante - Abraham Romero / Poniente;-36.86769945;-73.04285385;10k-10l-10m-10n-10o-10p-11q-11r-12a-12b-13s-14t-14u-16k-16v-17w-17x-18p-80h-80q-80z-81s
33831;Cno. A Chiguayante - Uno Pte / Poniente;-36.87069859;-73.04217153;10k-10l-10m-10n-10o-10p-11q-11r-12a-12b-13s-14t-14u-16k-16v-17w-17x-18p-80h-80q-80z-81s
33832;Cno. A Chiguayante - Ignacio Verdugo / Poniente;-36.88027586;-73.03812355;10k-10l-10m-10n-10o-10p-11q-11r-12a-12b-13s-14t-14u-16k-16v-17w-17x-18p-80h-80q-80z-81s
33833;Cno. A Chiguayante - Pje C / Poniente;-36.88507171;-73.03763054;10k-10l-10m-10n-10o-10p-11q-11r-12a-12b-13s-14t-14u-16k-16v-17w-17x-18p-80h-80q-80z-81s
33834;Cno. A Chiguayante - Las Palmas / Poniente;-36.89024542;-73.03600568;10k-10l-10m-10n-10o-10p-11q-11r-12a-12b-13s-14t-14u-16k-16v-17w-17x-18p-80h-80q-80z-81s
33835;Colón Viejo - Estadio Español / Poniente;-36.89822201;-73.03273756;10k-10l-10m-10n-10p-11q-11r-12a-13s-14t-16k-16v-17x-80h-80q
33836;Colón Viejo / Poniente;-36.89959429;-73.03233199;10k-10l-10m-10n-10p-11q-11r-12a-13s-14t-16k-16v-17x-80h-80q
33837;Colón Viejo - Las Violetas / Poniente;-36.90143245;-73.03175731;10k-10l-10m-10n-10p-11q-11r-12a-13s-14t-16k-16v-17x-80h-80q
33838;Obispor San Miguel / Poniente;-36.90480794;-73.03149101;10k-10l-10m-10n-10p-11q-11r-12a-13s-14t-16k-16v-17x-80h-80q
33839;Obispo Sn Miguel - Calle1;-36.90679425;-73.03169809;10k-10l-10m-10n-10p-11q-11r-12a-13s-14t-16k-16v-17x-80h-80q
33840;Obispo Sn Miguel - Calle Nueva;-36.91137559;-73.03186095;10k-10l-10m-10n-10p-11q-11r-12a-13s-14t-16k-16v-17x-80h-80q
33841;Obispo Sn. Miguel - Vilumilla / Poniente;-36.9132324;-73.03078058;10k-10l-10m-10n-10p-11q-11r-12a-13s-14t-16k-16v-17x-80h-80q
33842;Obispo Sn Miguel - 1sur / Poniente;-36.91590799;-73.02907295;10k-10l-10m-10n-10p-11q-11r-12a-13s-14t-16k-16v-17x-80q
33843;Manuel Rodriguez - Quintanilla;-36.91878243;-73.02794379;10k-10l-10m-10n-10o-10p-11q-11r-12a-12b-13s-16k-16v-17w-17x-18p-80h-80q-81s
33844;Manuel Rodríguez - Emilio Rojas;-36.92019694;-73.02736853;10k-10l-10m-10n-10o-10p-11q-11r-12a-12b-13s-16k-16v-17w-17x-18p-80h-80q-81s
33845;Manuel Rodriguez - Bolshauzer;-36.92352164;-73.02621639;10k-10l-10m-10n-10o-10p-11q-11r-12a-12b-13s-16k-16v-17w-17x-18p-80h-80q-81s
33846;Manuel Rodriguez - Las Condes;-36.9264122;-73.02497431;10k-10l-10m-10n-10o-10p-11q-11r-12a-12b-13s-16k-16v-17w-17x-18p-80h-80q-81s
33847;Manuel Rodríguez - Corbeta Chacabuco;-36.9288196;-73.0239467;10k-10l-10m-10n-10o-10p-11q-11r-12a-12b-13s-16k-16v-17w-17x-18p-80h-80q-81s
33848;Manuel Rodriguez - Pinares / Poniente;-36.93203147;-73.0225165;10k-10l-10m-10n-10o-10p-11q-11r-12a-12b-13s-16k-16v-17w-17x-18p-80h-80q-81s
33849;Manuel Rodriguez - Libertad;-36.93394634;-73.02168109;10k-10l-10m-10n-10o-10p-11q-11r-12a-12b-13s-16k-16v-17w-17x-18p-80h-80q-81s
33850;Manuel Rodriguez - A. Labarca;-36.9374902;-73.02016351;10k-10l-10m-10n-10o-10p-11q-11r-12a-12b-13s-16k-16v-17w-17x-18p-80h-80q-81s
33851;Manuel Rodriguez - Central;-36.93939567;-73.01930577;10k-10l-10m-10n-10o-10p-11q-11r-12a-12b-13s-16k-16v-17w-17x-18p-80q-81s
33852;Manuel Rodriguez - Los Aromos;-36.94285859;-73.01780129;10k-10l-10m-10n-10o-10p-11q-11r-12a-12b-13s-16k-16v-17w-17x-18p-80h-80q-81s
33853;Manuel Rodriguezz - Esperanza / Poniente;-36.94645588;-73.01624826;10k-10l-10m-10n-10o-10p-11q-11r-12a-12b-13s-16k-16v-17w-17x-18p-80h-80q-81s
33854;Manuel Rodriguez - Porvenir / Poniente;-36.94823687;-73.0154946;10k-10l-10m-10n-10o-10p-11q-11r-12a-12b-13s-16k-16v-17w-17x-18p-80h-80q-81s
33855;Manuel Rodríguez - Dinamarca;-36.95151279;-73.01412937;10b-10d-10k-10n-10p-11q-11r-12a-12b-13s-16k-16v-17w-17x-18p-80h-80q-81s
33856;Italia - Manuel Rodriguez;-36.95277143;-73.01393946;10j-11e-11f-11q-11r-12a-12b-13s-17a-17o-18p
33857;Manuel Rodriguez - Francia;-36.95509539;-73.01331756;10b-10d-10k-12a-12b-13s-17o-18p
33858;Manuel Rodriguez - 9 De Abril;-36.95734765;-73.01271996;10b-10d-10k-12a-12b-13s-16k-16v-17o-18p-80h-80q-81s
33859;Grecia - 12 De Octubre;-36.95807418;-73.01251014;10b-10d-10k-12a-12b-13s-18p
33860;Manuel Rodriguez - Calle 201;-36.95841501;-73.01187235;10k-12a-12b-13s-16k-16v-17o-18y-80j-80k-81c
34408;Terminal;-36.95145292;-73.01647798;17a-17o-17w-17x
34410;Regimiento Nº7 Chacabuco;-36.81344456;-73.02948435;14z-17a-21q-23a-23n-30b-30c-30d-30e-31f-32g-32y-41c-42u-57y-62h-65q-90e
34411;Las Heras - El Roble;-36.73758203;-72.99187216;17a-30b-30c-30d-30e-31f-32g-32y-62h
34412;Las Heras - Hierbas Buenas;-36.73707978;-72.99041823;17a-30b-30c-30d-30e-31f-32g-32y-62h
34413;Los Pinos - Calle 5;-36.95063345;-73.01759976;10a-10c-10j-10o-17a-17o
34414;Los Pinos - Yugoeslavia;-36.95087179;-73.01837968;10a-10c-10j-10o-17a-17o
34415;Italia - Yugoeslavia;-36.95310964;-73.01745695;10a-10c-10j-10o-17a-17w-17x
34430;Chiguayante / Oriente;-36.91560796;-73.02837352;10b-12r-14z-17a-18y-80l-81c
34431;Bdo O'Higgins - Arturo Pratt;-36.91281932;-73.02924225;10b-12r-14z-17a-18y-80l-81c
34432;Bdo O'Higgins - Bilbao;-36.91047674;-73.02929131;10b-12r-14z-17a-18y-80l-81c
34433;Bdo O'Higgins - La Plaza;-36.90823623;-73.02951732;10b-12r-14z-17a-18y-80l-81c
34434;Seminario De Concepción;-36.90518676;-73.02987635;10b-12r-14z-17a-18y-80l-81c
34435;Bdo O'Higgins - Colón / Oriente;-36.90207161;-73.03007992;10b-12r-14z-17a-18y-80l-81c
34436;Bdo O'Higgins - Calle1 / Oriente;-36.89989956;-73.03062956;10b-12r-14z-17a-80l-81c
34437;Estadio Español;-36.89814147;-73.03168475;10b-12r-14z-17a-18y-80l-81c
34438;Hotel Terrano;-36.89606601;-73.03262459;10b-12r-14z-17a-18y-80l-81c
34442;Cno A Chiguayante - Av. Nahuelbuta;-36.87424189;-73.04060021;11e-11f-16h-16i-16k-16v-17a-17o-17x-80j-80k-80l-80q-80z-81c
34460;Plaza España;-36.82973758;-73.05889078;12q-12r-17a-30q-30r-31d-32e-32h-42f-50u-56o-57p-57y-60m-62m-62n-70g-70h-70i-81c-90x
34461;Arturo Prat - Hipermercado Lider;-36.82845302;-73.05970809;12q-12r-17a-30c-30m-30n-30q-30r-31d-32e-32h-40p-41r-42f-42h-43t-44u-50u-52a-56o-57p-57y-60m-60x-60y-62m-62n-63k-65e-70g-70h-70i-71i-81c-90x
34462;Arturo Prat - Los Carrera;-36.82736539;-73.06044191;12q-12r-17a-30c-30m-30n-30q-30r-31d-32e-32h-40p-41r-42h-43t-44u-50u-52a-56o-57p-57y-60x-60y-62m-62n-63k-65e-70g-70h-70i-71i-81c
34463;Los Carrera - Serrano;-36.82668423;-73.05957338;17a-20a-20z-22k-23n-23p-24f-30c-57y
34464;Los Carrera - Angol;-36.82563452;-73.05711092;17a-20a-20z-22k-23n-23p-24f-30b-30c-30d-30e-31f-32g-32y-57y-62h
34465;Los Carrera - Rengo;-36.82461308;-73.05472629;17a-20a-20z-22k-23n-23p-24f-30b-30c-30d-30e-31f-32g-32y-57y-62h
34466;Los Carrera - Anibal Pinto;-36.82375798;-73.05259537;17a-20a-20z-22k-23n-23p-24f-30b-30c-30d-30e-31f-32g-32y-57y-62h
34467;Los Carrera - Castellón;-36.82248217;-73.04954465;17a-20a-20z-22k-23n-23p-24f-30b-30c-30d-30e-31f-32g-32y-57y-62h
34468;Los Carrera - Orompello;-36.82144973;-73.0470484;17a-20a-20z-22k-23n-23p-24f-30b-30c-30d-30e-31f-32g-32y-57y-62h
34469;Los Carrera - Ongolmo;-36.82089662;-73.04575078;17a-20a-20z-22k-23n-23p-24f-30b-30c-30d-30e-31f-32g-32y-57y-62h
34470;Los Carrera - Janequeo;-36.81979845;-73.04309935;17a-22k-23n-23p-24f-30b-30c-30d-30e-31f-32g-32y-57y-62h
34471;Los Carrera - Lautaro;-36.81927344;-73.04186835;17a-22k-23n-23p-24f-30b-30c-30d-30e-31f-32g-32y-40b-57y-62h
34472;Los Carrera - Galvarino;-36.81882197;-73.04072516;17a-22k-23n-23p-24f-30b-30c-30d-30e-31f-32g-32y-40b-57y-62h
34473;Los Carrera - Maipú;-36.8178173;-73.03828449;17a-22k-23n-23p-24f-30b-30c-30d-30e-31f-32g-32y-40b-57y-62h
34474;Los Carrera - Vilumilla;-36.81682289;-73.03592209;17a-22k-23n-23p-24f-30b-30c-30d-30e-31f-32g-32y-40b-57y-62h
34475;Bomberos / Los Carrera - Fresia;-36.81582936;-73.03361578;17a-22k-23n-23p-24f-30b-30c-30d-30e-31f-32g-32y-40b-57y-62h
34476;Stripcenter Acevedo / Los Carrera;-36.81513485;-73.03195205;17a-22k-23n-23p-24f-30b-30c-30d-30e-31f-32g-32y-40b-57y-62h
34477;Camino A Penco / Oriente;-36.80445945;-73.02465967;17a-30b-30c-30d-30e-31f-32g-32y-57y-62h
34478;Camino A Penco / Oriente;-36.79787874;-73.0256805;17a-30b-30c-30d-30e-31f-32g-32y-57y-62h
34479;Camino A Penco - Calle Dos / Oriente;-36.79164869;-73.02502236;17a-30b-30c-30d-30e-31f-32g-32y-57y-62h
34480;Camino A Penco - Los Naranjos / Oriente;-36.78786293;-73.02338263;17a-30b-30c-30d-30e-31f-32g-32y-57y-62h
34481;Ruta 150 / Oriente;-36.78166127;-73.02063984;17a-30b-30c-30d-30e-31f-32g-32y-62h
34482;Ruta 150 / Oriente;-36.777908;-73.01824897;17a-30b-30c-30d-30e-31f-32g-32y-62h
34483;Ruta 150 / Oriente;-36.77461809;-73.01608167;17a-30b-30c-30d-30e-31f-32g-32y-62h
34484;Ruta 150 / Oriente;-36.76991557;-73.01352528;17a-30b-30c-30d-30e-31f-32g-32y-62h
34485;Ruta 150 - Oriente;-36.76743188;-73.01214418;17a-30b-30c-30d-30e-31f-32g-32y-62h
34486;Ruta 150 / Oriente;-36.76151063;-73.00732331;17a-30b-30c-30d-30e-31f-32g-32y-62h
34487;Ruta 150 / Oriente;-36.7567623;-73.00258475;17a-30b-30c-30d-30e-31f-32g-32y-62h
34488;Ruben Hurtado 78 / Oriente;-36.75068666;-72.99878852;17a-30e
34489;Max Grissar - Abate Molina;-36.74852728;-72.99955023;17a-30e
34490;Max Grissar 137;-36.74496968;-72.99863464;17a-30e
34491;Roberto Ovalle - Piscis / Sur;-36.74692319;-72.99581749;17a-30e
34492;Membrillar - Victoria;-36.74410192;-72.9952749;17a
34493;Membrillar - Cruz;-36.7428491;-72.99581147;17a
34494;Los Carrera - Chacabuco;-36.74106951;-72.99504022;17a
34495;Las Heras - Maipu;-36.73809781;-72.99359452;17a-30c-30d-30e
34497;Infante;-36.73558698;-72.98848625;17a-30b-30c-30d-30e-31f-32g-32y-62h
34519;Infante - Blanco;-36.73324737;-72.98977909;17a-62h
34520;Infante - Los Olivos;-36.73219335;-72.99034408;17a-62h
34521;Central;-36.7307135;-72.99131207;17a-62h
34522;Central / Oriente;-36.72699544;-72.99103944;17a-62h
34523;Central - Victor Orlaly / Oriente;-36.72626436;-72.99098011;17a-62h
34524;Central / Oriente;-36.72582045;-72.99084612;17a-62h
34525;Central - El Faro / Oriente;-36.72484852;-72.99040118;17a-62h
34526;Central - Pje 5 / Oriente;-36.7244012;-72.99006574;17a-62h
34527;Central - Pje 7 / Oriente;-36.72362558;-72.98950374;17a-62h
34528;Central / Sur;-36.72273647;-72.98809378;17a-62h
34529;C Al Puerto Lirquen / Sur;-36.72064688;-72.98445357;17a-17w-62h
34530;Terminal Hualqui;-36.96516125;-72.922673;18p-18y-81c-81s
34531;Bombero Perret - Bio Bio / Norte;-36.96677411;-72.92574043;18y-80q-81c
34532;Bombero Perret - Pje Pablo Neruda;-36.96781955;-72.92780124;18y-80q-81c
34535;Río Bio Bio - Pje Río Gomero;-36.96510815;-72.92685266;18p-80q
34537;4 Bombero Perret;-36.97030452;-72.9328222;18y
34538;La Araucana - O722;-36.97206275;-72.93752612;18y
34539;Av La Araucana - Patricio Lynch / N;-36.97058383;-72.94163225;18y-80j-80k-81c
34540;O60 - 3 / N;-36.96461451;-72.95293494;18y-80j-80k-81c
34541;O60 - 2 / S;-36.96413847;-72.95459875;18y-80j-80k-81c
34542;O60 - 2 / N;-36.96424619;-72.9545734;18p-80h-80q-81s
34546;O60 - 5 / N;-36.96944469;-72.94454968;18y-80j-80k-81c
34547;O60 - 4 / N;-36.96902064;-72.94504408;18y-80j-80k-81c
34548;O60 - 1 / N;-36.96422756;-72.95558475;18y-80j-80k-81c
34549;Talleres Omer Huett / Np;-36.96702966;-72.99729347;18y
34557;Porvenir - Pje 20 / N;-36.95009407;-73.02146556;10o-17o
34558;Porvenir - 12 De Octubre;-36.95126512;-73.0235914;10b-10c-10p-11e-11f-11q-11r-17o-17x
34559;12 De Octubre - Calle 1;-36.95244386;-73.02293205;10o-10p-11e-11f-11q-11r-17o
34560;Italia - Calle 5 / Sur;-36.95393502;-73.01992868;10j-10n-10p-17o
34561;Italia - Yugoslavia;-36.95330445;-73.01778881;10j-10n-10p-11e-11f-17o
34564;Grecia - 12 De Octubre;-36.95857418;-73.0122276;16k-16v-17o-80h-80q-81s
34586;San Martín - Janequeo;-36.8249353;-73.0403226;10j-14z-17o-18y-21q-22j-22r-22s-22x-24t-41c-42u-56v-72w-72z
34587;Hospital Regional De Concepción - San Martín;-36.8242315;-73.03863643;14z-17o-18y-21q-22j-22r-22s-22x-24t-41c-42u-56v-72w-72z
34588;San Martín - Roosevelt;-36.82371008;-73.03708016;14z-17o-18y-21q-22j-22r-22s-24t-41c-42u-56v-72w-72z
34589;Roosevelt - Valentín Letelier;-36.82217065;-73.03609929;14z-17o-18y-21q-22j-22r-22s-24t-41c-42u-44e-56v-63f-72w-72z-90y
34590;Univ Del Desarrollo - Roosevelt;-36.82142836;-73.03590526;14z-17o-18y-21q-22j-22r-22s-24t-41c-42u-44e-56v-63f-72w-72z-90y
34591;Roosevelt - Luis Urrutia Manzano;-36.82094882;-73.0357942;14z-17o-18y-21q-22j-22r-22s-24t-41c-42u-44e-56v-63f-72w-72z-90y
34592;Irarázaval - Pelantaro;-36.81954126;-73.03515754;17o-18y-21q-22j-22r-22s-24t-41c-42u-44e-56v-63f-72w-72z-90y
34593;Colegio Salesianos / Irarrazaval - Freire;-36.81874503;-73.0344268;14z-17o-18y-21q-22j-22r-22s-24t-41c-42u-56v-72w-72z-90y
34594;Irarrazaval - Hospital Guillermo Grant;-36.81701667;-73.03292399;14z-17o-18y-21q-22j-22r-22s-24t-41c-42u-56v-72w-72z-90y
34595;Maipú - Plaza Acevedo;-36.81622732;-73.0315205;17o-18y-22j-22r-22s-24t-52d-70f-70j-70k-71z-72w-72z-90y
34596;Gral Novoa - Chacabuco;-36.81614514;-73.02928057;17o-18y-22j-22k-22r-22s-23p-24f-24t-40b-52d-56v-70f-70j-70k-71z-72w-72z-90y
34597;Gral Novoa - Bernandino Corral;-36.81758193;-73.02570125;17o-18y-22j-22k-22r-22s-23p-24f-24t-40b-52d-56v-70f-70j-70k-71z-72w-72z-90y
34598;Gral Novoa - Tegualda;-36.81807294;-73.02433217;17o-18y-22j-22k-22r-22s-23p-24f-24t-40b-52d-56v-70f-70j-70k-71z-72w-72z-90y
34599;Superm Sta Isabel / Gral Novoa - Tegualda;-36.81831458;-73.02368696;17o-18y-22j-22k-22r-22s-23p-24f-24t-40b-52d-56v-70f-70j-70k-71z-72w-72z-90e-90y
34600;Gral Novoa - Lago Villarrica;-36.81899705;-73.02190935;17o-18y-22j-22k-22r-22s-23p-24f-24t-40b-52d-56v-70f-70j-70k-71z-72w-72z-90e-90y
34601;Gral Novoa - Caleuche;-36.81981394;-73.01954529;17o-18y-22j-22k-22r-22s-23p-24f-24t-40b-52d-56v-70f-70j-70k-71z-72w-72z-90y
34602;Gral Novoa - Los Lirios;-36.82029702;-73.01770549;17o-18y-22j-22k-22r-22s-23p-24m-24r-40b-52d-56o-70f-70j-70k-71z-72w-72z-90x
34603;Av. Collao - Paula Pineda;-36.82029417;-73.01537373;17o-18y-22k-22r-22s-23p-40b-52d-70f-70j-70k-71z-72w-72z
34605;Cno. Nonguén - El Vergel;-36.83345113;-73.00554787;17o-23p-70f-70j-70k-72w
34626;Univ. Del Bio Bio / Sur;-36.82155863;-73.00960108;17o-18y-22k-22r-22s-23p-40b-52d-70f-70j-70k-71z-72w-72z
34627;Cno. Nonguén - Central / Poniente;-36.82303127;-73.0087333;17o-22k-22s-23p-40b-70f-70j-70k-71z-72w
34628;Cno. Nonguén - Central1 / Poniente;-36.82519048;-73.0079598;17o-22k-22s-23p-40b-70f-70j-70k-71z-72w
34629;Cno. Nonguén - Río Andalién;-36.82872357;-73.00634335;17o-22k-22s-23p-40b-70f-70j-70k-71z-72w
34630;Cesfam Villa Nonguén / Poniente;-36.83103386;-73.00598065;17o-22k-22s-23p-40b-70f-70j-70k-71z-72w
34631;Cno. Nonguén - Calle 1 / Poniente;-36.8344945;-73.00541985;17o-23p-70f-70j-70k-72w
34632;Cno. Nonguén - Estanque / Poniente;-36.83603253;-73.00308123;17o-23p-70f-70j-70k-72w
34633;Pque Zoológico Concepción / Poniente;-36.84004573;-73.00698011;17o-17x-70f-70j-70k-72w
34634;Terminal De Buses Las Bahías;-36.84276298;-73.00938787;17o-17x-70f-70g-70h-70i-70j-70k-72j
34679;Av. Collao - Central / Sur;-36.82182853;-73.00795729;18y-22r-52d-70i-72z
34680;Av. Collao / P1 Sur;-36.82200696;-73.00516113;18y-22r-52d-70i-72z
34682;Av. Veintiuno De Mayo - Calle A / Poniente;-36.81878631;-72.98734162;18y-70i
34683;Av. Collao - P2 / Sur;-36.82211482;-73.00353274;18y-52d-70i-72z
34684;Chile - Concepcion / Poniente;-36.8254107;-72.99479184;18y-52d-70i
34685;Chile - Julio Diestre / Poniente;-36.82711261;-72.99416441;18y-52d-70i
34686;Jorge Giacaman - Los Acacios;-36.82621639;-72.99286485;18y-52d-70i
34687;Jorge Giacaman - Los Alamos / Oriente;-36.82410587;-72.99331239;18y-52d-70i
34688;Jorge Giacaman - Esperanza;-36.82327104;-72.99351357;18y-52d-70i
34689;Veintiuno De Mayo / Sur;-36.82070278;-72.99034074;18y-70i
34690;Av. Veintiuno De Mayo - Los Copihues / Oriente;-36.81942758;-72.98795261;18y-70i
34691;Calle A - Calle Dos;-36.81980841;-72.98595836;18y
34692;Collao - Gral Bonilla;-36.82113859;-72.99586748;18p
34693;Ruta 150 - Los Mañios / Poniente;-36.72520426;-72.97947502;17w-30m-30n-30q-30r-31d-32e-32h
34694;Av. Collao - P2 / Norte;-36.82201177;-73.00329999;18p-52a-70i
34695;Av Collao - P1 / Norte;-36.82186357;-73.0052097;18p-22c-52a-70i
34696;Av. Collao - Central / Norte;-36.82171046;-73.00736617;18p-22c-52a-70i
34731;Ruta 150 - El Manzano;-36.72970543;-72.98180928;17w
34732;Ruta 150 - Cementerio;-36.73065777;-72.98269136;17w
34733;Ruta 150;-36.73199579;-72.98452637;17w
34734;Cochrane - Tolten;-36.73366642;-72.98790929;17w
34735;Cochrane - Infante;-36.73402751;-72.98900847;17w-30m-30n-30q-30r-31d-32e-32h
34736;Cochrane - Alcazar;-36.73453072;-72.9905183;17w-30m-30n-30q-30r-31d-32e-32h-62m
34737;Cochrane - Hierbas Buenas;-36.73498396;-72.99173829;17w-30m-30n-30q-30r-31d-32e-32h-62m
34738;Cochrane - J Martinez;-36.73530765;-72.99276009;17w-30m-30n-30q-30r-31d-32e-32h-62m
34773;Maipu - Freire;-36.73679038;-72.99409889;17w-30m-30n-30q-30r-31d-32e-32h-62m
34774;Freire - Membrillar;-36.73825599;-72.99763314;17w-30m-30q-30r-31d-32e-32h-62m
34775;Freire - San Vicente;-36.73910712;-73.00000758;17w-30m-30q-30r-31d-32e-32h-62m
34776;San Vicente - Bernardo Ohiggins;-36.74119241;-73.00019984;17w-30m-30q-30r-31d-32e-32h-62m
34777;Ruta 150 / Sur;-36.74915441;-73.00039637;17w-30m-30q-30r-31d-32e-32h-62m
34778;Ruta 150 / Poniente;-36.75155594;-73.00009881;17w-30m-30q-30r-31d-32e-32h-62m
34779;Ruta 150 / Poniente;-36.75663242;-73.00290176;17w-30m-30n-30q-30r-31d-32e-32h-62m
34780;Ruta 150 / Poniente;-36.76105961;-73.00730137;17w-30m-30n-30q-30r-31d-32e-32h-62m
34781;Ruta 150 - Poniente;-36.76701013;-73.0122559;17w-30m-30n-30q-30r-31d-32e-32h-62m
34782;Ruta 150 / Poniente;-36.7696847;-73.01373289;17w-30m-30n-30q-30r-31d-32e-32h-62m
34783;Ruta 150 / Poniente;-36.77357697;-73.01580601;17w-30m-30n-30q-30r-31d-32e-32h-62m
34784;Ruta 150 / Poniente;-36.77766811;-73.01845683;17w-30m-30n-30q-30r-31d-32e-32h-62m
34785;Ruta 150 / Poniente;-36.78140298;-73.02082576;17w-30m-30n-30q-30r-31d-32e-32h-57p-62m
34789;Talleres Omer Huett / Sp;-36.96716915;-72.99754816;18p
34790;Talleres Omer Huett / No;-36.96733787;-72.99633066;18p-80h-80q-81s
34791;Ruta O60;-36.96555046;-72.95651531;18p-80h-80q-81s
34792;Camino A Penco - Los Naranjos / Poniente;-36.78786814;-73.02369626;17w-30m-30n-30q-30r-31d-32e-32h-57p-62m
34793;Camino A Penco - Calle Dos / Poniente;-36.79176219;-73.02534443;17w-30m-30n-30q-30r-31d-32e-32h-57p-62m
34794;Camino A Penco - Calle Ocho;-36.79411189;-73.02572117;17w-30m-30n-30q-30r-31d-32e-32h-57p-62m
34795;Camino A Penco / Poniente;-36.79695486;-73.02595078;17w-30m-30n-30q-30r-31d-32e-32h-57p-62m
34796;Camino A Penco - Calle Cuatro;-36.79985662;-73.02592112;17w-30m-30n-30q-30r-31d-32e-32h-57p-62m
34797;Camino A Penco / Poniente;-36.80393683;-73.0252111;17w-30m-30n-30q-30r-31d-32e-32h-57p-62m
34798;Plaza De Hualqui - Irarrázabal;-36.9764847;-72.93888956;18p
34799;Irarrázaval - Perelló Puig;-36.81312654;-73.02987363;17w-30m-30n-30q-30r-31d-32e-32h-57p-62m-72k
34800;Hospital Clínico Del Sur - Irarrázaval;-36.81402338;-73.03069138;17w-30m-30n-30q-30r-31d-32e-32h-43t-57p-62m-62n-65d-72k
34801;Los Carrera - Fresia;-36.81568269;-73.03401188;14u-17w-17x-18p-21b-22c-22d-22n-22o-23l-23q-23t-24m-24r-30m-30n-30q-30r-31d-32e-32h-40p-41r-42h-43t-52a-56o-57p-62m-62n-65d-70g-70h-70i-71i-72j-72k-90j-90x
34802;Vilumilla - Las Heras;-36.81563513;-73.03604213;14u-17w-17x-18p-22c-22d-40p-41r-42h-43t-52a-56o-62m-62n-65d-70g-70h-70i-71i-72j-72k-90j-90x
34803;Vilumilla - Maipú;-36.81736592;-73.03496654;14u-17w-17x-18p-22c-22d-40p-41r-42h-43t-52a-56o-62m-62n-65d-70g-70h-70i-71i-72j-72k-90j-90x
34804;Vilumilla - Freire;-36.81823957;-73.03438367;14u-17w-17x-18p-22c-22d-40p-41r-42h-43t-52a-56o-62m-62n-65d-70g-70h-70i-71i-72j-72k-90j-90x
34805;Freire - Lientur;-36.81930899;-73.03637423;14u-17w-17x-18p-22c-22d-40p-41r-42h-43t-52a-56o-62m-62n-65d-71i-90j-90x
34806;Lientur - Barros Arana;-36.820307;-73.0362254;14u-17w-17x-18p-21b-22c-22d-24m-30q-30r-31d-32e-32h-43t-56o-57p-62m-62n-63h-70g-70h-70i-72j-72k-90j-90x
34807;Roosevelt - Bdo O'Higgins;-36.82182132;-73.03623154;14u-17w-17x-18p-21b-22c-22d-24m-30q-30r-31d-32e-32h-43t-56o-57p-62m-62n-63h-70g-70h-70i-72j-72k-90j-90x
34808;Bdo O'Higgins - Galvarino;-36.8224843;-73.03762719;14u-17w-17x-18p-21b-22c-22d-22e-24m-30q-30r-31d-32e-32h-43t-56o-57p-62m-62n-70g-70h-70i-72j-72k-90x
34809;Bdo O'Higgins - Janequeo;-36.82355649;-73.04033535;14u-17w-17x-18p-21b-22c-22d-22e-24m-30q-30r-31d-32e-32h-43t-56o-57p-62m-62n-70g-70h-70i-72j-72k-90x
34810;Portales - José Miguel Carrera;-36.97445773;-72.93634938;18p
34811;Bdo O'Higgins - Paicaví;-36.82407122;-73.0414882;14u-17w-17x-18p-21b-22c-22d-22e-24m-30q-30r-31d-32e-32h-43t-56o-57p-62m-62n-70g-70h-70i-72j-72k-90x
34818;O60 - 1 / S;-36.96430458;-72.95534683;18p-80h-80q-81s
34819;O60 - 3 / S;-36.96450534;-72.95339836;18p-80h-80q-81s
34820;O60 - 4 / S;-36.96920159;-72.94508414;18p-80h-80q-81s
34821;O60 - 5 / S;-36.969988;-72.94417562;18p-80h-80q-81s
34822;Av La Araucana - Patricio Lynch / S;-36.97089212;-72.94121957;18p-80h-81s
34823;Plaza De Hualqui - Manuel Bulnes;-36.97602299;-72.93773374;18p
34824;O - 52;-36.97355056;-72.93238615;18p
34828;Bdo O'Higgins - Serrano;-36.83075115;-73.05748605;17w-17x-30q-30r-31d-32e-32h-42f-50u-56o-57p-57y-62m-62n-70g-70h-70i-72j-72k-80h-90x-B02
34831;Pedro De Valdivia - Rancagua / Ponniente;-36.83667505;-73.05596819;11q-11r-16k-16v-17w-17x-60z-72j-72k-80h-80q-80z-81s
34846;B Ohiggins - Caupolican;-36.8973938;-73.03225384;10o-12b-14u-17w-18p-80z-81s
34847;Bdo O'Higgins - Calle1 / Poniente;-36.89996411;-73.03071768;10o-12b-14u-17w-18p-18y-80z-81s
34848;Bdo O'Higgins - Colón / Poniente;-36.90284789;-73.03014974;10o-12b-14u-17w-18p-80z-81s
34849;Bdo O'Higgins - Pje 6;-36.90464036;-73.0300812;10o-12b-14u-17w-18p-80z-81s
34850;Bdo O'Higgins - Arauco;-36.90793364;-73.02974958;10o-12b-14u-17w-18p-80z-81s
34851;Bdo O'Higgins - Silva;-36.90966099;-73.02955923;10o-12b-14u-17w-18p-80z-81s
34852;Bdo O'Higgins - Vilumilla;-36.91234537;-73.02946771;10o-12b-14u-17w-18p-80z-81s
34853;Bdo O'Higgins - Portales;-36.91484285;-73.0289769;10o-12b-14u-17w-18p-80z-81s
34854;Chiguayante / Poniente;-36.91586923;-73.02836679;10o-12b-14u-17w-18p-80z-81s
34868;Italia - Portugal;-36.95289025;-73.01565458;10p-17w-17x
34869;Italia - Calle 5 / Norte;-36.95391831;-73.02000773;10a-10c-10p-17w-17x
34870;12 De Octubre - Italia;-36.9544378;-73.02089271;10a-10c-10p-17w-17x
34871;Porvenir - Pje 2;-36.95096823;-73.0230825;10b-10c-17w-17x
34872;Porvenir - Pje 20 / Sur;-36.95012091;-73.02145363;10b-10c-17w-17x
34873;Calle 2 - El Molino;-36.95087535;-73.01859295;10b-17w-17x
34874;Calle 1 - Av La Araucana;-36.97297478;-72.93296338;18p-81s
34875;Guacolda - Bombero Ferret;-36.97071597;-72.93315928;18p-81s
34876;Guacolda - Los Acacios;-36.97008183;-72.93349094;18p-80h-80q-81s
34877;Calle 1 - Los Olivos;-36.96975243;-72.9337245;18p-80h-80q-81s
34878;Calle 1 - Los Alerces - / Oriente;-36.96852175;-72.93447665;18p-81s
34879;Los Quelues - Javiera Carrera;-36.96770626;-72.9347458;18p-81s
34880;Cementerio - Ateuco / Norte;-36.966541;-72.93511425;18p-81c-81s
34881;Cementerio - El Aguila;-36.96657071;-72.93630404;18p-81c-81s
34882;El Aguila - Pje La Palma;-36.96539683;-72.93669516;18p-81c-81s
34883;El Aguila - Huilliches;-36.96439079;-72.9368908;18p-81c-81s
34884;El Aguila - Picunches;-36.96313176;-72.93653168;18p-81c-81s
34885;Lautaro - Pje Paicaví;-36.96292794;-72.93569482;18p-81c-81s
34886;Caupolicán - Lautaro;-36.96278815;-72.93491239;18p-81c-81s
34887;Caupolicán - Colo Colo;-36.96166795;-72.93476296;18p-81c-81s
34888;El Aguila - Colo Colo;-36.96118866;-72.93622474;18p-81c-81s
34889;Cementerio - Ateuco / Sur;-36.96668514;-72.93511036;18p-81c-81s
34890;Escuela Los Libertadores De Hualqui;-36.96667093;-72.93274078;18p-81s
34891;Chile - Argentina;-36.96634136;-72.93141309;18p-80q
34892;Chile - Gabriela Mistral;-36.96539684;-72.92945062;18p-80q
34893;Sta María / Sur;-36.96224208;-72.929435;18p-80q
34912;Ruta 160 - Llacolén;-36.83879215;-73.09037381;20l-20v-20w-21b-22c-22d-22n-22o-23l-23t
34932;Homecenter / Los Carrera - Ongolmo;-36.82042977;-73.04531423;20l-20v-20w-22n-22o-23l-23q-23t-24r-70k
34933;Los Carrera - Tucapel;-36.82144367;-73.04777726;20l-20v-20w-22n-22o-23l-23q-23t-24r-70k
34934;Los Carrera - Colo Colo;-36.82235291;-73.04990669;20l-20v-20w-22n-22o-23l-23q-23t-24r-70k-90j
34935;Los Carrera - Caupolicán;-36.82344063;-73.05248009;20l-20v-20w-22n-22o-23l-23q-23t-24r-70k-90j
34936;Los Carrera - Lincoyán;-36.82451212;-73.05516609;20l-20v-20w-22n-22o-23l-23q-23t-24r-70k-90j
34937;Los Carrera - Salas;-36.82566463;-73.05785012;20l-20v-20w-22n-22o-23l-23q-23t-24r-70k-90j
34938;Los Carrera - Arturo Prat;-36.82664188;-73.060292;20l-20v-20w-22n-22o-23l-23q-23t-24r-65d-90j
34939;Univ. Sto. Tomás / Los Carrera - Arturo Prat;-36.82705329;-73.06120098;20l-20v-20w-22n-22o-23l-23t-24r-65d
34940;Ruta 160 - Centro Los Heroes / Norte;-36.83875856;-73.09389571;20l-20v-20w-21b-22c-22d-22n-22o-23l-23t
34941;Ruta 160 - Versluys / Norte;-36.8386979;-73.09629692;20l-20v-20w-21b-22c-22d-22n-22o-23l-23t
34942;Ruta 160 - Av Pdte. Jorge Alessandri / Norte;-36.83854457;-73.10079736;20l-20v-20w-22c-22d-22n-22o-23l-23t
34943;Av Pedro Aguirre Cerda - Av San Pedro;-36.83815828;-73.10765837;20l-20v-20w-22d-22e-22n-22o-23l-23t-40g-40n
34944;Ruta 160 / Sur;-36.83805586;-73.11028486;20l-20v-20w-22j-22k-22r-22s-22x-23n-23p-40n
34945;Ruta 160 - Diagonal Biobio;-36.83754993;-73.1193017;20l-20v-20w-22c-22d-22n-22o-22r-23l-23t
34946;Daniel Belmar / Rotonda / Norte;-36.83997307;-73.13006368;20l-20v-22d-22n-23l-23q
34947;Acceso A Rodriguez Aldea;-36.8370828;-73.13484369;20l-20v-22d-22n-23l-23q
34948;Rodriguez Aldea - Pasaje Cinco A / Norte;-36.83666127;-73.13727602;20l-20v-22d-22n-23l-23q
34949;Rodriguez Aldea - Pasaje Seis / Norte;-36.83672955;-73.13818264;20a-20j-20l-20v-20z-22d-22n-23l-23q
34950;Rodriguez Aldea - Doce De Febrero / Norte;-36.83691179;-73.14061153;20l-20v-22d-22n-23l-23q
34951;Rodriguez Aldea - Tercera Transversal / Norte;-36.83702022;-73.1423582;20l-20v-22d-22n-23l
34952;Rodriguez Aldea - Coronel Patiño / Norte;-36.83711629;-73.14389211;20l-20v-22d-22n-23l
34953;Rodriguez Aldea / Miguel Bayer / Norte;-36.8372943;-73.14663511;20l-20v-22d-22n-23l
34954;Rodriguez Aldea - Calle Dos;-36.83744776;-73.14896381;20l-20v-22d-22n-23l
34955;Las Amazonas - Primera Longitudinal / Poniente;-36.83895382;-73.14901721;20l-20v-22d-22n-23l
34956;Las Amazonas - Segunda Longitudinal;-36.84020429;-73.14886371;20l-20v-22d-22n-23l
34957;Segunda Longitudinal - Miguel Brayer;-36.84011503;-73.14602876;20l-20v-22d-22n-23l
34958;Segunda Longitudinal - Cuarta Transversal;-36.83985757;-73.1428166;20l-20v-22d-22n
34959;Rodriguez Aldea - Pasaje Seis / Sur;-36.83683714;-73.13814639;20a-20j-20l-20v-20w-20z-22k-22s-23a-23p
34960;Daniel Belmar / Templo;-36.83539965;-73.13786728;20l-20v-20w
34961;Parroquia El Buen Pastor / Oriente;-36.83378419;-73.13831011;20l-20v-20w
34962;Servicio Austral / Oriente;-36.83005087;-73.13877062;20l-20v-20w
34963;Av. Venus - Los Boldos;-36.82840081;-73.14045878;20l-20v-20w
34964;Av. Venus - Bio Bio / Norte;-36.82847365;-73.14281158;20l-20v-20w
34965;Saturno / Oriente;-36.82736325;-73.14443053;20l-20v-20w
34966;Mercurio - Tierra / Norte;-36.82558739;-73.14672698;20l-20v-20w
34967;Av. Venus / Boca Sur;-36.82872039;-73.14764928;20l-20v-20w
34968;El Sol - Pasaje Ganimides / Oriente;-36.82651256;-73.14883492;20a-20j-20z
34969;Mercurio - Tierra / Sur;-36.82563953;-73.1466024;20a-20j-20z
34970;Saturno / Poniente;-36.82722084;-73.14454609;20a-20j-20z
34971;Av. Venus - Bio Bio / Sur;-36.82860767;-73.14331288;20a-20j-20z
34972;Av. Venus - Galvarino / Sur;-36.82856057;-73.1414528;20a-20j-20z
34973;Av. Venus - Daniel Belmar;-36.82864011;-73.13962329;20a-20j-20z
34974;Servicio Austral / Poniente;-36.83002594;-73.13890577;20a-20j-20z
34975;Parroquia El Buen Pastor / Poniente;-36.83381297;-73.13842155;20a-20j-20z
34976;Daniel Belmar - Pasaje Uno;-36.83534788;-73.1380143;20a-20j-20z
34977;Doce De Febrero - Segunda Longitudinal;-36.83947271;-73.14068408;20a-20j-20z-23q
34978;Segunda Longitudinal - Pasaje Catorce;-36.83974823;-73.14274075;20a-20j-20z-22k-22s-23a-23q
34979;Segunda Longitudinal - Pasaje Diecisiete;-36.83999091;-73.1455832;20a-20j-20z-22k-22s-23a-23p
34980;Segunda Longitudinal - Las Amazonas;-36.84025538;-73.14867185;20a-20j-20z-22k-22s-23a-23p
34981;Las Amazonas - Primera Longitudinal / Oriente;-36.83888936;-73.14892906;20a-20j-20z-22k-22s-23a-23p
34982;Calle Dos - Rodriguez Aldea;-36.83759332;-73.14905001;20a-20j-20z-22k-22s-23a-23p
34983;Rodriguez Aldea - Miguel Bayer / Sur;-36.83737521;-73.14662194;20a-20j-20z-22k-22s-23a-23p
34984;Rodriguez Aldea - Coronel Patiño / Sur;-36.83720552;-73.14383389;20a-20j-20w-20z-22k-22s-23a-23p
34985;Rodriguez Aldea - Tercera Transversal / Sur;-36.83711933;-73.1423558;20a-20j-20w-20z-22k-22s-23a-23p
34986;Rodriguez Aldea - Doce De Febrero / Sur;-36.83702412;-73.14087793;20a-20j-20w-20z-22k-22s-23a-23p
34987;Daniel Belmar - Segunda Longitudinal;-36.83836062;-73.13471173;20a-20j-20z-22k-22s-23a-23p
34988;Daniel Belmar / Rotonda / Sur;-36.84012888;-73.13022809;20a-20j-20z-22k-22s-23a-23p
34989;Ruta 160 - Pasaje Noventa;-36.83775277;-73.11731195;20a-20j-20z-22j-22k-22r-22s-22x-23n-23p-24f-24t-40n
34990;Ruta 160 / Sur;-36.83796619;-73.11371839;20a-20j-20z-22j-22k-22r-22s-22x-23n-23p-40n
34991;Ruta 160 / Sur;-36.83834002;-73.10435711;20a-20j-20z-22j-22k-22r-22s-22x-23n-40n
34992;Av Pedro Aguirre Cerda 1501;-36.83861474;-73.10180485;20a-20j-20z-22j-22k-22r-22s-22x-23n-23p-40n
34993;Ruta 160 - Versluys / Sur;-36.83878398;-73.09716945;20a-20j-20z-21q-22j-22k-22s-22x-23n-23p
34994;Ruta 160 - Centro Los Heroes / Sur;-36.83892594;-73.09421675;20a-20j-20z-21q-22j-22k-22r-22s-22x-23n-23p
34995;Av Pedro Aguirre Cerda / Pincheira;-36.83906874;-73.09132009;20a-20j-20z-21q-22j-22k-22r-22s-22x-23n-23p
34996;Mall Plaza Mirador - Los Carrera;-36.82868482;-73.06397402;20a-20z-22k-23n-23p-24f
34997;Los Carrera - Arturo Prat;-36.82733131;-73.06111548;20a-20z-22k-23n-23p-24f
35043;Tucapel - Pje Las Rosas;-36.85457762;-73.13541679;20w-22o-23t
35044;Ruta 160 - Daniel Belmar / Poniente;-36.84156624;-73.12935203;20w-22c-22o-23t
35045;Ruta 160 - Av Michaihue / Poniente;-36.84617589;-73.13074248;20w-22c-23t
35046;Ruta 160 - Colegio Alborada / Poniente;-36.84812978;-73.13118836;20w-22c
35047;Central - Av Las Torres;-36.85299188;-73.13775454;20w-22o-23a-23q-23t
35048;Central - Pasaje Treinta Y Dos;-36.85278742;-73.14023818;20w-22o-23t
35049;Central / Poniente;-36.85265547;-73.14159848;20w-22o-23t
35050;Lautaro / Sur;-36.85360267;-73.14222606;20w-22o-23t
35051;Galvarino - Central / Oriente;-36.85260437;-73.14582803;20w-22o-23a-23q-23t
35052;Central - Pasaje Sesenta Y Ocho;-36.85213113;-73.14669185;20w-22o-23t
35053;Central - Calle C / Oriente;-36.85070876;-73.14795989;20w-22o-23t
35054;Central - Loncomilla;-36.84915975;-73.14804213;20w-23t
35055;Central - Los Boldos / Oriente;-36.84726871;-73.14815505;20w-22o-23t
35056;Central - Pasaje Ciento Doce / Oriente;-36.84607092;-73.14821759;20w-22o-23t
35057;Central - Pasaje Ciento Veintiuno / Oriente;-36.84373909;-73.14838598;20w-22o-23t
35058;Cno. Nonguén - Las Vertientes;-36.83675967;-73.00344357;17x-70g-70h-70i-71i-72j
35059;Cno. Nonguén - Estanque / Oriente;-36.8360939;-73.00297872;17x-23l-70g-70h-70i-72j
35060;Escuela Leopoldo Lucero / Cno Nonguén;-36.83500893;-73.00438612;17x-23l-70g-70h-70i-72j
35061;Cno. Nonguén - Calle 1 / Oriente;-36.83444701;-73.00527532;17x-23l-70g-70h-70i-72j
35062;Cesafam Villa Nonguén / Oriente;-36.83090453;-73.0057934;17x-22d-22n-23l-40p-70g-70h-70i-71i-72j
35063;Cno Nonhuén - Río Toltén;-36.82925829;-73.0059819;17x-22d-22n-23l-40p-70g-70h-70i-71i-72j
35064;Cno. Nonguén - Río Palena;-36.82785605;-73.0062089;17x-22d-22n-23l-40p-70g-70h-70i-71i-72j
35065;Cno. Nonguén - Río Itata;-36.82708332;-73.00635229;17x-22d-22n-23l-40p-70g-70h-70i-71i-72j
35066;Cno. Nonguén - Central1 / Oriente;-36.82537441;-73.00764111;17x-22d-22n-23l-40p-70g-70h-70i-71i-72j
35067;Cno. Nonguén - Central / Oriente;-36.82316547;-73.00867377;17x-22d-22n-23l-40p-70g-70h-70i-71i-72j
35068;Cno. Nonguén - Collao;-36.82190886;-73.00844849;17x-22d-22n-23l-40p-70g-70h-70i-71i-72j
35069;Univ. Del Bio Bio / Norte;-36.82139515;-73.00952684;17x-18p-22c-22d-22n-22o-23l-40p-52a-70g-70h-70i-71i-72j
35070;Av. Collao - Mercedes Marín Del Solar;-36.82037533;-73.01375729;17x-18p-22c-22d-22n-22o-23l-40p-52a-70g-70h-70i-71i-72j
35071;Escuela René Loubel Bert;-36.82014122;-73.01485078;17x-18p-22c-22d-22n-22o-23l-40p-52a-70g-70h-70i-71i-72j
35072;Av. Collao - Chiloé;-36.81922021;-73.01799111;17x-18p-22c-22d-22j-22n-22o-23l-24m-24r-40p-52a-56o-70g-70h-70i-71i-72j-90x
35073;Av. Collao - Cnel José Seguel;-36.81880868;-73.01925731;17x-18p-22c-22d-22n-22o-23l-24m-24r-40p-52a-56o-70g-70h-70i-71i-72j-90x
35074;Estadio Atletico Militar;-36.8181867;-73.02087643;17x-18p-22c-22d-22n-22o-23l-24m-24r-40p-52a-56o-70g-70h-70i-71i-72j-90x
35075;Estadio Collao;-36.81693702;-73.02431654;14u-17x-18p-21b-22c-22d-22n-22o-23l-23q-23t-24m-24r-40p-41r-42h-52a-56o-70g-70h-70i-71i-72j-90j-90x
35076;Collao - Maipú;-36.81517798;-73.02911481;14u-17x-18p-21b-22c-22d-22n-22o-23l-23q-23t-24m-24r-40p-41r-42h-52a-56o-70g-70h-70i-71i-72j-90x
35077;Collao - Irarrazaval;-36.81463964;-73.0303505;14u-17x-18p-21b-22c-22d-22n-22o-23l-23q-23t-24m-24r-40p-41r-42h-52a-56o-70g-70h-70i-71i-72j-90j-90x
35078;Memorial Costanera;-36.83273807;-73.06491462;20j-21q-22j-22r-22s-22x-24t-40n-63g
35079;Esmeralda - Nueva Costanera;-36.8369188;-73.05985301;20j-21q-22j-22r-22s-22x-24t-40n-63g
35080;Esmeralda - Errázuriz;-36.83623379;-73.05874901;20j-21b-22c-22e-24m-40g
35081;Victor Lamas - Bombero Fuentes;-36.83485243;-73.05474727;20j-21q-22j-22r-22s-22x-24t-40n-63g
35082;Serrano - Chacabuco;-36.83311966;-73.05516118;20j-21b-22c-22e-24m-40g-63i
35103;Tegualda - Terminal Collao;-36.81486625;-73.02228473;14u-14z-21b-21q-23a-23n-23q-23t-41c-41r-42h-42u-90e
35108;Pelantaro - Las Heras;-36.81606992;-73.03726413;21b-24m-30m-30n-30q-30r-31d-32e-32h-44e-63f-63p-65r
35125;Costanera - Central Norte;-36.83178853;-73.06527492;21b-22c-22e-24m-40g
35127;Los Peñascales;-36.83512016;-73.1008372;21b
35128;Av Las Margaritas - Los Crisantelmos;-36.83697163;-73.10276496;21b
35129;Av Las Margaritas - Las Petunias;-36.8364334;-73.11311689;21b
35130;Av Las Rosas - Pje Las Yerbateras;-36.83476565;-73.10460233;21b
35131;Terminal;-36.83052934;-73.12391374;21b-21q
35134;Juan Pablo II;-36.83855385;-73.09743306;21b-Linea 2
35135;Av Pdte. Jorge Alessandri / Oriente;-36.83506282;-73.10119744;21b
35136;Av Las Rosas - Las Azaleas;-36.83446748;-73.11021618;21b
35137;Enrique Soro / Oriente;-36.83170082;-73.10063023;21b-23q
35138;Enrique Soro - Pasaje Dos / Norte;-36.83115016;-73.10226966;21b-23q
35139;Enrique Soro - Crispulo Gandara / Norte;-36.83098943;-73.10518887;21b-23q
35140;Enrique Soro - Los Cipreses / Norte;-36.83086662;-73.10709802;21b-23q
35141;Enrique Soro - Ted Guzman / Norte;-36.83060908;-73.10960473;21b-23q
35142;Enrique Soro - Moises Amaral / Norte;-36.83039962;-73.11287269;21b-23q
35143;Enrique Soro - Los Claveles / Norte;-36.83030266;-73.11471391;21b-23q
35144;Enrique Soro - Las Garzas / Norte;-36.83040405;-73.11656146;21b-23q
35145;Las Garzas - Las Violetas / Poniente;-36.83195481;-73.11659071;21b
35146;Las Golondrinas / Oriente;-36.83567674;-73.1165555;21b
35147;Calle E;-36.83347662;-73.11706918;21b
35148;Candelaria - Los Choroyes;-36.83390869;-73.11874053;21b
35149;Av Las Torres - La Marina;-36.82927236;-73.1230811;21b-21q-23a-40g
35150;Av Las Torres - Ejercito;-36.82806138;-73.12630613;21b-21q-23a-40g-40n
35151;Av Las Torres - Pasaje Cinco / Norte;-36.82733369;-73.12817386;21b-21q-23a-40n
35152;Av Las Torres - Pasaje Cinco / Sur;-36.82749675;-73.12822595;21b-21q-23q
35153;Av Las Torres - Pasaje Uno;-36.82896023;-73.12443419;21b-21q-23q
35154;Candelaria - Las Tortolas;-36.83407108;-73.11931962;21q
35155;Candelaria - Los Pidenes;-36.83392911;-73.11775329;21q
35156;Las Garzas - Las Violetas / Oriente;-36.83194349;-73.11644522;21q
35157;Las Garzas - Enrique Soro;-36.83078389;-73.11664185;21q
35158;Enrique Soro - Los Claveles / Sur;-36.83039187;-73.11465566;21q-23a
35159;Enrique Soro - Moises Amaral / Sur;-36.83049891;-73.11288147;21q-23a
35160;Enrique Soro - Ted Guzman / Sur;-36.83068187;-73.10964779;21q-23a
35161;Enrique Soro - Los Cipreses / Sur;-36.83088732;-73.10726569;21q-23a
35162;Enrique Soro - Crispullo Gandara / Sur;-36.83106133;-73.10517589;21q-23a
35163;Enrique Soro - Pasaje Dos / Sur;-36.83131215;-73.10225445;21q-23a
35164;Enrique Soro - Las Violetas;-36.8324358;-73.10093722;21q-23a
35165;Av Pdte. Jorge Alessandri / Poniente;-36.83459826;-73.10145561;21q
35172;Salas - Chacabuco;-36.83325321;-73.05340861;21q-22j-22r-22s-22x-24t-40n
35173;Salas - Cochrane;-36.83209317;-73.05412198;21q-22j-22r-22s-22x-24t-40n
35190;Irarrazaval - Gral Novoa;-36.81493871;-73.03099301;14z-21q-23a-41c-42u-56v-65q-90e
35192;Av Gral Oscar Bonilla - Regimiento / Sur;-36.81240052;-73.02522905;14z-21q-23a-23n-41c-42u-90e
35234;Ruta 160 / Costamar;-36.85496977;-73.13283879;22c
35235;Ruta 160 - Uno / Poniente;-36.86987166;-73.13646975;22c
35236;Ruta 160 / Poligono Industrial;-36.87561683;-73.13785593;22c
35237;Manuel Rodriguez / Central Electrica;-36.88061272;-73.13744288;22c
35238;Manuel Rodriguez / Escuela Lenguaje;-36.88089604;-73.13539399;22c
35239;Manuel Rodriguez / Iglesia;-36.8811302;-73.13366044;22c
35240;Los Castaños - Gabriela Mistral;-36.88207518;-73.13357011;22c
35241;Los Castaños - Victoria;-36.88387483;-73.13395266;22c
35242;Victoria - Los Castaños;-36.88424531;-73.13343873;22c
35243;Victoria - Los Cipreses;-36.88447202;-73.13180626;22c
35244;Progreso - Victoria;-36.8848252;-73.13019314;22c
35245;Progreso - Los Sauces;-36.88691069;-73.13041156;22c
35246;Progreso / Sur;-36.88900326;-73.13050639;22c
35247;Jerusalem - Los Boldos;-36.88901329;-73.13229029;22c
35248;Jerusalem / Poniente;-36.88809523;-73.13811385;22c
35249;Javier Carrera - Las Araucarias;-36.8870119;-73.13857778;22c
35250;Javier Carrera;-36.88448246;-73.13821283;22c-22r
35251;Coloane / Intermedia;-36.8938229;-73.13321669;22r
35259;Ruta 160 - Jerusalem / Oriente;-36.88800599;-73.1404724;22r
35260;Benjamin Subercaseaux - Luis Duran;-36.89368844;-73.13958267;22r
35261;Benjamin Subercasseaux - Edgard Garrido;-36.89423828;-73.13613545;22r
35262;Benjamin Subercaseaux / Oriente;-36.89483203;-73.13204747;22r
35263;Polígono Coloane / Oriente;-36.89418299;-73.13146854;22r
35264;Edgard Garrido - Daniel Belmar;-36.89339227;-73.13563983;22r
35265;Maria Luisa Bombal / Oriente;-36.8923388;-73.13628264;22r
35266;Maria Luisa Bombal - Pje Juan Guzman;-36.89192291;-73.13907568;22r
35267;Maria Luisa Bombal / Poniente;-36.89166995;-73.14076503;22r
35268;Ruta 160 / Carrozi;-36.88144681;-73.13890364;22r
35269;Ruta 160 / Central Electrica;-36.87997205;-73.13854675;22r
35270;Ruta 160 / Colegio Galvarino;-36.87783694;-73.13803762;22r
35271;Cementerio Parque San Pedro;-36.86993811;-73.13610916;22r
35272;Ruta 160 - Lagunillas Callejon;-36.85564269;-73.13264296;22r
35273;Ruta 160 - Colegio Alborada;-36.84780808;-73.13079245;22r
35274;Ruta 160 - Av Michaihue / Oriente;-36.84609782;-73.13036308;22r
35275;Ruta 160 - Daniel Belmar / Oriente;-36.84135973;-73.12883;22j-22r-23n
35318;Los Copihues - Los Crisantemos;-36.83616903;-73.00101449;22d-22n-71i
35319;30 De Octubre - Azucenas;-36.83452231;-73.00224591;22d-22n-40p-71i
35320;30 De Octubre - Los Tilos;-36.83368075;-73.00311997;22d-22n-40p-71i
35321;Cno. Nonguén - 30 De Octubre;-36.83290945;-73.00549466;22d-22n-23l-40p-70g-70h-70i-71i-72j
35387;Rene Schneider - Pje Los Lobos;-36.84571675;-73.14054407;22d-22n-23l-23q
35399;Longitudinal Uno - Manuel Rodriguez / Norte;-36.84217908;-73.14025969;22d-22n
35400;Rene Schneider - Volcan Villarrica / Poniente;-36.84785514;-73.14011096;22d-22n
35401;Nueva Los Copihues - Pasaje Nueve / Sur;-36.84856509;-73.13709933;22d-22n
35402;Galvarino - Loncomilla;-36.84949187;-73.14217976;22d-22j-22k-22n-22o-22s
35409;Pincheira - Lota;-36.84018504;-73.09067558;22e-24m-24r-40g-63i
35410;Terminal Candelaria;-36.82467043;-73.13018957;22e-24m-24r
35411;Michimalongo - Galvarino;-36.84181487;-73.09170038;22e-24m-24r-40g
35412;Av. Michimalongo - Centro Comercial;-36.84277994;-73.09342581;22e-24m-24r-40g
35413;Av. Michimalongo - Servicentro Copec;-36.84406652;-73.09721795;22e-24m-24r-40g
35414;Forestal Mininco / Oriente;-36.84336006;-73.09869331;22e-40g
35415;Los Canelos - Cangrejeras / Oriente;-36.84190439;-73.09953677;22e-40g
35416;Los Canelos - Madreselvas / Oriente;-36.84068046;-73.10021748;22e-40g
35417;Ruta 160 - Av Los Claveles;-36.83754374;-73.11492861;22e-40g
35418;Diagonal Bio Bio;-36.83737036;-73.11820718;22e-24m-24r-40g-Linea 2
35419;Av. Diagonal Biobio - Las Torcazas / Oriente;-36.83648322;-73.11910356;22e-23a-24m-24r-40g
35420;Av. Diagonal Biobio - Las Palomas / Oriente;-36.83532418;-73.11990565;22e-23a-24m-24r-40g
35421;Av. Diagonal Biobio - Candelaria / Oriente;-36.83392326;-73.12023149;22e-23a-24m-24r-40g
35422;Av. Diagonal Biobio - Los Abetos / Oriente;-36.8320434;-73.12047933;22e-23a-24m-24r-40g
35423;Av. Diagonal Biobio - Av Las Torres;-36.83067728;-73.12072579;22e-23a-24m-24r-40g
35424;Diagonal Biobio - Las Torres / Oriente;-36.82949383;-73.12112475;22e-23q-24m-24r
35425;Diagonal Biobio - Central;-36.8283188;-73.12034623;22e-23q-24m-24r
35426;Central - La Marina / Norte;-36.82763851;-73.12121498;22e-23q-24m-24r
35427;Central - Carlos Condell / Norte;-36.82724936;-73.122256;22e-23q-24m-24r
35428;Central - Aviación / Norte;-36.82670457;-73.12371565;22e-23q-24m-24r
35429;Central - Ejercito / Norte;-36.82598505;-73.12552711;22e-23q-24m-24r
35430;Central - Carabinero / Norte;-36.82527468;-73.12734952;22e-24m-24r
35474;Fresia - Galvarino;-36.85015752;-73.1449787;22j
35475;Consultorio San Pedro De La Costa;-36.84874042;-73.14658307;22j
35476;Gimnasio Michailuhe;-36.84310352;-73.14693223;22j
35477;Central - Pasaje Ciento Veintiuno / Poniente;-36.8438039;-73.14849656;22j-23n
35478;Central - Pasaje Ciento Doce / Poniente;-36.84609121;-73.14836289;22j-23n
35479;Central - Los Boldos / Poniente;-36.84727098;-73.14830079;22j-23n
35480;Central - Loncomilla;-36.84921591;-73.14817536;22j-22o-23n
35481;Central - Calle C;-36.85080979;-73.14808083;22j-23n
35482;Central - Pasaje Sesenta Y Siete;-36.85223994;-73.14673409;22j-23n
35483;Galvarino - Central / Poniente;-36.85257944;-73.14596322;22j-23a-23n-23q
35484;Tucapel - Galvarino;-36.85350764;-73.14595201;22j-23a-23n-23q
35485;Lautaro - Pasaje Veintidos;-36.85302926;-73.14186982;22j-23n
35486;Central - Pasaje Veinticinco;-36.85291092;-73.14006695;22j-23n
35487;Central - Pasaje Veintiocho;-36.85306654;-73.13849297;22j-23n
35488;Central - Pasaje Siete;-36.85331549;-73.1359746;22j-23n
35489;Pasaje Las Rosas - Tucapel;-36.85438432;-73.13573553;22j-23n
35490;Tucapel / Bigger;-36.85478488;-73.13483974;22j-23n
35491;Nueva Uno / Sur;-36.8546871;-73.13320458;22j-23n
35492;Instituto Forestal;-36.84799763;-73.13138223;22j-23n
35507;Las Camelias Ote;-36.84941804;-73.13688796;22k-22s
35508;Segunda Longitudinal - Doce De Febrero;-36.8395741;-73.1408274;22k-22s-23a
35510;Nueva Los Copihues - Pasaje Nueve / Norte;-36.84847341;-73.13700061;22k-22s
35511;Rene Schneider - Volcan Villarrica / Oriente;-36.84779898;-73.13997774;22k-22s
35512;Rene Schneider - Pje Los Peumos;-36.84522987;-73.14053343;22k-22s-23p
35513;Longitudinal Uno - Manuel Rodriguez / Sur;-36.84223226;-73.14020233;22k-22s
35546;Los Copihues - Los Chorrillos;-36.83795748;-73.00285176;22k-22s-40b
35547;Treinte De Octubre - Pje Tres;-36.83561461;-73.00127561;22k-22s-40b-71z
35548;Treinta De Octubre - El Sauce;-36.83304868;-73.00466131;22k-22s-40b-71z
35553;Lo Canelos - Los Copihues;-36.84046683;-73.00146327;22k-22n-22s-40b
35568;Los Copihues - Pje Uno;-36.83865609;-73.00312514;22n-40b
35575;Los Carrera - Pelantaro;-36.8166959;-73.03641858;22n-22o-23l-23q-23t-24r-30m-30n-30q-30r-31d-32e-32h
35576;Los Carrera - Ainavillo;-36.81761526;-73.03860354;22n-22o-23l-23q-23t-24r
35577;Los Carrera - Lautaro;-36.81865633;-73.0410657;22n-22o-23l-23q-23t-24r
35578;Los Carrera - Paicaví;-36.81971758;-73.04366195;22n-22o-23l-23q-23t-24r
35587;Nueva Uno / Intermedia;-36.8529528;-73.13296638;22o-23t
35606;Gimnasio Michaihue / Poniente;-36.84317787;-73.14707622;22o
35607;Consultorio San Pedro De La Costa / Poniente;-36.8486616;-73.14673077;22o
35616;Av Central / Sur;-36.82461162;-73.1293165;22x-24f-24t
35617;Central - Costanera;-36.82491533;-73.12856913;22x-24f-24t
35618;Central - Carabinero / Sur;-36.82535612;-73.12736996;22x-24f-24t
35619;Central - Ejercito / Sur;-36.8261027;-73.12555787;22x-23a-24f-24t-40n
35620;Central - Aviación / Sur;-36.82680421;-73.12374685;22x-23a-24f-24t-40g-40n
35621;Central - Carlos Condell / Sur;-36.82734882;-73.12227599;22x-23a-24f-24t-40n
35622;Central - La Marina / Sur;-36.82773038;-73.12132486;22x-23a-24f-24t-40n
35623;Central - Diagonal Biobio / Sur;-36.82807837;-73.1205315;22x-23a-24f-24t-40n
35624;Diagonal Biobio - Las Torres / Poniente;-36.82943182;-73.12119354;22x-23a-24f-24t-40n
35625;Av. Diagonal Biobio - Los Alamos;-36.83098467;-73.12078555;22x-23q-24f-24t-40n
35626;Av. Diagonal Biobio - Los Abetos / Poniente;-36.83182117;-73.12067538;22x-23q-24f-24t-40n
35627;Av. Diagonal Biobio - Candelaria / Poniente;-36.83396143;-73.12036511;22x-23q-24f-24t-40n
35628;Av. Diagonal Biobio - Las Palomas / Poniente;-36.83553283;-73.11999025;22x-23q-24f-24t-40n
35629;Av. Diagonal Biobio - Las Torcazas / Poniente;-36.83661113;-73.11921256;22x-23q-24f-24t-40n
35638;Terminal Michaihue;-36.8467969;-73.14448796;23a-23l-23q-23t
35639;Tucapel - Pje Diecinueve;-36.85404839;-73.1407572;23a-23q
35640;Tucapel - Tucapel;-36.85451622;-73.13667447;23a-23q
35641;Galvarino - Pasaje Los Canelos;-36.84557085;-73.14447274;23a-23n
35646;Galvarino - Fresia;-36.85036772;-73.14516428;23a-23q
35647;Galvarino - Loncomilla;-36.84888292;-73.14474034;23a-23q
35648;Galvarino - Los Boldos;-36.84734476;-73.14436257;23a-23q
35649;Galvarino - Camilo Henriquez;-36.84671406;-73.14437781;23a-23n-23p-23q
35650;Galvarino - Las Vegas;-36.84381549;-73.14461609;23a-23n-23p
35678;Enrique Soro - Las Garzas / Sur;-36.83053587;-73.11691703;23a
35681;Los Peñascales / Oriente;-36.83509206;-73.10077062;23a
35688;Acceso A Vega Monumental / Oriente;-36.81014644;-73.08132237;23a
35689;Maipú - Lientur;-36.81840682;-73.03686812;23a-52d-63p-65q-65r-70f-70j-70k-71z-90e
35690;Av. Padre Hurtado - Maipú;-36.82858875;-73.06139767;23a-40b-41c-41q-43j-52d-60k-60l-62o-63p-65r-70f-70j-71z-90e
35691;Vega Monumental - 21 De Mayo;-36.80824625;-73.07807433;12a-12b-23a-30b-30d-30e-31f-32g-32y-40b-41c-41q-42u-43j-44e-52d-56v-60k-60l-62h-62o-65q-65r-70f-70j-71z-81s
35692;21 De Mayo - Cuarto Centenario / Sur;-36.80953967;-73.0761252;12a-12b-23a-30b-30d-30e-31f-32g-32y-40b-41c-41q-42u-43j-44e-52d-56v-60k-60l-62h-62o-65q-65r-70f-70j-71z-81s
35693;21 De Mayo - Miraflores;-36.81109475;-73.07308213;12a-12b-23a-30b-30d-30e-31f-32g-32y-40b-41c-41q-42u-43j-44e-52d-56v-60k-60l-62h-62o-65q-65r-70f-70j-71z-81s
35694;21 De Mayo - Abraham Valenzuela;-36.81248256;-73.07028975;12a-12b-23a-30b-30d-30e-31f-32g-32y-40b-41c-41q-42u-43j-44e-52d-56v-60k-60l-62h-62o-65r-70f-70j-71z-81s
35695;Condominio Bordelaguna / 21 De Mayo;-36.81350729;-73.06900852;12a-12b-23a-30b-30d-30e-31f-32g-32y-40b-41c-41q-42u-43j-44e-52d-56v-60k-60l-62h-62o-65r-70f-70j-71z-81s
35696;21 De Mayo - Argomedo / Poniente;-36.81564574;-73.06748625;12a-12b-23a-30b-30d-30e-31f-32g-32y-40b-41c-41q-42u-43j-44e-52d-56v-60k-60l-62h-62o-65r-70f-70j-71z-81s
35697;21 De Mayo - Gral Cruz;-36.82264661;-73.06401408;12a-12b-23a-30b-30d-30e-31f-32g-32y-40b-41c-41q-42u-43j-44e-52d-56v-60k-60l-62h-62o-63p-65r-70f-70j-71z-81s
35698;Maipú - Serrano;-36.82771593;-73.05927823;23a-40b-41c-41q-42f-43j-52d-60k-60l-60m-62o-63p-65r-70f-70j-71z-90e-90x
35699;Maipú - Salas;-36.82712362;-73.0577796;23a-40b-41c-41q-42f-43j-52d-60k-60l-60m-62o-63p-65q-65r-70f-70j-70k-71z-90e-90x
35700;Parroquia San José / Maipú - Lincoyán;-36.82616672;-73.05548298;23a-40b-41c-41q-41v-42f-43j-52d-60k-60l-60m-62o-63p-65q-65r-70f-70j-70k-71z-90e-90x
35701;Maipú - Rengo;-36.82554789;-73.05401871;23a-40b-41c-41q-41v-42f-43j-52d-60k-60l-60m-62o-63p-65q-65r-70f-70j-70k-71z-90e-90x
35702;Maipú - Caupolicán;-36.8246481;-73.05191133;23a-40b-41c-41q-41v-42f-43j-52d-60k-60l-60m-62o-63p-65q-65r-70f-70j-70k-71z-90e-90x
35703;Maipú - Anibal Pinto;-36.82415939;-73.05069048;23a-40b-41c-41q-41v-42f-43j-52d-60k-60l-60m-62o-63p-65q-65r-70f-70j-70k-71z-90e-90x
35704;Maipú - Colo Colo;-36.82365358;-73.04952612;23a-40b-41c-41v-42f-43j-52d-60k-60l-60m-62o-63p-65q-65r-70f-70j-70k-71z-90e-90x
35705;Maipú - Castellón;-36.82338035;-73.04880433;23a-40b-41c-41v-42f-43j-52d-60k-60l-60m-62o-63p-65q-65r-70f-70j-70k-71z-90e-90x
35706;Maipú - Tucapel;-36.82297694;-73.0478392;23a-40b-41c-41v-42f-43j-52d-60k-60l-60m-62o-63p-65q-65r-70f-70j-70k-71z-90e-90x
35707;Maipú - Ongolmo;-36.82181335;-73.04504359;23a-40b-41c-41v-42f-43j-52d-60k-60l-62o-63p-65q-65r-70f-70j-70k-71z-90e
35708;Maipú - Paicaví;-36.82127824;-73.04374553;23a-40b-41c-41v-42f-43j-52d-60k-60l-62o-63p-65q-65r-70f-70j-70k-71z-90e
35709;Maipú - Janequeo;-36.8207628;-73.04254788;23a-40b-43j-52d-62o-63p-65q-65r-70f-70j-70k-71z-90e
35714;Estanque - Providencia;-36.83645439;-73.00566048;23l
35753;Cuarta Transversal;-36.84107531;-73.14287686;23l
35754;Longitudinal Uno - Transversal Uno;-36.84245716;-73.1430565;23l
35768;Galvarino - Las Vegas / Poniente;-36.84383579;-73.14476139;23l-23q-23t
35810;Camilo Henriquez - Pasaje Los Rosales;-36.84626875;-73.14125966;23p
35811;Longitudinal Uno - Longitudinal Dos;-36.84247333;-73.14236083;23p
35812;Cuarta Transversal - Segunda Longitudinal;-36.83994907;-73.1429041;23p
35830;Estanque / Valparaíso;-36.83649795;-73.00610788;23p
35831;Arturo Prat - Las Heras;-36.82616926;-73.06115602;12q-12r-23q-30m-30n-30q-30r-31d-32e-32h-40p-41r-42h-43t-44u-50u-52a-56o-57p-60x-60y-62m-62n-63k-65e-70g-70h-70i-71i-81c-90j
35832;Arturo Prat - Martínez De Rosas;-36.8251252;-73.06179901;12q-12r-23q-30m-30n-30q-30r-31d-32e-32h-40p-41r-42h-43t-44u-50u-52a-56o-57p-60x-60y-62m-62n-63k-65e-70g-70h-70i-71i-81c-90j
35833;Arturo Prat - Gral. Cruz;-36.82302934;-73.0631636;12q-12r-23q-30m-30n-30q-30r-31d-32e-32h-40p-41r-42h-43t-44u-50u-52a-56o-57p-60x-60y-62m-62n-63k-65e-70g-70h-70i-71i-81c-90j
35834;21 De Mayo - Argomedo / Oriente;-36.81586606;-73.06717804;12q-12r-23q-30m-30n-30q-30r-31d-32e-32h-40p-41r-42h-43t-44u-50u-52a-56o-57p-60x-60y-62m-62n-63k-65e-70g-70h-70i-71i-81c
35835;Laguna Redonda / 21 De Mayo;-36.81381171;-73.06832827;12q-12r-23q-30m-30n-30q-30r-31d-32e-32h-40p-41r-42h-43t-44u-50u-52a-56o-57p-60x-60y-62m-62n-65e-70g-70h-70i-71i-81c
35836;21 De Mayo - Magallanes;-36.81252033;-73.06984041;12q-12r-23q-30m-30n-30q-30r-31d-32e-32h-40p-41r-42h-43t-44u-50u-52a-56o-57p-60x-60y-62m-62n-65e-70g-70h-70i-71i-81c
35837;Plazoleta Juan Antonio Ríos;-36.810983;-73.07286074;12q-12r-23q-30m-30n-30q-30r-31d-32e-32h-40p-41r-42h-43t-44u-50u-52a-56o-57p-60x-60y-62m-62n-65d-65e-70g-70h-70i-71i-81c
35838;21 De Mayo - Cuarto Centenario / Norte;-36.80936649;-73.07600623;12q-12r-23q-30m-30n-30q-30r-31d-32e-32h-40p-41r-42h-43t-44u-50u-52a-56o-57p-60x-60y-62m-62n-65d-65e-70g-70h-70i-71i-81c
35839;21 De Mayo - Pedro De Ona;-36.80804151;-73.07767592;12q-12r-23q-30m-30n-30q-30r-31d-32e-32h-40p-41r-42h-43t-44u-50u-52a-56o-57p-60x-60y-62m-62n-65d-65e-70g-70h-70i-71i-81c
35840;Acceso A Vega Monumental / Poniente;-36.81031385;-73.08164326;23q
35862;Tucapel - Pje Dieciocho;-36.85402675;-73.13995018;23q
35954;Calle Nueva;-36.83928772;-73.09823348;40n
35955;Los Canelos - Madreselvas / Poniente;-36.84050492;-73.10051338;40n
35956;Los Canelos - Cangrejeras / Poniente;-36.84196961;-73.09966973;40n
35957;Forestal Mininco / Poniente;-36.84347015;-73.09881394;40n
35958;Av. Michimalongo - Central;-36.84361421;-73.09430223;24f-24t-40n
35959;Av. Michimalongo - Colmenares;-36.84236517;-73.09229227;24f-24t-40n
35960;Llacolén - Av Michimalongo;-36.8411024;-73.09055185;24f-24t-40n
36001;O`Higgins - San Carlos;-36.78374198;-73.08216035;40n-41v-42f
36002;Las Golondrinas - Dos Pte;-36.7816687;-73.09054872;12q-40n-41v-42f-42h
36003;Las Golondrinas - Cinco Pte;-36.78177698;-73.0911175;12a-40n-41v-42u-42w
36026;Paicaví - Freire;-36.82232973;-73.04301246;40g-41c-42w-50s-57y-80h-B02
36051;Freire - Lautaro;-36.82099671;-73.04033338;30m-30n-40p-41r-42h-44u-52a-63k-65d-65e-71i
36052;Freire - Janequeo;-36.82155851;-73.04160831;30m-30n-40p-41r-42h-44u-52a-63k-65d-65e-71i
36053;Freire - Paicaví;-36.82204675;-73.04279545;10j-30m-30n-40p-41r-42h-44u-52a-63k-65d-65e-71i
36054;Freire - Ongolmo;-36.82260026;-73.04411547;30c-30m-30n-40p-41r-42h-44u-52a-60x-60y-63k-65d-65e-71i
36055;Freire - Orompello;-36.82312599;-73.04539137;30c-30m-30n-40p-41r-42h-44u-52a-60x-60y-63k-65d-65e-71i
36056;Freire - Castellón;-36.8241671;-73.04786502;10k-30c-30m-30n-40p-41r-42h-43t-44u-52a-60x-60y-60z-63k-65d-65e-71i
36090;Freire - Anibal Pinto / Oriente;-36.82523685;-73.0504389;10k-30c-30m-30n-40p-41r-42h-43t-44u-52a-60x-60y-60z-63k-65d-65e-71i
36091;Freire - Anibal Pinto / Poniente;-36.82539645;-73.05082726;10k-30c-30m-30n-40p-41r-42h-43t-44u-52a-60x-60y-60z-63k-65d-65e-71i
36092;Freire - Rengo;-36.82620451;-73.05283607;10k-30c-30m-30n-40p-41r-42h-43t-44u-52a-60x-60y-60z-63k-65d-65e-71i
36093;Freire - Lincoyán;-36.82661616;-73.05375621;10k-30c-30m-30n-40p-41r-42h-43t-44u-52a-60x-60y-60z-63k-65d-65e-71i
36094;Freire - Angol;-36.82715098;-73.05504322;10k-30c-30m-30n-40p-41r-42h-43t-44u-52a-60x-60y-60z-63k-65d-65e-71i
36095;Freire - Salas;-36.82781705;-73.05664087;30c-30m-30n-40p-41r-42h-43t-44u-52a-60x-60y-60z-63k-65d-65e-71i
36096;Freire - Serrano;-36.82833419;-73.0579508;30c-30m-30n-40p-41r-42h-43t-44u-52a-60x-60y-60z-63k-65e-71i
36097;Freire - Arturo Prat;-36.82879396;-73.05906039;30c-30m-30n-40p-41r-42h-43t-44u-52a-60x-60y-60z-63k-65e-71i
36115;Carampangue - Chonchi;-36.79265069;-73.08909939;40p
36116;Carampangue - Quemchi;-36.79266232;-73.09206892;40p
36119;Bremen - La Reconquista;-36.79550509;-73.09960813;12r-30m-30n-40p-43t-71i
36120;Bremen - Atenas / Norte;-36.79491897;-73.10072092;12r-30m-30n-40p-43t-71i
36121;Bremen - Frankfort / Norte;-36.79419352;-73.10213972;12r-30m-30n-40p-43t-71i
36122;Bremen - Valencia;-36.79250555;-73.10537532;12r-40p-71i
36123;Bremen - Bulgaria / Norte;-36.792025;-73.10632853;12r-40p-71i
36124;Bremen - Gran Bretaña / Norte;-36.79191803;-73.10810183;12r-40p-71i
36147;Madrid - La Pera;-36.79102463;-73.10803415;40p-71i
36148;Granada - Zaragoza;-36.78844106;-73.1054082;40p-71i
36149;Bulgaria - Tres Pte;-36.78800429;-73.10401818;30m-30n-40p-43t-71i
36157;Belgica - Londres;-36.78297594;-73.11031631;40p-41r
36158;Gran Bretaña - Yugoslavia / Oriente;-36.78166117;-73.11152515;12r-40p
36159;Gran Bretaña - Dinamarca / Oriente;-36.77966068;-73.11212329;12q-12r-30m-30n-40p-41v-71i-81c
36161;Gran Bretaña - Yugoslavia / Poniente;-36.78099094;-73.11188896;12a-12b-30d-30e-40b-40g-41q-71z-81s
36162;Gran Bretaña - Finlandia / Poniente;-36.78471384;-73.11077788;12b-40g-41r-42f
36169;Bulgaria - Paris;-36.78288743;-73.1041891;30d-30e-40g-41q-43j-60l-71z
36170;Bulgaria - Finlandia;-36.78451838;-73.10416012;30d-30e-40g-41q-43j-60l-71z
36171;Bulgaria - Grecia / Poniente;-36.78651928;-73.10415563;30d-30e-40g-41q-43j-60l-71z
36172;Bulgaria - Granada;-36.78807869;-73.10416203;30d-30e-40b-40g-43j-71z
36173;Granada - Madrid;-36.78834587;-73.10565708;40b-40g-71z
36174;Madrid - Baracaldo;-36.79066683;-73.10763952;40b-40g-71z
36176;Bremen - Gran Bretaña / Sur;-36.79204506;-73.10815474;12b-40b-40g-71z
36177;Bremen - Bulgaria / Sur;-36.79201215;-73.10665384;12b-40b-40g-71z
36178;Bremen - Alemania;-36.79299109;-73.10473577;12b-40b-40g-71z
36179;Bremen - Frankfort / Sur;-36.79413671;-73.10253337;12b-30d-30e-40b-40g-43j-71z
36180;Bremen - Atenas / Sur;-36.79504565;-73.10075141;12b-30d-30e-40b-40g-43j-71z
36181;Bremen - Palermo;-36.79564888;-73.09958216;12b-30d-30e-40b-40g-43j-71z
36184;Carampangue - Corral;-36.79292805;-73.09346319;40b-40g
36197;Carampangue - Pto Octay;-36.79275658;-73.091764;40b-40g
36198;Purranque - Patria Nva;-36.79203961;-73.09089645;40g
36204;O`Higgins - San Carlos / Sur;-36.78411282;-73.08224075;40g-42w
36307;Belgica - Bristol;-36.78293859;-73.10966731;40b-41c-42f-42w
36310;Grecia - Cadiz;-36.78666749;-73.10214611;40b-60x-60y
36324;Carampangue - Chaiten;-36.79274025;-73.08850321;40b
36489;Ramuntcho - Quillon;-36.79676786;-73.09572156;41r
36490;Ramuntcho - Quirihue;-36.79594571;-73.09447549;41r
36551;Toscana - Tirol;-36.79143073;-73.09733298;41r
36552;Toscana - Alicante;-36.7902409;-73.0973288;41r
36553;Patria Vieja - Palermo / Norte;-36.78961375;-73.09812876;41r
36554;Patria Vieja - Altonia / Norte;-36.78961144;-73.0996753;41r
36565;Gracia - Venecia;-36.78678061;-73.10245709;40p-41q-43t-60k-60l
36641;Pipilco - Postdam / Poniente;-36.79922058;-73.09691609;41v
36686;Ramuntcho - Iiquen;-36.79605559;-73.09514521;41c-41q-41v
36687;Los Escritores - Hualqui;-36.79725166;-73.09610184;41c-41q-41v
36688;Los Escritores - Pilpilco;-36.79792958;-73.09565917;41c-41q-41v
36689;Guarilihue - Pje Dieciseis;-36.80360242;-73.10038313;41v
36697;Calle Dos;-36.79655225;-73.112157;41v
36698;Calle Siete - Pasaje Quince;-36.79709666;-73.11011507;41v
36752;Trasera Polonia - Finlandia;-36.78682254;-73.11700147;41c-41q
36753;Trasera Calmar / Poniente;-36.78949253;-73.11542325;41c-41q
