stop_code;stop_name;stop_lat;stop_lon
30954;Mercado;-36.71183344;-73.11545266
30955;El Arenal;-36.72516015;-73.11689611
30956;Hospital Las Higueras;-36.73934248;-73.10297629
30957;Los Cóndores;-36.75695328;-73.09162097
30958;Univ. Técnica Federico Santa María;-36.78362584;-73.08558093
30961;Chiguayante;-36.91519607;-73.02908005
30962;Pedro Medina;-36.9254817;-73.0215968
30964;La Leonera;-36.95144259;-73.01316541
30965;Hualqui;-36.98049532;-72.94096075
31013;Alborada;-36.84647657;-73.13094824
31017;Costa Mar;-36.85492754;-73.13301928
31021;Lomas Coloradas;-36.88307467;-73.13982906
32488;Punta Corralillo - Caleta Plata;-36.72032694;-73.1471996
32489;Punta Corralillo - Caleta Chipana;-36.71848173;-73.14678489
32490;Punta Corralillo - Punta Lavapie;-36.7169793;-73.14523117
32491;Bahia Dichato - Playa El Huevillo;-36.71675033;-73.14037766
32492;Bahia Dichato - Caleta El Sold;-36.71491367;-73.13935836
32493;Bahia Dichato - Playa Chivilongo;-36.7131874;-73.13848198
32494;San Vicente - Playa El Parron / Sur;-36.71271592;-73.13542585
32495;San Vicente 882;-36.71246165;-73.13243167
32496;San Vicente - Camino San Francisco / Oriente;-36.71168214;-73.13100637
32497;Camino Nueva Los Lobos - Calle Uno / Oriente;-36.70939548;-73.12946091
32498;Camino Nuevo Los Lobos - Camino A Tumbes;-36.71041734;-73.12566344
32499;Camino A Tumbes - Los Araucanos;-36.71410436;-73.12626797
32500;Los Araucanos - Violeta Parra / Norte;-36.71463559;-73.12966971
32501;Los Araucanos - Quentrahue / Poniente;-36.71562371;-73.13175054
32502;Los Araucanos - Runcamanque / Oriente;-36.71820721;-73.13268441
32503;Los Araucanos - Rucamanque / Poniente;-36.71804608;-73.13275549
32504;Los Araucanos - Los Diaguitas;-36.72071253;-73.13265734
32505;Los Araucanos 1351 / Norte;-36.72189291;-73.133782
32506;Los Araucanos - Porvenir;-36.72287798;-73.13567281
32507;Los Araucanos - Los Yaganes / Poniente;-36.7244659;-73.13692207
32508;Almirante Latorre - La Marina;-36.72363351;-73.13097425
32509;Pedro Montt - La Marina / Sur;-36.72454537;-73.12992202
32510;Pedro Montt - Lautaro;-36.72263311;-73.12696768
32511;Brasil - Pedro Montt;-36.72218265;-73.12583656
32512;Municipalidad De Talcahuano;-36.72353563;-73.12303806
32513;Brasil - Talcahuano;-36.7248532;-73.12028511
32514;Valdivia - Miranda;-36.72393659;-73.11760901
32515;Valdivia - Riquelme / Oriente;-36.72151363;-73.11828396
32516;Valdivia - Freire Bajo;-36.71745208;-73.11850622
32517;Valdivia - Castellon;-36.71521121;-73.11758686
32518;Valdivia - Sgto Aldea;-36.71421759;-73.11631244
32519;Valdivia - Anibal Pinto;-36.7131406;-73.11546551
32520;Colon 135;-36.71241782;-73.11478906
32521;Colon 367;-36.71357454;-73.11327181
32522;Colon - Covadonga;-36.71464783;-73.11161101
32523;Colon - Angamos;-36.71749571;-73.10988428
32524;Colon - Veintiuno De Mayo;-36.72066531;-73.11025445
32525;Colon - Orella;-36.72259925;-73.11000551
32526;Colon - Manuel Rodriguez;-36.72445671;-73.11004956
32527;Colon - O´Higgins;-36.7262386;-73.11044257
32528;Colon - Chabuco;-36.72824361;-73.11069576
32529;Colon - Hualpen;-36.73233618;-73.10845662
32530;Colon - Lircay Sur;-36.73517902;-73.10528487
32531;Colon - Bernardita;-36.73715834;-73.10279488
32532;Colon - Zenteno;-36.73937079;-73.10023181
32533;Colon - Ercilla;-36.74191124;-73.09845566
32534;Colon - Desiderio Garcia;-36.74429717;-73.0971648
32535;Colon 3646;-36.74778888;-73.09456969
32536;Colon - Simon Bolivar;-36.75071518;-73.09325402
32537;Colon - Juan Guillermo Sosa / Poniente;-36.7538373;-73.09234784
32538;Colon - Los Condores;-36.75671543;-73.09140283
32539;Colon - Petunias / Poniente;-36.75897514;-73.09011461
32540;Colon - La Camelia / Poniente;-36.76087767;-73.08903682
32541;Colon - Diecisiete Nte / Poniente;-36.76945589;-73.08607904
32542;Colon - Los Pinos / Poniente;-36.77194077;-73.08590521
32543;Colon - Talcahuano / Poniente;-36.77400851;-73.08613389
32544;Colon - Seis Nte;-36.77576919;-73.0863254
32545;Colon - Concepcion / Poniente;-36.77843355;-73.08666251
32546;Colon - Banco Estado;-36.78032973;-73.08687308
32547;Colon - Aga / Poniente;-36.78137684;-73.0869703
32548;Cristobal Colon - Club Hipico;-36.78441492;-73.08700682
32549;Crsitobal Colon - Campanario;-36.78759661;-73.08700614
32550;Cristobal Colon - Curanilahue / Poniente;-36.78977732;-73.08697432
32551;Curanihue - Chaiten;-36.79000617;-73.08775308
32552;Curanilahue - Pto Octay;-36.79028;-73.09133235
32553;Curanilahue - Corral / Norte;-36.79094052;-73.09317626
32554;La Reconquista - Ancahual;-36.79241317;-73.09451818
32555;La Reconquista - Toscania / Norte;-36.7934811;-73.09591501
32556;La Reconquista - Pista;-36.79469925;-73.0976892
32557;Terminal Bio Bus;-36.82993104;-73.06080318
32569;Quinchamali / Poniente;-36.80040138;-73.0991733
32571;Av Rulcahue - Calle Dos;-36.80163183;-73.09833589
32575;Hotel Holiday;-36.79296754;-73.06411143
32576;Calle Uno - Av Rulcahue;-36.80242837;-73.09741953
32577;Calle Uno - Pje Doce;-36.8036428;-73.09839823
32578;Oceano Pacifico - Guarilihue;-36.80434874;-73.10083545
32579;Oceano Pacifico - Mar Mediterraneo;-36.80355157;-73.10227861
32580;Oceano Pacifico - Mar Rojo;-36.80199473;-73.10469318
32581;Gran Bretaña - Av La Reconquista / Oriente;-36.80077771;-73.10581037
32582;Gran Bretaña - Atenas / Oriente;-36.79988083;-73.10609024
32583;Gran Bretaña - Frankfort;-36.79803284;-73.1066401
32584;Av. Dos - Calle Uno;-36.79773219;-73.10927009
32585;Av. Dos - Pje Doce / Norte;-36.79752069;-73.11184182
32586;Calle 9 / Oriente;-36.79596435;-73.11430083
32587;Calle Seis - Calle 9;-36.79405129;-73.11472878
32588;Calle Seis;-36.79323929;-73.11410988
32589;Postdam - Calle Tres / Norte;-36.79219308;-73.11406829
32590;Monaco - Sarajevo / Oriente;-36.79122547;-73.11386789
32591;Monaco - Polesia / Oriente;-36.78989066;-73.11267911
32592;Gibraltar - Seis Nte;-36.78853058;-73.11160306
32593;Gibraltar - Cuatro Nte;-36.78741817;-73.11193293
32594;Gibraltar - Sidney;-36.78581234;-73.11240937
32595;Gibraltar - Budapest;-36.78458315;-73.1127645
32596;Gibraltar 2795;-36.78306688;-73.11320509
32597;Gibraltar - Escutari;-36.78056485;-73.11400598
32598;Acceso A Gran Bretaña;-36.77563831;-73.11310712
32599;4 Esquinas;-36.7685589;-73.11399767
32600;Gran Bretaña - John Dalton / Poniente;-36.76750012;-73.11600658
32601;Gran Bretaña - Camino A Lenga;-36.77549296;-73.11360367
32602;Gran Bretaña - Dinamarca / Poniente;-36.77924184;-73.1124249
32603;Gibraltar - Dibra;-36.78011809;-73.11425224
32604;Gibraltar - Yugoslavia;-36.78144569;-73.11384993
32605;Gibraltar - Eger;-36.78332075;-73.11329971
32606;Gibraltar - Finlandia;-36.78531206;-73.11269059
32607;Gibraltar - Bratislava;-36.78689121;-73.11223722
32608;Gibraltar - Monaco;-36.7888288;-73.11165177
32609;Polonia - Monaco;-36.78920301;-73.11194516
32610;Monaco - Polesia / Poniente;-36.7897746;-73.1127492
32611;Monaco - Sarajevo / Poniente;-36.79111842;-73.11393775
32612;Postdam - Calle Tres / Sur;-36.7923482;-73.11418777
32613;Postdam - Pje Diecisiete / Sur;-36.79266984;-73.11344023
32614;Postdam - Pje Catorce / Sur;-36.79315027;-73.11247585
32615;Postdam - Pje Nueve / Sur;-36.79382161;-73.11104729
32616;Postdam - Calle Dos;-36.79427196;-73.1098931
32617;Gran Bretaña - Bremen / Oriente;-36.79168965;-73.10847727
32618;Gran Bretaña - Cinco Nte;-36.78708845;-73.10990152
32619;Gran Bretaña - Finalandia / Oriente;-36.78537487;-73.11040306
32620;Finladia - Dover / Sur;-36.7847314;-73.10848027
32621;Suiza - Belgica / Oriente;-36.78280294;-73.10850527
32622;Suiza - Yugoslavia;-36.78109873;-73.10902899
32623;Yugoslavia - Lisboa;-36.78053301;-73.10746297
32624;Yugoslavia - Oslo;-36.78033641;-73.10643694
32625;Alemania - Belgica / Poniente;-36.78152855;-73.10432343
32626;Sapu Hualpen;-36.78266956;-73.10296187
32627;Alemania - Finlandia / Poniente;-36.78447149;-73.10178567
32628;Grecia - Atenas / Sur;-36.78678261;-73.09919609
32629;Grecia - Suecia;-36.78676264;-73.09682091
32630;Suecia - Escocia / Oriente;-36.7823059;-73.09656138
32631;Escuela Arturo Prat Chacon / Norte;-36.77624325;-73.08946206
32632;Escuela Arturo Prat Chacon / Sur;-36.77632686;-73.08961685
32633;Autopista Conce. Talcahuano - Los Aleites;-36.76542529;-73.08597759
32634;Suecia - Milan;-36.7810123;-73.09626843
32635;Chiloe - Dalcahue;-36.7799093;-73.09662067
32636;Chiloé - Tarapacá;-36.77848562;-73.09608444
32637;Tarapacá - Porvenir;-36.77860175;-73.09489385
32638;Colon - Talcahuano / Oriente;-36.7743579;-73.08600196
32639;Colon - Los Pinos / Oriente;-36.77228098;-73.08576231
32640;Colon - Diescisiete Nte / Oriente;-36.76964131;-73.08583916
32641;Colon - Los Geranios;-36.76142908;-73.08857504
32642;Colon - Petunias;-36.75840157;-73.09031927
32643;Colon - Las Rosas;-36.7560523;-73.09164329
32644;Colon - Juan Guillermo Sosa;-36.75307922;-73.09228821
32645;Colon - Villa El Sauce;-36.74997906;-73.09344025
32646;Colon - Manuel Zañartu;-36.74711566;-73.09474314
32647;Colon - Iquique;-36.74329398;-73.09755916
32648;Colon - Manuel Montt;-36.74088101;-73.09885066
32649;Colon - Buzo Sobenez;-36.73864199;-73.10087692
32650;Colon - Itata;-36.73646628;-73.10348383
32651;Colon - Lircay;-36.73461977;-73.10582495
32652;Perez Gacitua - Hualpen;-36.73148718;-73.10891418
32653;Perez Gacitua;-36.72769044;-73.10878336
32654;Perez Gacitua - Manuel Rodriguez;-36.72460646;-73.10642927
32655;Estadio El Morro De Talcahuano;-36.72294226;-73.10776896
32656;Banco Encalada - Angamos;-36.71820329;-73.10846743
32657;Banco Encalada - Baquedano;-36.7170352;-73.10869761
32658;Banco Encalada - Esmeralda / Norte;-36.71473849;-73.10994065
32659;Banco Encalada / Norte;-36.71357689;-73.11171559
32660;Banco Encalada - Maipu / Norte;-36.71222907;-73.11368535
32661;Valdivia - Colon;-36.71181064;-73.11515095
32662;Valdivia - Condell;-36.71296199;-73.11557063
32663;Valdivia 451;-36.71424728;-73.11647965
32664;Valdivia - Tumbes / Poniente;-36.71558983;-73.1181598
32665;Valdivia - La Unión;-36.71756232;-73.11863788
32666;Valdivia - Riquelme / Poniente;-36.72149792;-73.1184299
32667;Valdivia;-36.72421555;-73.1175798
32668;España - Malaquias Concha;-36.72475776;-73.11823838
32669;España - Talcahuano;-36.72414617;-73.11946258
32670;España - Schuyler;-36.72305546;-73.12173973
32671;España - Juan De La Cruz Tapia;-36.72238341;-73.12313329
32672;Pedro Montt - España;-36.72157405;-73.12553785
32673;Pedro Montt - Cervantes;-36.72295108;-73.12769894
32674;Pedro Montt - La Marina / Norte;-36.72443918;-73.13004777
32675;Los Araucanos - Los Yaganes / Oriente;-36.72442793;-73.13679982
32676;Los Araucanos - Rucamanque;-36.72300307;-73.1356026
32677;Los Araucanos 1351 / Sur;-36.72200156;-73.13381296
32678;Los Araucanos - Los Onas;-36.72084645;-73.13257572
32679;Los Araucanos - Quentrahue / Oriente;-36.71554601;-73.13139416
32680;Los Araucanos - Violeta Parra / Sur;-36.71470609;-73.12956724
32681;Camino A Tumbes - Rosa Linares;-36.71079524;-73.12562068
32682;Camino Nueva Los Lobos - Calle Uno / Poniente;-36.7095352;-73.12974859
32683;San Vicente - Camino San Francisco / Poniente;-36.71171269;-73.13122953
32684;San Vicente - Caleta Coliumo;-36.71289683;-73.13374218
32685;San Vicente - Playa El Parrón / Norte;-36.71263342;-73.13533828
32686;San Vicente - Camino Al Litral;-36.71197942;-73.1378954
32687;Bahia Dichato - Caleta El Chalet;-36.71285315;-73.13843407
32688;Bahia Dichato - Caleta Chome;-36.71456105;-73.1392885
32689;Bahia Dichato - Caleta Cantera;-36.71624296;-73.14021076
32690;Punta Corralillo - Punta Liles;-36.71682956;-73.1448765
32691;Punta Corralillo - Caleta Horcon;-36.71806709;-73.14678366
32692;Tarapacá - Chiloé;-36.77823949;-73.09591125
32693;Interior Urba Playa Pingueral;-36.70898235;-73.14799824
32694;Playa Pingueral / Sur;-36.71237253;-73.14228564
32695;Escuela C / Oriente;-36.71128014;-73.14044237
32696;Camino Al Litral - San Vicente;-36.71189458;-73.1382333
32697;Aviacion;-36.77727691;-73.09265212
32698;Aviacion - Tres Sur;-36.7791287;-73.09402924
32699;Las Golondrinas - Napoles;-36.78022383;-73.09768857
32700;Gran Bretaña - Postdam;-36.7934778;-73.1081307
32701;Dinamarca - Roma;-36.77969245;-73.11355675
32702;Suecia - Las Golondrinas;-36.78079714;-73.09634099
32703;Suecia - Escocia / Poniente;-36.78232679;-73.09674015
32704;Suecia - Finlandia;-36.7845349;-73.09673035
32705;Suecia - Grecia;-36.78656245;-73.0967026
32706;Grecia - Atenas / Norte;-36.78664871;-73.09927784
32707;Alemania - Finlandia / Oriente;-36.78440538;-73.10159681
32708;Liceo Industrial Henan Valenzuela Leyton;-36.782347;-73.10308188
32709;Alemania - Belgica / Oriente;-36.78145415;-73.10417959
32710;Colegio Sta Teresita;-36.78016148;-73.10620594
32711;Yugoslavia - Suiza;-36.78066269;-73.10881561
32712;Suiza - Belgica / Poniente;-36.78251907;-73.10879239
32713;Finlandia - Dover / Norte;-36.78459482;-73.10839399
32714;Gran Bretaña - Grecia;-36.78641806;-73.11025417
32715;Colegio Montaner;-36.78716267;-73.11003417
32716;Gran Bretaña - Monaco;-36.78857999;-73.10960713
32717;Gran Bretaña - Bremen / Poniente;-36.79190803;-73.10860638
32718;Postdam - Pje Cinco;-36.79408097;-73.10978572
32719;Postdam - Pje Nueve / Norte;-36.79371965;-73.11087048
32720;Postdam - Pje Catorce / Norte;-36.79299568;-73.11238999
32721;Postdam - Pje Diecisiete / Norte;-36.79249847;-73.11343322
32722;Santiago Watt;-36.76669825;-73.11375198
32723;Evangelista Torricheli;-36.76500204;-73.11535073
32724;Gran Bretaña - Burdeos;-36.778013;-73.11280239
32725;Calle 9 / Poniente;-36.79583222;-73.11449459
32726;Oceano Pacifico - Mar Rojo / Sur;-36.80204157;-73.10480411
32727;Av. Dos - Pje Doce / Sur;-36.79767563;-73.1119501
32728;Av. Dos - Pje Uno;-36.79779661;-73.10878657
32729;Gran Bretaña - Avenida Dos;-36.79769422;-73.1068838
32730;Gran Bretaña - Atenas / Poniente;-36.79976692;-73.10629479
32731;Gran Bretaña - Av La Reconquista / Poniente;-36.8006728;-73.10601469
32732;Oceano Pacifico - Mar Egeo;-36.80343169;-73.10267387
32733;Calle Uno - Pje Dieciseis;-36.80458549;-73.09929402
32734;Calle Uno - Pje Pinto;-36.80262819;-73.09751546
32735;Av Rucalhue;-36.80193606;-73.09763346
32736;Pilpilco - Postdam;-36.79932709;-73.09681259
32737;Playa Pingueral / Final;-36.71001746;-73.15022357
32738;La Reconquista - Quillon;-36.79544899;-73.0983543
32739;La Reconquista - Toscania / Sur;-36.79394418;-73.09612769
32740;La Reconquista - Patria Nva;-36.79153618;-73.0943494
32741;Curanilahue - Corral / Sur;-36.79118593;-73.09330465
32742;Curanilahue - Calbuco;-36.7906676;-73.09133394
32743;Los Metálicos;-36.7902932;-73.08934847
32744;Curanihue - Pto Cisnes;-36.79025952;-73.0872537
32745;Cristobal Colon - Curanilahue / Oriente;-36.78978291;-73.08676126
32746;Clinica De Dialisis;-36.78776455;-73.08680026
32747;Cristobal Colon - Gasolinera;-36.78409616;-73.08680184
32748;Colon - Aga / Oriente;-36.78123899;-73.08680565
32749;Colon - Concepcion / Oriente;-36.77865627;-73.08650011
32750;Colon - Cuatro Nte;-36.77690459;-73.08630837
32751;Camino Al Litral - Bahia Inglesa;-36.71035027;-73.13977069
32752;Escuela C / Poniente;-36.71122818;-73.14057796
32753;Playa Pingueral / Sur;-36.71228138;-73.14222066
33634;Calle 201 - Manuel Rodriguez;-36.95812409;-73.01172268
33635;Manuel Rodriguez - Pje 6;-36.95803082;-73.01207327
33636;Manuel Rodriguez - Pje 4;-36.95624367;-73.01299573
33637;Manuel Rodriguez - España;-36.95424047;-73.01339593
33638;Manuel Rodríguez - Los Pinos;-36.95056177;-73.01438989
33639;Manuel Rodriguez - Porvenir / Oriente;-36.9473307;-73.0157427
33640;Manuel Rodriguez - Esperanza / Oriente;-36.94546938;-73.01654334
33641;Manuel Rodríguez - Sta María;-36.94186308;-73.01809657
33642;Manuel Rodriguez - Independencia;-36.93843656;-73.01962253
33643;Manuel Rodriguez - Carriel;-36.93659303;-73.02041129
33644;Manuel Rodriguez - Calle Nueva;-36.93304935;-73.02194006
33645;Manuel Rodriguez - Pinares / Oriente;-36.93112622;-73.02282057
33646;Manuel Rodriguez - Sto Domingo;-36.92790459;-73.02420608
33647;Manuel Rodriguez - Los Cipreses;-36.92545232;-73.02524606
33648;Manuel Rodriguez - Los Carrera;-36.92310796;-73.02627196
33649;Manuel Rodriguez - Sn Ignacio;-36.92257039;-73.02646544
33650;Manuel Rodríguez - Guacolda;-36.91928925;-73.02752662
33651;Obispo Sn Miguel / 1sur / Oriente;-36.91566965;-73.02883214
33652;Bomberos De Chiguayante;-36.91469919;-73.02955305
33653;Obispo San Miguel - Las Delicias;-36.91273726;-73.03081576
33654;Obispo Sn Migue - Pedro Aguirre Cerda;-36.91085946;-73.03171707
33655;Obispo Sn Miguel - Calle2;-36.90750301;-73.0315003
33656;Obispo San Miguel / Oriente;-36.90519162;-73.03125668
33657;Colón Viejo - Las Violetas / Oriente;-36.90125756;-73.03153735
33658;Colón Viejo - Estadio Español / Oriente;-36.89812801;-73.03250431
33659;Cno. A Chiguayante - Las Palmas / Oriente;-36.89058351;-73.03573893
33660;Cno. A Chiguayante - Pje C / Oriente;-36.88490584;-73.03741038
33661;Cno. A Chiguayante - Ignacio Verdugo / Oriente;-36.87967736;-73.03790326
33662;Cno A Chiguayante - Av. Nahuelbuta;-36.87587691;-73.03972823
33663;Cno A Chiguayante - Uno Pte / Oriente;-36.87024425;-73.04194755
33664;Cno. Chiguayante - Abraham Romero / Oriente;-36.86741702;-73.04267036
33665;Cno. A Chiguayate - Errázuriz / Oriente;-36.86552417;-73.04321222
33666;Pedro De Valdivia - Corina Vargas De Medina;-36.86060726;-73.04675873
33667;Colegio Concepción P. De Valdivia;-36.85745165;-73.04944123
33668;Pedro De Valdivia - Sanders / Oriente;-36.85586821;-73.04961607
33669;Pedro De Valdivia - Inglesa / Oriente;-36.85285227;-73.05037687
33670;Pedro De Valdivia - Av Alemana / Oriente;-36.85094153;-73.0509301
33671;Pedro De Valdivia - La Mochita;-36.84693712;-73.05132337
33672;Pedro De Valdivia - Arturo Junge;-36.84418059;-73.05251477
33673;Pedro De Valdivia - Geswein;-36.84226726;-73.05346043
33674;Pedro De Valdivia - Pje Ccu;-36.84007756;-73.05459246
33675;Pedro De Valdivia - Alonso De Ercilla;-36.83862958;-73.0553356
33676;Pedro De Valdivia - Rancagua / Oriente;-36.83634741;-73.05577465
33677;Arturo Prat - Chacabuco;-36.83415313;-73.05607688
33678;Arturo Prat - Cochrane;-36.83348347;-73.05646385
33679;Arturo Prat - San Martín;-36.83248485;-73.05712824
33680;San Martín - Serrano;-36.83173801;-73.05665379
33681;San Martín - Salas;-36.83125892;-73.05546618
33682;San Martín - Lincoyán;-36.83018908;-73.05288081
33683;San Martín - Caupolicán;-36.82910908;-73.0502285
33684;San Martín - Aníbal Pinto;-36.82861246;-73.04907506
33685;San Martín - Tucapel;-36.82708113;-73.04529073
33686;San Martín - Orompello;-36.82640682;-73.04374947
33687;San Martín - Ongolmo;-36.82583603;-73.04247467
33688;San Martín - Paicaví;-36.82535661;-73.04127604
33689;Picavi 358;-36.82468973;-73.04128184
33690;Paicaaví - Barros Arana / Oriente;-36.8232185;-73.04224988
33691;Paicaví - Freire;-36.82249538;-73.04267191
33692;Paicaví - Maipú / Oriente;-36.82141612;-73.04336085
33693;Paicaví - Martínez De Rosas;-36.81837506;-73.04533287
33694;Paaicaví - Manuel Bulnes / Norte;-36.81662671;-73.04644231
33695;Univ Sn Sebastián - Paicaví;-36.81473456;-73.04757778
33696;Paicaví - Bandera / Norte;-36.81268391;-73.04894141
33697;Paicaví - Brasil / Norte;-36.81058709;-73.05023888
33698;Paicaví - Juan De Dios Rivera;-36.80839445;-73.05174047
33699;Paicaví - Ventus;-36.80628987;-73.05311644
33700;Paicaví - El Carmen;-36.80434707;-73.05446583
33701;Paicaví - A Gral. Bonilla;-36.800975;-73.05660222
33702;Duoc - Uc / Paicaví;-36.79762983;-73.06149479
33703;Mall Plaza Trebol;-36.7915681;-73.07006376
33704;Inacap;-36.78140449;-73.07639192
33705;Autopista Concep. Talcahuano - Benavente;-36.77453055;-73.08049641
33706;Autopista Concep. Talcahuano - Rio Colorado / Oriente;-36.7723618;-73.08182774
33713;Autopista Concep. Talcahuano - Rio Lluta;-36.77007427;-73.08306112
33714;Autopista Concep. Talcahuano - Jaime Repullo;-36.76813072;-73.08438668
33736;Almirante Villarroel;-36.70713986;-73.11389934
33770;Autopista Talcahuna Concep. - Rio Lenga;-36.76965335;-73.08378862
33771;Autopista Talcahuna Concep. - Rio Petorca;-36.77165312;-73.08259605
33772;Autopista Talcahuano Concep. - Benavente;-36.77469725;-73.08077236
33773;Inacap / Poniente;-36.78175913;-73.07658475
33774;Mall Plaza Trebol / Poniente;-36.79195668;-73.07068158
33775;Paicaví - Gral Bonilla;-36.79903664;-73.05932985
33776;Paicaví - Calle Nueva;-36.80180666;-73.05620012
33777;Paicaví - Ongolmo;-36.80484738;-73.05419537
33778;Paicaví - Manuel Gutierrez;-36.80721951;-73.05264454
33779;Paicaví - Paredes;-36.80917185;-73.05132844
33780;Paicaví - Brasil / Sur;-36.81123191;-73.04998713
33781;Paicaví - Bandera / Sur;-36.81337249;-73.04861006
33782;Paicaví - Gral Cruz;-36.81558402;-73.04716385
33783;Paicaví - Manuel Bulnes;-36.81747598;-73.04601715
33784;Paicaví - Las Heras;-36.81926937;-73.04490653
33785;Paicaví - Maipú / Poniente;-36.82151799;-73.04352642
33786;Paicaví - Barros Arana / Poniente;-36.82365885;-73.04217139
33787;Bdo O'Higgins - Ongolmo;-36.82450208;-73.04247503
33788;Bdo O'Higgins - Orompello;-36.82506534;-73.04383969
33789;Palacio De Tribunales - Bdo O'Higgins;-36.82610704;-73.04634699
33790;Bdo O'Higgins - Colo Colo;-36.82662374;-73.0476232
33791;Bdo O'Higgins - Plaza De Concepción;-36.82723401;-73.04911007
33792;Bdo. O'Higgins - Rengo;-36.82846204;-73.051994
33793;Bdo O'Higgins - Lincoyán;-36.82899688;-73.05328104
33794;Bdo O'Higgins - Angol;-36.82938077;-73.05415706
33795;Bdo O'Higgins - Pedro Villa;-36.82971004;-73.05500085
33796;Bdo O'Higgins - Serrano;-36.83087619;-73.05741561
33797;Barrio Cívico - Bdo O'Higgins;-36.83129549;-73.05880656
33798;Andres Bello;-36.83426577;-73.05745321
33799;Pedro De Valdivia - Rancagua / Ponniente;-36.83644246;-73.05607499
33800;Pedro De Valdivia - Juan Calvino;-36.84072532;-73.05451998
33801;Pedro De Valdivia - La Canchas;-36.84176216;-73.05398908
33802;Supermercado Sta Isabel;-36.84640243;-73.05169581
33803;Pedro De Valdivia - Sta Lucía;-36.84820984;-73.05143685
33804;Pedro De Valdivia - Av. Alemana / Poniente;-36.85110683;-73.05111656
33805;Pedro De Valdivia - Inglesa / Poniente;-36.8525601;-73.05069833
33806;Pedro De Valdivia - Sanders / Poniente;-36.85540358;-73.04986341
33828;Pedro De Valdivia - Corina Vargas;-36.86066445;-73.04694796
33829;Cno. A Chiguayante - Errázuriz / Poniente;-36.86535908;-73.04358661
33830;Cno. Chiguayante - Abraham Romero / Poniente;-36.86769945;-73.04285385
33831;Cno. A Chiguayante - Uno Pte / Poniente;-36.87069859;-73.04217153
33832;Cno. A Chiguayante - Ignacio Verdugo / Poniente;-36.88027586;-73.03812355
33833;Cno. A Chiguayante - Pje C / Poniente;-36.88507171;-73.03763054
33834;Cno. A Chiguayante - Las Palmas / Poniente;-36.89024542;-73.03600568
33835;Colón Viejo - Estadio Español / Poniente;-36.89822201;-73.03273756
33836;Colón Viejo / Poniente;-36.89959429;-73.03233199
33837;Colón Viejo - Las Violetas / Poniente;-36.90143245;-73.03175731
33838;Obispor San Miguel / Poniente;-36.90480794;-73.03149101
33839;Obispo Sn Miguel - Calle1;-36.90679425;-73.03169809
33840;Obispo Sn Miguel - Calle Nueva;-36.91137559;-73.03186095
33841;Obispo Sn. Miguel - Vilumilla / Poniente;-36.9132324;-73.03078058
33842;Obispo Sn Miguel - 1sur / Poniente;-36.91590799;-73.02907295
33843;Manuel Rodriguez - Quintanilla;-36.91878243;-73.02794379
33844;Manuel Rodríguez - Emilio Rojas;-36.92019694;-73.02736853
33845;Manuel Rodriguez - Bolshauzer;-36.92352164;-73.02621639
33846;Manuel Rodriguez - Las Condes;-36.9264122;-73.02497431
33847;Manuel Rodríguez - Corbeta Chacabuco;-36.9288196;-73.0239467
33848;Manuel Rodriguez - Pinares / Poniente;-36.93203147;-73.0225165
33849;Manuel Rodriguez - Libertad;-36.93394634;-73.02168109
33850;Manuel Rodriguez - A. Labarca;-36.9374902;-73.02016351
33851;Manuel Rodriguez - Central;-36.93939567;-73.01930577
33852;Manuel Rodriguez - Los Aromos;-36.94285859;-73.01780129
33853;Manuel Rodriguezz - Esperanza / Poniente;-36.94645588;-73.01624826
33854;Manuel Rodriguez - Porvenir / Poniente;-36.94823687;-73.0154946
33855;Manuel Rodríguez - Dinamarca;-36.95151279;-73.01412937
33856;Italia - Manuel Rodriguez;-36.95277143;-73.01393946
33857;Manuel Rodriguez - Francia;-36.95509539;-73.01331756
33858;Manuel Rodriguez - 9 De Abril;-36.95734765;-73.01271996
33859;Grecia - 12 De Octubre;-36.95807418;-73.01251014
33860;Manuel Rodriguez - Calle 201;-36.95841501;-73.01187235
34408;Terminal;-36.95145292;-73.01647798
34410;Regimiento Nº7 Chacabuco;-36.81344456;-73.02948435
34411;Las Heras - El Roble;-36.73758203;-72.99187216
34412;Las Heras - Hierbas Buenas;-36.73707978;-72.99041823
34413;Los Pinos - Calle 5;-36.95063345;-73.01759976
34414;Los Pinos - Yugoeslavia;-36.95087179;-73.01837968
34415;Italia - Yugoeslavia;-36.95310964;-73.01745695
34430;Chiguayante / Oriente;-36.91560796;-73.02837352
34431;Bdo O'Higgins - Arturo Pratt;-36.91281932;-73.02924225
34432;Bdo O'Higgins - Bilbao;-36.91047674;-73.02929131
34433;Bdo O'Higgins - La Plaza;-36.90823623;-73.02951732
34434;Seminario De Concepción;-36.90518676;-73.02987635
34435;Bdo O'Higgins - Colón / Oriente;-36.90207161;-73.03007992
34436;Bdo O'Higgins - Calle1 / Oriente;-36.89989956;-73.03062956
34437;Estadio Español;-36.89814147;-73.03168475
34438;Hotel Terrano;-36.89606601;-73.03262459
34442;Cno A Chiguayante - Av. Nahuelbuta;-36.87424189;-73.04060021
34460;Plaza España;-36.82973758;-73.05889078
34461;Arturo Prat - Hipermercado Lider;-36.82845302;-73.05970809
34462;Arturo Prat - Los Carrera;-36.82736539;-73.06044191
34463;Los Carrera - Serrano;-36.82668423;-73.05957338
34464;Los Carrera - Angol;-36.82563452;-73.05711092
34465;Los Carrera - Rengo;-36.82461308;-73.05472629
34466;Los Carrera - Anibal Pinto;-36.82375798;-73.05259537
34467;Los Carrera - Castellón;-36.82248217;-73.04954465
34468;Los Carrera - Orompello;-36.82144973;-73.0470484
34469;Los Carrera - Ongolmo;-36.82089662;-73.04575078
34470;Los Carrera - Janequeo;-36.81979845;-73.04309935
34471;Los Carrera - Lautaro;-36.81927344;-73.04186835
34472;Los Carrera - Galvarino;-36.81882197;-73.04072516
34473;Los Carrera - Maipú;-36.8178173;-73.03828449
34474;Los Carrera - Vilumilla;-36.81682289;-73.03592209
34475;Bomberos / Los Carrera - Fresia;-36.81582936;-73.03361578
34476;Stripcenter Acevedo / Los Carrera;-36.81513485;-73.03195205
34477;Camino A Penco / Oriente;-36.80445945;-73.02465967
34478;Camino A Penco / Oriente;-36.79787874;-73.0256805
34479;Camino A Penco - Calle Dos / Oriente;-36.79164869;-73.02502236
34480;Camino A Penco - Los Naranjos / Oriente;-36.78786293;-73.02338263
34481;Ruta 150 / Oriente;-36.78166127;-73.02063984
34482;Ruta 150 / Oriente;-36.777908;-73.01824897
34483;Ruta 150 / Oriente;-36.77461809;-73.01608167
34484;Ruta 150 / Oriente;-36.76991557;-73.01352528
34485;Ruta 150 - Oriente;-36.76743188;-73.01214418
34486;Ruta 150 / Oriente;-36.76151063;-73.00732331
34487;Ruta 150 / Oriente;-36.7567623;-73.00258475
34488;Ruben Hurtado 78 / Oriente;-36.75068666;-72.99878852
34489;Max Grissar - Abate Molina;-36.74852728;-72.99955023
34490;Max Grissar 137;-36.74496968;-72.99863464
34491;Roberto Ovalle - Piscis / Sur;-36.74692319;-72.99581749
34492;Membrillar - Victoria;-36.74410192;-72.9952749
34493;Membrillar - Cruz;-36.7428491;-72.99581147
34494;Los Carrera - Chacabuco;-36.74106951;-72.99504022
34495;Las Heras - Maipu;-36.73809781;-72.99359452
34497;Infante;-36.73558698;-72.98848625
34519;Infante - Blanco;-36.73324737;-72.98977909
34520;Infante - Los Olivos;-36.73219335;-72.99034408
34521;Central;-36.7307135;-72.99131207
34522;Central / Oriente;-36.72699544;-72.99103944
34523;Central - Victor Orlaly / Oriente;-36.72626436;-72.99098011
34524;Central / Oriente;-36.72582045;-72.99084612
34525;Central - El Faro / Oriente;-36.72484852;-72.99040118
34526;Central - Pje 5 / Oriente;-36.7244012;-72.99006574
34527;Central - Pje 7 / Oriente;-36.72362558;-72.98950374
34528;Central / Sur;-36.72273647;-72.98809378
34529;C Al Puerto Lirquen / Sur;-36.72064688;-72.98445357
34530;Terminal Hualqui;-36.96516125;-72.922673
34531;Bombero Perret - Bio Bio / Norte;-36.96677411;-72.92574043
34532;Bombero Perret - Pje Pablo Neruda;-36.96781955;-72.92780124
34535;Río Bio Bio - Pje Río Gomero;-36.96510815;-72.92685266
34537;4 Bombero Perret;-36.97030452;-72.9328222
34538;La Araucana - O722;-36.97206275;-72.93752612
34539;Av La Araucana - Patricio Lynch / N;-36.97058383;-72.94163225
34540;O60 - 3 / N;-36.96461451;-72.95293494
34541;O60 - 2 / S;-36.96413847;-72.95459875
34542;O60 - 2 / N;-36.96424619;-72.9545734
34546;O60 - 5 / N;-36.96944469;-72.94454968
34547;O60 - 4 / N;-36.96902064;-72.94504408
34548;O60 - 1 / N;-36.96422756;-72.95558475
34549;Talleres Omer Huett / Np;-36.96702966;-72.99729347
34557;Porvenir - Pje 20 / N;-36.95009407;-73.02146556
34558;Porvenir - 12 De Octubre;-36.95126512;-73.0235914
34559;12 De Octubre - Calle 1;-36.95244386;-73.02293205
34560;Italia - Calle 5 / Sur;-36.95393502;-73.01992868
34561;Italia - Yugoslavia;-36.95330445;-73.01778881
34564;Grecia - 12 De Octubre;-36.95857418;-73.0122276
34586;San Martín - Janequeo;-36.8249353;-73.0403226
34587;Hospital Regional De Concepción - San Martín;-36.8242315;-73.03863643
34588;San Martín - Roosevelt;-36.82371008;-73.03708016
34589;Roosevelt - Valentín Letelier;-36.82217065;-73.03609929
34590;Univ Del Desarrollo - Roosevelt;-36.82142836;-73.03590526
34591;Roosevelt - Luis Urrutia Manzano;-36.82094882;-73.0357942
34592;Irarázaval - Pelantaro;-36.81954126;-73.03515754
34593;Colegio Salesianos / Irarrazaval - Freire;-36.81874503;-73.0344268
34594;Irarrazaval - Hospital Guillermo Grant;-36.81701667;-73.03292399
34595;Maipú - Plaza Acevedo;-36.81622732;-73.0315205
34596;Gral Novoa - Chacabuco;-36.81614514;-73.02928057
34597;Gral Novoa - Bernandino Corral;-36.81758193;-73.02570125
34598;Gral Novoa - Tegualda;-36.81807294;-73.02433217
34599;Superm Sta Isabel / Gral Novoa - Tegualda;-36.81831458;-73.02368696
34600;Gral Novoa - Lago Villarrica;-36.81899705;-73.02190935
34601;Gral Novoa - Caleuche;-36.81981394;-73.01954529
34602;Gral Novoa - Los Lirios;-36.82029702;-73.01770549
34603;Av. Collao - Paula Pineda;-36.82029417;-73.01537373
34605;Cno. Nonguén - El Vergel;-36.83345113;-73.00554787
34626;Univ. Del Bio Bio / Sur;-36.82155863;-73.00960108
34627;Cno. Nonguén - Central / Poniente;-36.82303127;-73.0087333
34628;Cno. Nonguén - Central1 / Poniente;-36.82519048;-73.0079598
34629;Cno. Nonguén - Río Andalién;-36.82872357;-73.00634335
34630;Cesfam Villa Nonguén / Poniente;-36.83103386;-73.00598065
34631;Cno. Nonguén - Calle 1 / Poniente;-36.8344945;-73.00541985
34632;Cno. Nonguén - Estanque / Poniente;-36.83603253;-73.00308123
34633;Pque Zoológico Concepción / Poniente;-36.84004573;-73.00698011
34634;Terminal De Buses Las Bahías;-36.84276298;-73.00938787
34679;Av. Collao - Central / Sur;-36.82182853;-73.00795729
34680;Av. Collao / P1 Sur;-36.82200696;-73.00516113
34682;Av. Veintiuno De Mayo - Calle A / Poniente;-36.81878631;-72.98734162
34683;Av. Collao - P2 / Sur;-36.82211482;-73.00353274
34684;Chile - Concepcion / Poniente;-36.8254107;-72.99479184
34685;Chile - Julio Diestre / Poniente;-36.82711261;-72.99416441
34686;Jorge Giacaman - Los Acacios;-36.82621639;-72.99286485
34687;Jorge Giacaman - Los Alamos / Oriente;-36.82410587;-72.99331239
34688;Jorge Giacaman - Esperanza;-36.82327104;-72.99351357
34689;Veintiuno De Mayo / Sur;-36.82070278;-72.99034074
34690;Av. Veintiuno De Mayo - Los Copihues / Oriente;-36.81942758;-72.98795261
34691;Calle A - Calle Dos;-36.81980841;-72.98595836
34692;Collao - Gral Bonilla;-36.82113859;-72.99586748
34693;Ruta 150 - Los Mañios / Poniente;-36.72520426;-72.97947502
34694;Av. Collao - P2 / Norte;-36.82201177;-73.00329999
34695;Av Collao - P1 / Norte;-36.82186357;-73.0052097
34696;Av. Collao - Central / Norte;-36.82171046;-73.00736617
34731;Ruta 150 - El Manzano;-36.72970543;-72.98180928
34732;Ruta 150 - Cementerio;-36.73065777;-72.98269136
34733;Ruta 150;-36.73199579;-72.98452637
34734;Cochrane - Tolten;-36.73366642;-72.98790929
34735;Cochrane - Infante;-36.73402751;-72.98900847
34736;Cochrane - Alcazar;-36.73453072;-72.9905183
34737;Cochrane - Hierbas Buenas;-36.73498396;-72.99173829
34738;Cochrane - J Martinez;-36.73530765;-72.99276009
34773;Maipu - Freire;-36.73679038;-72.99409889
34774;Freire - Membrillar;-36.73825599;-72.99763314
34775;Freire - San Vicente;-36.73910712;-73.00000758
34776;San Vicente - Bernardo Ohiggins;-36.74119241;-73.00019984
34777;Ruta 150 / Sur;-36.74915441;-73.00039637
34778;Ruta 150 / Poniente;-36.75155594;-73.00009881
34779;Ruta 150 / Poniente;-36.75663242;-73.00290176
34780;Ruta 150 / Poniente;-36.76105961;-73.00730137
34781;Ruta 150 - Poniente;-36.76701013;-73.0122559
34782;Ruta 150 / Poniente;-36.7696847;-73.01373289
34783;Ruta 150 / Poniente;-36.77357697;-73.01580601
34784;Ruta 150 / Poniente;-36.77766811;-73.01845683
34785;Ruta 150 / Poniente;-36.78140298;-73.02082576
34789;Talleres Omer Huett / Sp;-36.96716915;-72.99754816
34790;Talleres Omer Huett / No;-36.96733787;-72.99633066
34791;Ruta O60;-36.96555046;-72.95651531
34792;Camino A Penco - Los Naranjos / Poniente;-36.78786814;-73.02369626
34793;Camino A Penco - Calle Dos / Poniente;-36.79176219;-73.02534443
34794;Camino A Penco - Calle Ocho;-36.79411189;-73.02572117
34795;Camino A Penco / Poniente;-36.79695486;-73.02595078
34796;Camino A Penco - Calle Cuatro;-36.79985662;-73.02592112
34797;Camino A Penco / Poniente;-36.80393683;-73.0252111
34798;Plaza De Hualqui - Irarrázabal;-36.9764847;-72.93888956
34799;Irarrázaval - Perelló Puig;-36.81312654;-73.02987363
34800;Hospital Clínico Del Sur - Irarrázaval;-36.81402338;-73.03069138
34801;Los Carrera - Fresia;-36.81568269;-73.03401188
34802;Vilumilla - Las Heras;-36.81563513;-73.03604213
34803;Vilumilla - Maipú;-36.81736592;-73.03496654
34804;Vilumilla - Freire;-36.81823957;-73.03438367
34805;Freire - Lientur;-36.81930899;-73.03637423
34806;Lientur - Barros Arana;-36.820307;-73.0362254
34807;Roosevelt - Bdo O'Higgins;-36.82182132;-73.03623154
34808;Bdo O'Higgins - Galvarino;-36.8224843;-73.03762719
34809;Bdo O'Higgins - Janequeo;-36.82355649;-73.04033535
34810;Portales - José Miguel Carrera;-36.97445773;-72.93634938
34811;Bdo O'Higgins - Paicaví;-36.82407122;-73.0414882
34818;O60 - 1 / S;-36.96430458;-72.95534683
34819;O60 - 3 / S;-36.96450534;-72.95339836
34820;O60 - 4 / S;-36.96920159;-72.94508414
34821;O60 - 5 / S;-36.969988;-72.94417562
34822;Av La Araucana - Patricio Lynch / S;-36.97089212;-72.94121957
34823;Plaza De Hualqui - Manuel Bulnes;-36.97602299;-72.93773374
34824;O - 52;-36.97355056;-72.93238615
34828;Bdo O'Higgins - Serrano;-36.83075115;-73.05748605
34831;Pedro De Valdivia - Rancagua / Ponniente;-36.83667505;-73.05596819
34846;B Ohiggins - Caupolican;-36.8973938;-73.03225384
34847;Bdo O'Higgins - Calle1 / Poniente;-36.89996411;-73.03071768
34848;Bdo O'Higgins - Colón / Poniente;-36.90284789;-73.03014974
34849;Bdo O'Higgins - Pje 6;-36.90464036;-73.0300812
34850;Bdo O'Higgins - Arauco;-36.90793364;-73.02974958
34851;Bdo O'Higgins - Silva;-36.90966099;-73.02955923
34852;Bdo O'Higgins - Vilumilla;-36.91234537;-73.02946771
34853;Bdo O'Higgins - Portales;-36.91484285;-73.0289769
34854;Chiguayante / Poniente;-36.91586923;-73.02836679
34868;Italia - Portugal;-36.95289025;-73.01565458
34869;Italia - Calle 5 / Norte;-36.95391831;-73.02000773
34870;12 De Octubre - Italia;-36.9544378;-73.02089271
34871;Porvenir - Pje 2;-36.95096823;-73.0230825
34872;Porvenir - Pje 20 / Sur;-36.95012091;-73.02145363
34873;Calle 2 - El Molino;-36.95087535;-73.01859295
34874;Calle 1 - Av La Araucana;-36.97297478;-72.93296338
34875;Guacolda - Bombero Ferret;-36.97071597;-72.93315928
34876;Guacolda - Los Acacios;-36.97008183;-72.93349094
34877;Calle 1 - Los Olivos;-36.96975243;-72.9337245
34878;Calle 1 - Los Alerces - / Oriente;-36.96852175;-72.93447665
34879;Los Quelues - Javiera Carrera;-36.96770626;-72.9347458
34880;Cementerio - Ateuco / Norte;-36.966541;-72.93511425
34881;Cementerio - El Aguila;-36.96657071;-72.93630404
34882;El Aguila - Pje La Palma;-36.96539683;-72.93669516
34883;El Aguila - Huilliches;-36.96439079;-72.9368908
34884;El Aguila - Picunches;-36.96313176;-72.93653168
34885;Lautaro - Pje Paicaví;-36.96292794;-72.93569482
34886;Caupolicán - Lautaro;-36.96278815;-72.93491239
34887;Caupolicán - Colo Colo;-36.96166795;-72.93476296
34888;El Aguila - Colo Colo;-36.96118866;-72.93622474
34889;Cementerio - Ateuco / Sur;-36.96668514;-72.93511036
34890;Escuela Los Libertadores De Hualqui;-36.96667093;-72.93274078
34891;Chile - Argentina;-36.96634136;-72.93141309
34892;Chile - Gabriela Mistral;-36.96539684;-72.92945062
34893;Sta María / Sur;-36.96224208;-72.929435
34912;Ruta 160 - Llacolén;-36.83879215;-73.09037381
34932;Homecenter / Los Carrera - Ongolmo;-36.82042977;-73.04531423
34933;Los Carrera - Tucapel;-36.82144367;-73.04777726
34934;Los Carrera - Colo Colo;-36.82235291;-73.04990669
34935;Los Carrera - Caupolicán;-36.82344063;-73.05248009
34936;Los Carrera - Lincoyán;-36.82451212;-73.05516609
34937;Los Carrera - Salas;-36.82566463;-73.05785012
34938;Los Carrera - Arturo Prat;-36.82664188;-73.060292
34939;Univ. Sto. Tomás / Los Carrera - Arturo Prat;-36.82705329;-73.06120098
34940;Ruta 160 - Centro Los Heroes / Norte;-36.83875856;-73.09389571
34941;Ruta 160 - Versluys / Norte;-36.8386979;-73.09629692
34942;Ruta 160 - Av Pdte. Jorge Alessandri / Norte;-36.83854457;-73.10079736
34943;Av Pedro Aguirre Cerda - Av San Pedro;-36.83815828;-73.10765837
34944;Ruta 160 / Sur;-36.83805586;-73.11028486
34945;Ruta 160 - Diagonal Biobio;-36.83754993;-73.1193017
34946;Daniel Belmar / Rotonda / Norte;-36.83997307;-73.13006368
34947;Acceso A Rodriguez Aldea;-36.8370828;-73.13484369
34948;Rodriguez Aldea - Pasaje Cinco A / Norte;-36.83666127;-73.13727602
34949;Rodriguez Aldea - Pasaje Seis / Norte;-36.83672955;-73.13818264
34950;Rodriguez Aldea - Doce De Febrero / Norte;-36.83691179;-73.14061153
34951;Rodriguez Aldea - Tercera Transversal / Norte;-36.83702022;-73.1423582
34952;Rodriguez Aldea - Coronel Patiño / Norte;-36.83711629;-73.14389211
34953;Rodriguez Aldea / Miguel Bayer / Norte;-36.8372943;-73.14663511
34954;Rodriguez Aldea - Calle Dos;-36.83744776;-73.14896381
34955;Las Amazonas - Primera Longitudinal / Poniente;-36.83895382;-73.14901721
34956;Las Amazonas - Segunda Longitudinal;-36.84020429;-73.14886371
34957;Segunda Longitudinal - Miguel Brayer;-36.84011503;-73.14602876
34958;Segunda Longitudinal - Cuarta Transversal;-36.83985757;-73.1428166
34959;Rodriguez Aldea - Pasaje Seis / Sur;-36.83683714;-73.13814639
34960;Daniel Belmar / Templo;-36.83539965;-73.13786728
34961;Parroquia El Buen Pastor / Oriente;-36.83378419;-73.13831011
34962;Servicio Austral / Oriente;-36.83005087;-73.13877062
34963;Av. Venus - Los Boldos;-36.82840081;-73.14045878
34964;Av. Venus - Bio Bio / Norte;-36.82847365;-73.14281158
34965;Saturno / Oriente;-36.82736325;-73.14443053
34966;Mercurio - Tierra / Norte;-36.82558739;-73.14672698
34967;Av. Venus / Boca Sur;-36.82872039;-73.14764928
34968;El Sol - Pasaje Ganimides / Oriente;-36.82651256;-73.14883492
34969;Mercurio - Tierra / Sur;-36.82563953;-73.1466024
34970;Saturno / Poniente;-36.82722084;-73.14454609
34971;Av. Venus - Bio Bio / Sur;-36.82860767;-73.14331288
34972;Av. Venus - Galvarino / Sur;-36.82856057;-73.1414528
34973;Av. Venus - Daniel Belmar;-36.82864011;-73.13962329
34974;Servicio Austral / Poniente;-36.83002594;-73.13890577
34975;Parroquia El Buen Pastor / Poniente;-36.83381297;-73.13842155
34976;Daniel Belmar - Pasaje Uno;-36.83534788;-73.1380143
34977;Doce De Febrero - Segunda Longitudinal;-36.83947271;-73.14068408
34978;Segunda Longitudinal - Pasaje Catorce;-36.83974823;-73.14274075
34979;Segunda Longitudinal - Pasaje Diecisiete;-36.83999091;-73.1455832
34980;Segunda Longitudinal - Las Amazonas;-36.84025538;-73.14867185
34981;Las Amazonas - Primera Longitudinal / Oriente;-36.83888936;-73.14892906
34982;Calle Dos - Rodriguez Aldea;-36.83759332;-73.14905001
34983;Rodriguez Aldea - Miguel Bayer / Sur;-36.83737521;-73.14662194
34984;Rodriguez Aldea - Coronel Patiño / Sur;-36.83720552;-73.14383389
34985;Rodriguez Aldea - Tercera Transversal / Sur;-36.83711933;-73.1423558
34986;Rodriguez Aldea - Doce De Febrero / Sur;-36.83702412;-73.14087793
34987;Daniel Belmar - Segunda Longitudinal;-36.83836062;-73.13471173
34988;Daniel Belmar / Rotonda / Sur;-36.84012888;-73.13022809
34989;Ruta 160 - Pasaje Noventa;-36.83775277;-73.11731195
34990;Ruta 160 / Sur;-36.83796619;-73.11371839
34991;Ruta 160 / Sur;-36.83834002;-73.10435711
34992;Av Pedro Aguirre Cerda 1501;-36.83861474;-73.10180485
34993;Ruta 160 - Versluys / Sur;-36.83878398;-73.09716945
34994;Ruta 160 - Centro Los Heroes / Sur;-36.83892594;-73.09421675
34995;Av Pedro Aguirre Cerda / Pincheira;-36.83906874;-73.09132009
34996;Mall Plaza Mirador - Los Carrera;-36.82868482;-73.06397402
34997;Los Carrera - Arturo Prat;-36.82733131;-73.06111548
35043;Tucapel - Pje Las Rosas;-36.85457762;-73.13541679
35044;Ruta 160 - Daniel Belmar / Poniente;-36.84156624;-73.12935203
35045;Ruta 160 - Av Michaihue / Poniente;-36.84617589;-73.13074248
35046;Ruta 160 - Colegio Alborada / Poniente;-36.84812978;-73.13118836
35047;Central - Av Las Torres;-36.85299188;-73.13775454
35048;Central - Pasaje Treinta Y Dos;-36.85278742;-73.14023818
35049;Central / Poniente;-36.85265547;-73.14159848
35050;Lautaro / Sur;-36.85360267;-73.14222606
35051;Galvarino - Central / Oriente;-36.85260437;-73.14582803
35052;Central - Pasaje Sesenta Y Ocho;-36.85213113;-73.14669185
35053;Central - Calle C / Oriente;-36.85070876;-73.14795989
35054;Central - Loncomilla;-36.84915975;-73.14804213
35055;Central - Los Boldos / Oriente;-36.84726871;-73.14815505
35056;Central - Pasaje Ciento Doce / Oriente;-36.84607092;-73.14821759
35057;Central - Pasaje Ciento Veintiuno / Oriente;-36.84373909;-73.14838598
35058;Cno. Nonguén - Las Vertientes;-36.83675967;-73.00344357
35059;Cno. Nonguén - Estanque / Oriente;-36.8360939;-73.00297872
35060;Escuela Leopoldo Lucero / Cno Nonguén;-36.83500893;-73.00438612
35061;Cno. Nonguén - Calle 1 / Oriente;-36.83444701;-73.00527532
35062;Cesafam Villa Nonguén / Oriente;-36.83090453;-73.0057934
35063;Cno Nonhuén - Río Toltén;-36.82925829;-73.0059819
35064;Cno. Nonguén - Río Palena;-36.82785605;-73.0062089
35065;Cno. Nonguén - Río Itata;-36.82708332;-73.00635229
35066;Cno. Nonguén - Central1 / Oriente;-36.82537441;-73.00764111
35067;Cno. Nonguén - Central / Oriente;-36.82316547;-73.00867377
35068;Cno. Nonguén - Collao;-36.82190886;-73.00844849
35069;Univ. Del Bio Bio / Norte;-36.82139515;-73.00952684
35070;Av. Collao - Mercedes Marín Del Solar;-36.82037533;-73.01375729
35071;Escuela René Loubel Bert;-36.82014122;-73.01485078
35072;Av. Collao - Chiloé;-36.81922021;-73.01799111
35073;Av. Collao - Cnel José Seguel;-36.81880868;-73.01925731
35074;Estadio Atletico Militar;-36.8181867;-73.02087643
35075;Estadio Collao;-36.81693702;-73.02431654
35076;Collao - Maipú;-36.81517798;-73.02911481
35077;Collao - Irarrazaval;-36.81463964;-73.0303505
35078;Memorial Costanera;-36.83273807;-73.06491462
35079;Esmeralda - Nueva Costanera;-36.8369188;-73.05985301
35080;Esmeralda - Errázuriz;-36.83623379;-73.05874901
35081;Victor Lamas - Bombero Fuentes;-36.83485243;-73.05474727
35082;Serrano - Chacabuco;-36.83311966;-73.05516118
35103;Tegualda - Terminal Collao;-36.81486625;-73.02228473
35108;Pelantaro - Las Heras;-36.81606992;-73.03726413
35125;Costanera - Central Norte;-36.83178853;-73.06527492
35127;Los Peñascales;-36.83512016;-73.1008372
35128;Av Las Margaritas - Los Crisantelmos;-36.83697163;-73.10276496
35129;Av Las Margaritas - Las Petunias;-36.8364334;-73.11311689
35130;Av Las Rosas - Pje Las Yerbateras;-36.83476565;-73.10460233
35131;Terminal;-36.83052934;-73.12391374
35134;Juan Pablo II;-36.83855385;-73.09743306
35135;Av Pdte. Jorge Alessandri / Oriente;-36.83506282;-73.10119744
35136;Av Las Rosas - Las Azaleas;-36.83446748;-73.11021618
35137;Enrique Soro / Oriente;-36.83170082;-73.10063023
35138;Enrique Soro - Pasaje Dos / Norte;-36.83115016;-73.10226966
35139;Enrique Soro - Crispulo Gandara / Norte;-36.83098943;-73.10518887
35140;Enrique Soro - Los Cipreses / Norte;-36.83086662;-73.10709802
35141;Enrique Soro - Ted Guzman / Norte;-36.83060908;-73.10960473
35142;Enrique Soro - Moises Amaral / Norte;-36.83039962;-73.11287269
35143;Enrique Soro - Los Claveles / Norte;-36.83030266;-73.11471391
35144;Enrique Soro - Las Garzas / Norte;-36.83040405;-73.11656146
35145;Las Garzas - Las Violetas / Poniente;-36.83195481;-73.11659071
35146;Las Golondrinas / Oriente;-36.83567674;-73.1165555
35147;Calle E;-36.83347662;-73.11706918
35148;Candelaria - Los Choroyes;-36.83390869;-73.11874053
35149;Av Las Torres - La Marina;-36.82927236;-73.1230811
35150;Av Las Torres - Ejercito;-36.82806138;-73.12630613
35151;Av Las Torres - Pasaje Cinco / Norte;-36.82733369;-73.12817386
35152;Av Las Torres - Pasaje Cinco / Sur;-36.82749675;-73.12822595
35153;Av Las Torres - Pasaje Uno;-36.82896023;-73.12443419
35154;Candelaria - Las Tortolas;-36.83407108;-73.11931962
35155;Candelaria - Los Pidenes;-36.83392911;-73.11775329
35156;Las Garzas - Las Violetas / Oriente;-36.83194349;-73.11644522
35157;Las Garzas - Enrique Soro;-36.83078389;-73.11664185
35158;Enrique Soro - Los Claveles / Sur;-36.83039187;-73.11465566
35159;Enrique Soro - Moises Amaral / Sur;-36.83049891;-73.11288147
35160;Enrique Soro - Ted Guzman / Sur;-36.83068187;-73.10964779
35161;Enrique Soro - Los Cipreses / Sur;-36.83088732;-73.10726569
35162;Enrique Soro - Crispullo Gandara / Sur;-36.83106133;-73.10517589
35163;Enrique Soro - Pasaje Dos / Sur;-36.83131215;-73.10225445
35164;Enrique Soro - Las Violetas;-36.8324358;-73.10093722
35165;Av Pdte. Jorge Alessandri / Poniente;-36.83459826;-73.10145561
35172;Salas - Chacabuco;-36.83325321;-73.05340861
35173;Salas - Cochrane;-36.83209317;-73.05412198
35190;Irarrazaval - Gral Novoa;-36.81493871;-73.03099301
35192;Av Gral Oscar Bonilla - Regimiento / Sur;-36.81240052;-73.02522905
35234;Ruta 160 / Costamar;-36.85496977;-73.13283879
35235;Ruta 160 - Uno / Poniente;-36.86987166;-73.13646975
35236;Ruta 160 / Poligono Industrial;-36.87561683;-73.13785593
35237;Manuel Rodriguez / Central Electrica;-36.88061272;-73.13744288
35238;Manuel Rodriguez / Escuela Lenguaje;-36.88089604;-73.13539399
35239;Manuel Rodriguez / Iglesia;-36.8811302;-73.13366044
35240;Los Castaños - Gabriela Mistral;-36.88207518;-73.13357011
35241;Los Castaños - Victoria;-36.88387483;-73.13395266
35242;Victoria - Los Castaños;-36.88424531;-73.13343873
35243;Victoria - Los Cipreses;-36.88447202;-73.13180626
35244;Progreso - Victoria;-36.8848252;-73.13019314
35245;Progreso - Los Sauces;-36.88691069;-73.13041156
35246;Progreso / Sur;-36.88900326;-73.13050639
35247;Jerusalem - Los Boldos;-36.88901329;-73.13229029
35248;Jerusalem / Poniente;-36.88809523;-73.13811385
35249;Javier Carrera - Las Araucarias;-36.8870119;-73.13857778
35250;Javier Carrera;-36.88448246;-73.13821283
35251;Coloane / Intermedia;-36.8938229;-73.13321669
35259;Ruta 160 - Jerusalem / Oriente;-36.88800599;-73.1404724
35260;Benjamin Subercaseaux - Luis Duran;-36.89368844;-73.13958267
35261;Benjamin Subercasseaux - Edgard Garrido;-36.89423828;-73.13613545
35262;Benjamin Subercaseaux / Oriente;-36.89483203;-73.13204747
35263;Polígono Coloane / Oriente;-36.89418299;-73.13146854
35264;Edgard Garrido - Daniel Belmar;-36.89339227;-73.13563983
35265;Maria Luisa Bombal / Oriente;-36.8923388;-73.13628264
35266;Maria Luisa Bombal - Pje Juan Guzman;-36.89192291;-73.13907568
35267;Maria Luisa Bombal / Poniente;-36.89166995;-73.14076503
35268;Ruta 160 / Carrozi;-36.88144681;-73.13890364
35269;Ruta 160 / Central Electrica;-36.87997205;-73.13854675
35270;Ruta 160 / Colegio Galvarino;-36.87783694;-73.13803762
35271;Cementerio Parque San Pedro;-36.86993811;-73.13610916
35272;Ruta 160 - Lagunillas Callejon;-36.85564269;-73.13264296
35273;Ruta 160 - Colegio Alborada;-36.84780808;-73.13079245
35274;Ruta 160 - Av Michaihue / Oriente;-36.84609782;-73.13036308
35275;Ruta 160 - Daniel Belmar / Oriente;-36.84135973;-73.12883
35318;Los Copihues - Los Crisantemos;-36.83616903;-73.00101449
35319;30 De Octubre - Azucenas;-36.83452231;-73.00224591
35320;30 De Octubre - Los Tilos;-36.83368075;-73.00311997
35321;Cno. Nonguén - 30 De Octubre;-36.83290945;-73.00549466
35387;Rene Schneider - Pje Los Lobos;-36.84571675;-73.14054407
35399;Longitudinal Uno - Manuel Rodriguez / Norte;-36.84217908;-73.14025969
35400;Rene Schneider - Volcan Villarrica / Poniente;-36.84785514;-73.14011096
35401;Nueva Los Copihues - Pasaje Nueve / Sur;-36.84856509;-73.13709933
35402;Galvarino - Loncomilla;-36.84949187;-73.14217976
35409;Pincheira - Lota;-36.84018504;-73.09067558
35410;Terminal Candelaria;-36.82467043;-73.13018957
35411;Michimalongo - Galvarino;-36.84181487;-73.09170038
35412;Av. Michimalongo - Centro Comercial;-36.84277994;-73.09342581
35413;Av. Michimalongo - Servicentro Copec;-36.84406652;-73.09721795
35414;Forestal Mininco / Oriente;-36.84336006;-73.09869331
35415;Los Canelos - Cangrejeras / Oriente;-36.84190439;-73.09953677
35416;Los Canelos - Madreselvas / Oriente;-36.84068046;-73.10021748
35417;Ruta 160 - Av Los Claveles;-36.83754374;-73.11492861
35418;Diagonal Bio Bio;-36.83737036;-73.11820718
35419;Av. Diagonal Biobio - Las Torcazas / Oriente;-36.83648322;-73.11910356
35420;Av. Diagonal Biobio - Las Palomas / Oriente;-36.83532418;-73.11990565
35421;Av. Diagonal Biobio - Candelaria / Oriente;-36.83392326;-73.12023149
35422;Av. Diagonal Biobio - Los Abetos / Oriente;-36.8320434;-73.12047933
35423;Av. Diagonal Biobio - Av Las Torres;-36.83067728;-73.12072579
35424;Diagonal Biobio - Las Torres / Oriente;-36.82949383;-73.12112475
35425;Diagonal Biobio - Central;-36.8283188;-73.12034623
35426;Central - La Marina / Norte;-36.82763851;-73.12121498
35427;Central - Carlos Condell / Norte;-36.82724936;-73.122256
35428;Central - Aviación / Norte;-36.82670457;-73.12371565
35429;Central - Ejercito / Norte;-36.82598505;-73.12552711
35430;Central - Carabinero / Norte;-36.82527468;-73.12734952
35474;Fresia - Galvarino;-36.85015752;-73.1449787
35475;Consultorio San Pedro De La Costa;-36.84874042;-73.14658307
35476;Gimnasio Michailuhe;-36.84310352;-73.14693223
35477;Central - Pasaje Ciento Veintiuno / Poniente;-36.8438039;-73.14849656
35478;Central - Pasaje Ciento Doce / Poniente;-36.84609121;-73.14836289
35479;Central - Los Boldos / Poniente;-36.84727098;-73.14830079
35480;Central - Loncomilla;-36.84921591;-73.14817536
35481;Central - Calle C;-36.85080979;-73.14808083
35482;Central - Pasaje Sesenta Y Siete;-36.85223994;-73.14673409
35483;Galvarino - Central / Poniente;-36.85257944;-73.14596322
35484;Tucapel - Galvarino;-36.85350764;-73.14595201
35485;Lautaro - Pasaje Veintidos;-36.85302926;-73.14186982
35486;Central - Pasaje Veinticinco;-36.85291092;-73.14006695
35487;Central - Pasaje Veintiocho;-36.85306654;-73.13849297
35488;Central - Pasaje Siete;-36.85331549;-73.1359746
35489;Pasaje Las Rosas - Tucapel;-36.85438432;-73.13573553
35490;Tucapel / Bigger;-36.85478488;-73.13483974
35491;Nueva Uno / Sur;-36.8546871;-73.13320458
35492;Instituto Forestal;-36.84799763;-73.13138223
35507;Las Camelias Ote;-36.84941804;-73.13688796
35508;Segunda Longitudinal - Doce De Febrero;-36.8395741;-73.1408274
35510;Nueva Los Copihues - Pasaje Nueve / Norte;-36.84847341;-73.13700061
35511;Rene Schneider - Volcan Villarrica / Oriente;-36.84779898;-73.13997774
35512;Rene Schneider - Pje Los Peumos;-36.84522987;-73.14053343
35513;Longitudinal Uno - Manuel Rodriguez / Sur;-36.84223226;-73.14020233
35546;Los Copihues - Los Chorrillos;-36.83795748;-73.00285176
35547;Treinte De Octubre - Pje Tres;-36.83561461;-73.00127561
35548;Treinta De Octubre - El Sauce;-36.83304868;-73.00466131
35553;Lo Canelos - Los Copihues;-36.84046683;-73.00146327
35568;Los Copihues - Pje Uno;-36.83865609;-73.00312514
35575;Los Carrera - Pelantaro;-36.8166959;-73.03641858
35576;Los Carrera - Ainavillo;-36.81761526;-73.03860354
35577;Los Carrera - Lautaro;-36.81865633;-73.0410657
35578;Los Carrera - Paicaví;-36.81971758;-73.04366195
35587;Nueva Uno / Intermedia;-36.8529528;-73.13296638
35606;Gimnasio Michaihue / Poniente;-36.84317787;-73.14707622
35607;Consultorio San Pedro De La Costa / Poniente;-36.8486616;-73.14673077
35616;Av Central / Sur;-36.82461162;-73.1293165
35617;Central - Costanera;-36.82491533;-73.12856913
35618;Central - Carabinero / Sur;-36.82535612;-73.12736996
35619;Central - Ejercito / Sur;-36.8261027;-73.12555787
35620;Central - Aviación / Sur;-36.82680421;-73.12374685
35621;Central - Carlos Condell / Sur;-36.82734882;-73.12227599
35622;Central - La Marina / Sur;-36.82773038;-73.12132486
35623;Central - Diagonal Biobio / Sur;-36.82807837;-73.1205315
35624;Diagonal Biobio - Las Torres / Poniente;-36.82943182;-73.12119354
35625;Av. Diagonal Biobio - Los Alamos;-36.83098467;-73.12078555
35626;Av. Diagonal Biobio - Los Abetos / Poniente;-36.83182117;-73.12067538
35627;Av. Diagonal Biobio - Candelaria / Poniente;-36.83396143;-73.12036511
35628;Av. Diagonal Biobio - Las Palomas / Poniente;-36.83553283;-73.11999025
35629;Av. Diagonal Biobio - Las Torcazas / Poniente;-36.83661113;-73.11921256
35638;Terminal Michaihue;-36.8467969;-73.14448796
35639;Tucapel - Pje Diecinueve;-36.85404839;-73.1407572
35640;Tucapel - Tucapel;-36.85451622;-73.13667447
35641;Galvarino - Pasaje Los Canelos;-36.84557085;-73.14447274
35646;Galvarino - Fresia;-36.85036772;-73.14516428
35647;Galvarino - Loncomilla;-36.84888292;-73.14474034
35648;Galvarino - Los Boldos;-36.84734476;-73.14436257
35649;Galvarino - Camilo Henriquez;-36.84671406;-73.14437781
35650;Galvarino - Las Vegas;-36.84381549;-73.14461609
35678;Enrique Soro - Las Garzas / Sur;-36.83053587;-73.11691703
35681;Los Peñascales / Oriente;-36.83509206;-73.10077062
35688;Acceso A Vega Monumental / Oriente;-36.81014644;-73.08132237
35689;Maipú - Lientur;-36.81840682;-73.03686812
35690;Av. Padre Hurtado - Maipú;-36.82858875;-73.06139767
35691;Vega Monumental - 21 De Mayo;-36.80824625;-73.07807433
35692;21 De Mayo - Cuarto Centenario / Sur;-36.80953967;-73.0761252
35693;21 De Mayo - Miraflores;-36.81109475;-73.07308213
35694;21 De Mayo - Abraham Valenzuela;-36.81248256;-73.07028975
35695;Condominio Bordelaguna / 21 De Mayo;-36.81350729;-73.06900852
35696;21 De Mayo - Argomedo / Poniente;-36.81564574;-73.06748625
35697;21 De Mayo - Gral Cruz;-36.82264661;-73.06401408
35698;Maipú - Serrano;-36.82771593;-73.05927823
35699;Maipú - Salas;-36.82712362;-73.0577796
35700;Parroquia San José / Maipú - Lincoyán;-36.82616672;-73.05548298
35701;Maipú - Rengo;-36.82554789;-73.05401871
35702;Maipú - Caupolicán;-36.8246481;-73.05191133
35703;Maipú - Anibal Pinto;-36.82415939;-73.05069048
35704;Maipú - Colo Colo;-36.82365358;-73.04952612
35705;Maipú - Castellón;-36.82338035;-73.04880433
35706;Maipú - Tucapel;-36.82297694;-73.0478392
35707;Maipú - Ongolmo;-36.82181335;-73.04504359
35708;Maipú - Paicaví;-36.82127824;-73.04374553
35709;Maipú - Janequeo;-36.8207628;-73.04254788
35714;Estanque - Providencia;-36.83645439;-73.00566048
35753;Cuarta Transversal;-36.84107531;-73.14287686
35754;Longitudinal Uno - Transversal Uno;-36.84245716;-73.1430565
35768;Galvarino - Las Vegas / Poniente;-36.84383579;-73.14476139
35810;Camilo Henriquez - Pasaje Los Rosales;-36.84626875;-73.14125966
35811;Longitudinal Uno - Longitudinal Dos;-36.84247333;-73.14236083
35812;Cuarta Transversal - Segunda Longitudinal;-36.83994907;-73.1429041
35830;Estanque / Valparaíso;-36.83649795;-73.00610788
35831;Arturo Prat - Las Heras;-36.82616926;-73.06115602
35832;Arturo Prat - Martínez De Rosas;-36.8251252;-73.06179901
35833;Arturo Prat - Gral. Cruz;-36.82302934;-73.0631636
35834;21 De Mayo - Argomedo / Oriente;-36.81586606;-73.06717804
35835;Laguna Redonda / 21 De Mayo;-36.81381171;-73.06832827
35836;21 De Mayo - Magallanes;-36.81252033;-73.06984041
35837;Plazoleta Juan Antonio Ríos;-36.810983;-73.07286074
35838;21 De Mayo - Cuarto Centenario / Norte;-36.80936649;-73.07600623
35839;21 De Mayo - Pedro De Ona;-36.80804151;-73.07767592
35840;Acceso A Vega Monumental / Poniente;-36.81031385;-73.08164326
35862;Tucapel - Pje Dieciocho;-36.85402675;-73.13995018
35954;Calle Nueva;-36.83928772;-73.09823348
35955;Los Canelos - Madreselvas / Poniente;-36.84050492;-73.10051338
35956;Los Canelos - Cangrejeras / Poniente;-36.84196961;-73.09966973
35957;Forestal Mininco / Poniente;-36.84347015;-73.09881394
35958;Av. Michimalongo - Central;-36.84361421;-73.09430223
35959;Av. Michimalongo - Colmenares;-36.84236517;-73.09229227
35960;Llacolén - Av Michimalongo;-36.8411024;-73.09055185
36001;O`Higgins - San Carlos;-36.78374198;-73.08216035
36002;Las Golondrinas - Dos Pte;-36.7816687;-73.09054872
36003;Las Golondrinas - Cinco Pte;-36.78177698;-73.0911175
36026;Paicaví - Freire;-36.82232973;-73.04301246
36051;Freire - Lautaro;-36.82099671;-73.04033338
36052;Freire - Janequeo;-36.82155851;-73.04160831
36053;Freire - Paicaví;-36.82204675;-73.04279545
36054;Freire - Ongolmo;-36.82260026;-73.04411547
36055;Freire - Orompello;-36.82312599;-73.04539137
36056;Freire - Castellón;-36.8241671;-73.04786502
36090;Freire - Anibal Pinto / Oriente;-36.82523685;-73.0504389
36091;Freire - Anibal Pinto / Poniente;-36.82539645;-73.05082726
36092;Freire - Rengo;-36.82620451;-73.05283607
36093;Freire - Lincoyán;-36.82661616;-73.05375621
36094;Freire - Angol;-36.82715098;-73.05504322
36095;Freire - Salas;-36.82781705;-73.05664087
36096;Freire - Serrano;-36.82833419;-73.0579508
36097;Freire - Arturo Prat;-36.82879396;-73.05906039
36115;Carampangue - Chonchi;-36.79265069;-73.08909939
36116;Carampangue - Quemchi;-36.79266232;-73.09206892
36119;Bremen - La Reconquista;-36.79550509;-73.09960813
36120;Bremen - Atenas / Norte;-36.79491897;-73.10072092
36121;Bremen - Frankfort / Norte;-36.79419352;-73.10213972
36122;Bremen - Valencia;-36.79250555;-73.10537532
36123;Bremen - Bulgaria / Norte;-36.792025;-73.10632853
36124;Bremen - Gran Bretaña / Norte;-36.79191803;-73.10810183
36147;Madrid - La Pera;-36.79102463;-73.10803415
36148;Granada - Zaragoza;-36.78844106;-73.1054082
36149;Bulgaria - Tres Pte;-36.78800429;-73.10401818
36157;Belgica - Londres;-36.78297594;-73.11031631
36158;Gran Bretaña - Yugoslavia / Oriente;-36.78166117;-73.11152515
36159;Gran Bretaña - Dinamarca / Oriente;-36.77966068;-73.11212329
36161;Gran Bretaña - Yugoslavia / Poniente;-36.78099094;-73.11188896
36162;Gran Bretaña - Finlandia / Poniente;-36.78471384;-73.11077788
36169;Bulgaria - Paris;-36.78288743;-73.1041891
36170;Bulgaria - Finlandia;-36.78451838;-73.10416012
36171;Bulgaria - Grecia / Poniente;-36.78651928;-73.10415563
36172;Bulgaria - Granada;-36.78807869;-73.10416203
36173;Granada - Madrid;-36.78834587;-73.10565708
36174;Madrid - Baracaldo;-36.79066683;-73.10763952
36176;Bremen - Gran Bretaña / Sur;-36.79204506;-73.10815474
36177;Bremen - Bulgaria / Sur;-36.79201215;-73.10665384
36178;Bremen - Alemania;-36.79299109;-73.10473577
36179;Bremen - Frankfort / Sur;-36.79413671;-73.10253337
36180;Bremen - Atenas / Sur;-36.79504565;-73.10075141
36181;Bremen - Palermo;-36.79564888;-73.09958216
36184;Carampangue - Corral;-36.79292805;-73.09346319
36197;Carampangue - Pto Octay;-36.79275658;-73.091764
36198;Purranque - Patria Nva;-36.79203961;-73.09089645
36204;O`Higgins - San Carlos / Sur;-36.78411282;-73.08224075
36307;Belgica - Bristol;-36.78293859;-73.10966731
36310;Grecia - Cadiz;-36.78666749;-73.10214611
36324;Carampangue - Chaiten;-36.79274025;-73.08850321
36489;Ramuntcho - Quillon;-36.79676786;-73.09572156
36490;Ramuntcho - Quirihue;-36.79594571;-73.09447549
36551;Toscana - Tirol;-36.79143073;-73.09733298
36552;Toscana - Alicante;-36.7902409;-73.0973288
36553;Patria Vieja - Palermo / Norte;-36.78961375;-73.09812876
36554;Patria Vieja - Altonia / Norte;-36.78961144;-73.0996753
36565;Gracia - Venecia;-36.78678061;-73.10245709
36641;Pipilco - Postdam / Poniente;-36.79922058;-73.09691609
36686;Ramuntcho - Iiquen;-36.79605559;-73.09514521
36687;Los Escritores - Hualqui;-36.79725166;-73.09610184
36688;Los Escritores - Pilpilco;-36.79792958;-73.09565917
36689;Guarilihue - Pje Dieciseis;-36.80360242;-73.10038313
36697;Calle Dos;-36.79655225;-73.112157
36698;Calle Siete - Pasaje Quince;-36.79709666;-73.11011507
36752;Trasera Polonia - Finlandia;-36.78682254;-73.11700147
36753;Trasera Calmar / Poniente;-36.78949253;-73.11542325
36768;Patria Vieja - Altonia / Sur;-36.78974492;-73.10013147
36769;Patria Vieja - Palermo / Sur;-36.78974442;-73.09784537
36770;Toscana - Badalona;-36.79049586;-73.09749059
36771;Toscana - Patria Nva;-36.79170317;-73.09746073
36772;Toscana - Sabadell;-36.79279371;-73.09745616
36913;Las Golondrinas - Seis Pte / Norte;-36.78109397;-73.09292727
36916;Finlandia - Suecia;-36.78472715;-73.09691609
36917;Finlandia - Altonia;-36.78476871;-73.09951478
37001;Centro Educativo Evangelico;-36.78461548;-73.0983868
37038;Gran Bretaña - John Dalton / Oriente;-36.76728793;-73.11569809
37056;Las Golondrinas - Seis Pte / Sur;-36.78129505;-73.09310157
37075;Manuel Montt - Desiderio Sanhueza;-36.82674035;-73.06301397
37076;Plaza Bicentenario - Av Padre Hurtado;-36.8307215;-73.06063746
37101;Monaco - Gran Bretaña;-36.78896677;-73.11012432
37300;Santa Sabina;-36.79471178;-73.04566551
37301;Calle Nueve 2231;-36.77892768;-73.04062096
37302;Calle Nueve;-36.77967107;-73.04088215
37303;Calle 101 - Calle C;-36.78047774;-73.04170198
37304;Calle 101 - Condominio 1975;-36.78150245;-73.04207928
37305;Condominio 1873;-36.78289452;-73.04232399
37306;Condominio 1855;-36.78343878;-73.04253425
37307;Condominio 1777;-36.78407424;-73.04280943
37308;Lleuque 1667;-36.78542458;-73.04325692
37309;Lleuque - Bartolome De Las Casas;-36.78695508;-73.04315075
37310;Los Lleuques - Abdon Cifuentes / Poniente;-36.78879136;-73.04300318
37311;Abdon Cifuentes - Gongora Y Marmolejo / Norte;-36.78899381;-73.04325578
37312;Abdon Cifuentes - Sady Zañartu;-36.79027083;-73.04527406
37313;Abdon Cifuentes - Jeronimo De Quiroga / Poniente;-36.79115617;-73.04594637
37314;Abdon Cifuentes - Jose Toribio Medina;-36.79220807;-73.04578516
37315;Abdon Cifuentes - Abate Molina;-36.79383566;-73.04555329
37316;Abdon Cifuentes - J Gonzalez Vera;-36.79575211;-73.04589684
37317;Abdon Cifuentes - Roxane;-36.79631146;-73.04757492
37318;Abdon Cifuentes - Hernan Del Solar;-36.79674484;-73.04871828
37319;Hernana Del Solar - Luis Durand;-36.79848735;-73.04889821
37320;Abdon Cifuentes - Carlos Silva Vildosola;-36.8000357;-73.04878047
37321;Addon Cifuentes - Sta Sabina;-36.8019663;-73.04833919
37322;Bellavista - Ainavillo;-36.80265893;-73.04880356
37323;Ainavillo - Ventus;-36.80407268;-73.04872285
37324;Ejercito - Pje Once;-36.80799215;-73.04644881
37325;Kingston College;-36.80535933;-73.04146064
37364;Lientur - Jm Garcia;-36.80386188;-73.04083749
37365;Jm Garcia - Lientur;-36.80385616;-73.04049018
37366;Pasarela La Polvora / Sur;-36.80705509;-73.03498355
37367;Gral Bonilla - Caamilo Henríquez;-36.80819815;-73.03325056
37368;Baquedano - Sta María;-36.81180246;-73.03319196
37369;Baquedano - Lorenzo Arenas;-36.8128828;-73.03148286
37398;Tribunales De Concepción - Tucapel;-36.82519781;-73.0458656
37399;Tucapel - Freire;-36.82385947;-73.04669565
37425;Cañete - Chaiten;-36.79474402;-73.08811719
37426;Liceo Simon Bolivar / Norte;-36.79474236;-73.09025779
37427;Cañete - Quemchi / Norte;-36.79476408;-73.09273404
37433;Ejercito De Salvacion / Oriente;-36.79104235;-73.10292349
37434;Granada - Venecia;-36.78834699;-73.10290031
37440;Alemania;-36.77965648;-73.10562451
37441;Estadio Municipal Hualpen;-36.77937745;-73.101127
37443;Dalcahue - Aisen;-36.77945085;-73.09895143
37445;Almirante Latorre - Pedro Montt;-36.72438482;-73.13175102
37471;Domingo Santa Maria 540;-36.72694691;-72.98284445
37474;Camilo Henríquez - Pedro Aguirre Cerda;-36.71283203;-72.97434719
37475;Los Olivos - Carlos Condell / Poniente;-36.72849124;-72.98728296
37476;H Mery - Lago Rupanco;-36.72962198;-72.98912341
37492;Pedro Aguirre Cerda - Carlos Duarte / Norte;-36.72032651;-72.97619922
37494;Cristobal Colon - Acuenta;-36.79736673;-73.08586652
37497;Cristobal Colon - Cañete;-36.79498061;-73.08657592
37508;Los Olivos - H Mery / Poniente;-36.72993356;-72.98782757
37515;Cristobal Colon - Patria Nva;-36.79160377;-73.086772
37517;Camino Viejo - V Ortaly / Poniente;-36.72735826;-72.98690944
37518;Cristobal Colon 8994;-36.80091922;-73.084265
37521;Colon - San Miguel;-36.7804802;-73.08670126
37522;Lientur - Maipu;-36.81864883;-73.03733278
37526;Tolten;-36.73103537;-72.98955684
37536;Veintiuno De Mayo - Pto Saavedra;-36.80266396;-73.08234974
37540;Cristobal Colon - Maxiahorro;-36.79924974;-73.08525925
37541;Pedro Aguirre Cerda 643;-36.71885355;-72.97491676
37545;Las Heras - Lientur;-36.81644917;-73.03839789
37555;Camilo Henriquez - David Quiroga;-36.71316233;-72.97574909
37560;* Domingo Santa Maria - Anibal Pinto;-36.72617563;-72.98360363
37564;Anibal Pinto - Williams Rebolledo / Norte;-36.72669825;-72.98519113
37567;Tolten - Bilbao;-36.73283954;-72.98858035
37574;Crsitobal Colon - Mafil;-36.79379349;-73.08673994
37577;Alemania - Portugal;-36.77935898;-73.10562063
37583;Granada - Alemania;-36.78844099;-73.1020127
37584;Ejercitos De Salvacion / Poniente;-36.79094556;-73.10307156
37590;Corral - Carampangue;-36.79328464;-73.09377935
37591;Cañete - Quemchi / Sur;-36.79489671;-73.09257385
37592;Liceo Simon Bolivar / Sur;-36.79486472;-73.09001941
37593;Cañete - Coihaique;-36.79487087;-73.08759851
37620;Plaza Condell / Janequeo;-36.81834925;-73.04376405
37621;Janequeo - Manuel Bulnes;-36.81667281;-73.04486049
37622;Manuel Bulnes - Lautaro;-36.81615187;-73.04387604
37623;Manuel Bulnes - Lientur;-36.81458417;-73.04008214
37624;Camilo Henríquez - Baquedano;-36.81064694;-73.03526164
37625;Camilo Henríquez - Diego De Oro;-36.80969478;-73.03436682
37626;Rodoviario Camilo Henríquez;-36.80883363;-73.03352574
37627;Pasarela La Polvora / Norte;-36.80669657;-73.03510481
37628;Lientur - Pje Tres;-36.80413715;-73.0411331
37629;Lientur - Juan De Dios Rivera;-36.80533452;-73.04159577
37630;Juan De Dios Rivera - Lientur;-36.80554911;-73.04203865
37631;Juan De Dios Rivera - Pje 31;-36.80571595;-73.04341306
37632;Pelantaro - Montriou;-36.80507301;-73.04432611
37633;Manuel Gutierrez - Carriel Sur;-36.80394208;-73.04516189
37634;Irene Frei De Cid;-36.80464855;-73.04756496
37635;Manuel Gutierrez - Galvarino;-36.80511024;-73.04878618
37636;Sta Sabina - Bellavista;-36.80295293;-73.04804515
37637;Hernan Del Solar - Acevedo Hernandez;-36.79834062;-73.04874503
37638;Hernan Del Solar - Abdon Cifuentes;-36.7971887;-73.04885271
37639;Abdon Cifuentes - Ruiz Aldea;-36.79640799;-73.04741557
37640;Abdon Cifuentes - Angel Cruchaga;-36.7957225;-73.04574069
37641;Abdon Cifuentes - P Marino De La V;-36.79280802;-73.04554578
37642;Abdon Cifuentes - Jeronimo De Quiroga / Oriente;-36.79115377;-73.04580074
37643;Abdon Cifuentes - Benjamin Subercasseaux;-36.78980967;-73.04463581
37644;Abdon Cifuentes - Gongora Y Marmolejo / Sur;-36.78909125;-73.04315244
37645;Los Lleuques - Abdon Cifuentes / Oriente;-36.78882537;-73.04287905
37646;Los Lleuques - Coihue;-36.78759273;-73.04301127
37647;Lleuque - Av Los Presidentes;-36.78552055;-73.04306398
37648;Condominio 1710;-36.78447966;-73.04279911
37649;Condominio 1842;-36.78356381;-73.04246384
37650;Condominio 1876;-36.78309199;-73.04227415
37651;Calle 101 - Calle 105;-36.78213404;-73.04211924
37652;Calle 101 - Calle 102;-36.78121855;-73.04180638
37653;Calle Nueve 2152;-36.77984336;-73.04094499
37654;Calle Nueve - Cost;-36.77885339;-73.04048839
37655;Balmaceda;-36.71120174;-72.9744124
37656;Pedro Aguirre Cerda - Fresia / Poniente;-36.71486963;-72.97438324
37657;Pedro Aguirre Cerda - Arturo Prat / Poniente;-36.71632431;-72.97459134
37778;Abdon Cifuentes - Maqui;-36.78901749;-73.04250436
37779;Abdon Cifuentes - Canelo / Sur;-36.7887065;-73.04113391
37780;Abdon Cifuentes - Ulmo;-36.78911413;-73.03852369
37781;Abdon Cifuentes - Lingue / Poniente;-36.7912028;-73.03783165
37782;Campos Deportivos - Andalien;-36.79243223;-73.03695978
37783;Andalien 219;-36.79368425;-73.03581834
37784;Andalien - Los Notros;-36.79525837;-73.03453415
37785;Andalien 436;-36.79683655;-73.03349636
37786;Andalien - Dario Silva / Poniente;-36.79747047;-73.03313272
37787;Andalien - Parque Central / Poniente;-36.79933527;-73.03198666
37788;Andailen - Pje Sur;-36.80044131;-73.03128588
37789;Bellavista;-36.80235678;-73.03102388
37790;Camilo Henriquez - Senda Uno / Poniente;-36.80342195;-73.03003268
37791;Camilo Henriquez - Sta Sofia;-36.80425991;-73.03056042
37792;Camilo Henriquez - Calle Int;-36.80709114;-73.03225888
37794;Camilo Henríquez - Fioretti;-36.812664;-73.0373287
37795;Camilo Henríquez - Pelantaro;-36.81397897;-73.03890933
37796;Lientur - Martínez De Rosas;-36.8154117;-73.03943328
37829;Rucamanque - Lonconao / Norte;-36.71778696;-73.1340493
37830;Los Lobos - Rucamanque / Norte;-36.71761365;-73.13564333
37831;Los Lobos - Las Almejas;-36.71913991;-73.13813678
37832;Los Lobos - El Caiquen;-36.7199448;-73.14061413
37833;Los Lobos - Las Anchoas;-36.7212082;-73.14244229
37834;Los Cormoranes - Los Pinguinos;-36.7232333;-73.14167691
37836;Ramuntcho - Augusto Winter;-36.79591546;-73.08809927
37837;Ramuntcho - Calbuco;-36.79585524;-73.09052155
37838;Ramuntcho 405;-36.7958404;-73.09240475
37839;Corral - Ramuntcho / Oriente;-36.7957299;-73.09338252
37841;La Reconquista - Badalona;-36.79065322;-73.09437127
37842;La Reconquista - Lanco;-36.78943654;-73.094379
37843;La Reconquista - Lebu;-36.7880667;-73.09439053
37853;Quillota - Atacama;-36.77761901;-73.09431313
37855;Los Cormoranes - Las Fardelas;-36.7240944;-73.14256311
37856;Los Lobos - Los Cernicalos;-36.72125133;-73.14231809
37857;Los Lobos - El Queltelche;-36.72012001;-73.14086742
37858;Los Lobos - El Jurel;-36.7190764;-73.13753372
37859;Los Lobos - Rucamanque / Sur;-36.7176649;-73.13546295
37860;Rucamanque - Lonconao / Sur;-36.71785126;-73.13412612
37861;Rucamanque - Los Araucanos;-36.71823652;-73.13282925
37901;Manuel Rodriguez - Francia;-36.95515001;-73.01334984
37904;Talleres Omer Huett / Sp;-36.96714212;-72.99754887
37905;Quillota Baker;-36.77787469;-73.09451969
37912;La Reconquista - Quileco;-36.78848367;-73.09453708
37913;La Reconquista - Patria Vieja;-36.78955601;-73.09452173
37914;Liceo Pedro Del Rio Zañartu;-36.79034021;-73.09452471
37917;Corral - Ramuntcho / Poniente;-36.79563366;-73.09356422
37918;Ramuntcho - Celia Castro;-36.79592924;-73.09232409
37919;Ramuntcho - Julio Barnechea;-36.79595886;-73.09023879
37920;Ramuntcho - Catorce Nte;-36.79603024;-73.08739036
37949;Cristobal Colon 8401;-36.79105688;-73.0869537
37950;Cristobal Colon 8526;-36.79330985;-73.08693129
37951;Cristobal Colon - Pto Varas;-36.7952345;-73.08667047
37952;Crsitobal Colon - Los Escritores;-36.79679606;-73.08625057
37953;Cristobal Colon - Av Los Copihues;-36.7987598;-73.08561889
37954;Sagrados Corazones;-36.80022891;-73.08505554
37955;Cristobal Colon - Pto Saavedra;-36.80239423;-73.0829505
37963;Las Heras - Arturo Prat;-36.82618005;-73.06181724
37986;Las Heras - Serrano;-36.82540854;-73.05982983
37987;Las Heras - Angol;-36.82452779;-73.05777796
37988;Las Heras - Lincoyán;-36.82399153;-73.05640131
37989;Rengo - Maipú;-36.82521197;-73.05387026
37990;Rengo - Barros Arana;-36.82713874;-73.05264421
37991;Chacabuco - Caupolicán;-36.83101338;-73.04873377
37992;Chacabuco - Colo Colo / Sur;-36.83000078;-73.04634886
37993;Chacabuco - Tucapel / Sur;-36.82893957;-73.04375224
37994;Chacabuco - Orompello / Sur;-36.8284142;-73.04249866
37995;Chacabuco - Ongolmo / Sur;-36.82787924;-73.04121172
37996;Chacabuco - Paicaví / Sur;-36.82736192;-73.03990192
37997;Pinacoteca U De Concepción;-36.82725838;-73.03963548
37998;Univ. De Concepción;-36.82672229;-73.03828133
37999;Hospital Traumatológico - Roosevelt;-36.82486766;-73.0367703
38005;Pelantaro - Diagonal Ote;-36.8149554;-73.03799883
38006;Pelantaro - Pje Uno;-36.81417015;-73.03847848
38010;Camilo Henriquez - Andalien;-36.80679709;-73.03191894
38011;Camilo Henriquez - Libertad;-36.80516734;-73.03092948
38012;Camilo Henriquez - Senda Uno / Oriente;-36.80357399;-73.02996154
38013;Camilo Henriquez - Bellavista;-36.8017581;-73.02970545
38014;Andailen - Vicuña Mackena;-36.80032177;-73.03114324
38015;Andalien - Parque Central / Oriente;-36.79909072;-73.03191447
38016;Andalien - Dario Silva / Oriente;-36.79727794;-73.03293591
38017;Andalien 630;-36.79584299;-73.03391402
38018;Andalien - Pje Cinco;-36.79487059;-73.03452164
38019;Andalien - Campos Deportivos / Norte;-36.79272714;-73.03680657
38020;Abdon Cifuentes - Lingue / Oriente;-36.79109302;-73.03773359
38021;Abdon Cifuentes - Pehuen;-36.78905767;-73.03837945
38022;Abdon Cifuentes - Canelo / Norte;-36.78869272;-73.041392
38039;Patricio Lynch - Esmeralda / Poniente;-36.97844861;-72.94091482
38040;La Concepción - Esmeralda;-36.98024574;-72.93956323
38041;Colón - Manuel Bulnes;-36.97881605;-72.93768081
38042;Colón - Errázuriz;-36.97783694;-72.93631426
38043;Colón - Irarrázabal;-36.97663899;-72.93635786
38044;José Miguel Carrera - Portales;-36.9742709;-72.93648922
38045;José Miguel Carrera - La Araucana;-36.97265718;-72.93646541
38046;Bombero Ferret - Guacolda;-36.97076727;-72.93351734
38049;Los Naranjos - Calle1;-36.96900157;-72.93408178
38050;Los Yaganes - Los Olivos;-36.96819909;-72.93095844
38051;Fresia - Los Acacios;-36.96877839;-72.93058332
38052;Bombero Perret - Fresia;-36.96919455;-72.93015645
38053;Bombero Perret - Tegualda;-36.96824315;-72.92831767
38054;Tegualda - Calle1 / Poniente;-36.97012632;-72.92725568
38055;Terminal De Buses Las Galaxias - Poniente;-36.97314458;-72.92719627
38068;Ruta 150 / Oriente;-36.75143261;-72.99973239
38069;Ruta 150 / Norte;-36.74876814;-73.0004736
38070;Bernardo Ohiggins 27;-36.74125992;-72.99885419
38071;Talcahuano - Las Heras;-36.74016358;-72.99851309
38075;Tolten - Cochrane;-36.73387382;-72.98791507
38076;Camino Viejo - Tolten;-36.73221922;-72.98867493
38077;Camino Viejo 176;-36.73108712;-72.98781985
38078;Los Olivos - H Mery / Oriente;-36.73010303;-72.98772237
38079;Los Olivos - Carlos Condell / Oriente;-36.72852557;-72.98718128
38080;Camino Viejo - V Ortaly / Oriente;-36.72740142;-72.98679634
38081;Anibal Pinto - Williams Rebolledo / Sur;-36.72680579;-72.98515473
38082;Ruta 150 - Los Mañios / Oriente;-36.72497333;-72.97914516
38083;Pedro Aguirre Cerda - Carlos Duarte / Sur;-36.72048544;-72.97600472
38084;Pedro Aguirre Cerda - Arturo Prat / Oriente;-36.7164012;-72.97434302
38085;Pedro Aguirre Cerda - Fresia / Oriente;-36.71483918;-72.97418253
38086;Camilo Henriquez 43;-36.71310739;-72.97675809
38087;Balmaceda - Malaquias Concha;-36.71219308;-72.97652459
38088;Balmaceda - David Quiroga;-36.71195605;-72.97583673
38089;Balmaceda - Manuel Rodriguez;-36.71154518;-72.9749967
38090;Balmaceda;-36.71129107;-72.97436527
38091;Terminal De Buses Las Galaxias / Oriente;-36.97316906;-72.92704957
38092;Tegualda - Padre Ignacio García Central;-36.97096508;-72.92677239
38093;Tegualda - Calle1 / Oriente;-36.97006893;-72.92706629
38094;Tegualda - Bombero Perret;-36.96827507;-72.92808092
38095;Fresia - Bombero Perret;-36.96894544;-72.93034292
38096;Calle 1 - Los Naranjos;-36.96915862;-72.93430218
38097;Caale 1 - Av La Araucana / Poniente;-36.97298711;-72.93315401
38098;Portales - Pedro De Valdivia;-36.97444514;-72.93303593
38099;Portales - San Martín;-36.97442199;-72.93429467
38100;Portales - Manuel Bulnes;-36.97435172;-72.93750926
38101;La Concepción - Esmeralda;-36.97977612;-72.93950849
38102;La Concepción - Colón;-36.97888135;-72.93936412
38103;Errázuriz - La Concepción;-36.97777036;-72.93922558
38104;Plaza De Hualqui - La Concepción;-36.97556563;-72.93890312
38105;La Concepción - Portales;-36.97450008;-72.93878584
38108;Pedro Aguirre Cerda - Rio Bio Bio / Norte;-36.70403554;-72.97490277
38121;Rio Bio Bio 1 / Norte;-36.70568987;-72.97413174
38124;Rio Bio Bio 2 / Oriente;-36.70519542;-72.97314847
38127;Rio Bio Bio 2 / Poniente;-36.70516053;-72.97321655
38146;Rio Ñuble;-36.70376963;-72.9714621
38149;Pedro Aguirre Cerda - Malaquías Concha;-36.70932707;-72.97600646
38151;Pedro Aguirre Cerda - Gral Amengual;-36.70957537;-72.9736491
38156;Pedro Aguirre Cerda - Stgo Aldea;-36.71073141;-72.97378665
38180;Terminal Lirquen;-36.71337106;-72.97742288
38194;Rio Bio Bio 1 / Sur;-36.70577209;-72.97419675
38204;Rio Laja;-36.70461593;-72.97140627
38210;Gran Bretaña 1200 / Oriente;-36.73763774;-73.11423951
38217;Pedro Aguirre Cerda - Rio Bio Bio / Sur;-36.70409727;-72.9748228
38235;Carlos Dittborn - Pasaje Dos;-36.74538437;-73.09976994
38236;Carlos Dittborn - Las Azaleas / Poniente;-36.74761892;-73.10028604
38237;Las Magnolias - Los Limoneros;-36.74942471;-73.09991669
38238;Las Magnolias - Los Manzanos;-36.74987647;-73.09829266
38239;Las Magnolias / Los Almendros;-36.75048196;-73.09613838
38240;Las Hortensias - El Tamarugo / Poniente;-36.75235847;-73.09455746
38241;Las Hortensias - Alto Horno / Poniente;-36.75409166;-73.09359608
38242;Colegio Los Condores;-36.75531488;-73.09287132
38243;Las Hortensias / Los Condores;-36.75717724;-73.09209709
38260;Lientur - Freire;-36.81937909;-73.03679844
38295;Talleres Omer Huett / So;-36.96690543;-72.99740905
38296;Talleres Omer Huett / Np;-36.96654217;-72.9993842
38404;Lago Rupanco - Rio Loncomilla / Oriente;-36.76234939;-73.10044918
38537;Gomez Carreño - Autopista;-36.7648966;-73.08616998
38538;Gomez Carreño - Los Juncos;-36.76326169;-73.08707322
38542;Terminal;-36.73888408;-73.10985258
38543;Toribio Medina;-36.73546873;-73.10933162
38573;Almirante Pedro Latorre - Pedro Montt / Norte;-36.72425265;-73.13194457
38574;Portales - Hualpén;-36.73332188;-73.11092964
38575;Simpson - Echeverría;-36.73461629;-73.11070754
38590;21 De Mayo - Empalme Juan Pablo II;-36.80714114;-73.07829251
38598;Rio Loa - Los Nardos;-36.76273671;-73.09030137
38599;Rio Petrohue - Rio Maule;-36.76351866;-73.09241047
38600;Lago Lanalhue - Lago Llanquihue;-36.76526093;-73.0931403
38601;Lago Llanquihue - Lago Peñuelas;-36.76527852;-73.09423774
38602;Lago Llanquihue - Lago Caburga;-36.7649158;-73.09635285
38603;Lago Llanquihue - Lago Palena;-36.7643648;-73.09796846
38604;Laguna Avendaño - Laguna Lo Galindo;-36.76618192;-73.09943597
38605;Laguna La Posada;-36.76784556;-73.10032477
38606;Lago Pirihueico - Laguna Lo Galindo;-36.76609169;-73.1005585
38607;Lago Llanquihue - Lago Pirihueico;-36.7637995;-73.09981966
38608;Rio Mapocho - Rio Pilmaiquen;-36.76180245;-73.09555604
38609;Colegio Villa Independencia;-36.76029431;-73.09424908
38610;Rio Maule - Las Gardenias;-36.7579099;-73.09506981
38611;Rio Maule - Los Girasoles;-36.75615738;-73.09426185
38612;Rio Maule - Alto Horno;-36.75454233;-73.09359613
38613;Las Hortensias - Alto Horno / Oriente;-36.75402608;-73.09344089
38614;Las Hortensias - El Tamarugo / Oriente;-36.75239164;-73.09437742
38615;Las Magnolias - El Cipres;-36.75023721;-73.09661485
38616;Las Magnolias - Los Cerezos;-36.74970057;-73.09856582
38617;Las Magnolias - Los Naranjos;-36.74925728;-73.10015603
38618;Carlos Dittborn - Las Azaleas / Oriente;-36.74773426;-73.10017119
38619;Carlos Dittborn - El Romerillo;-36.74523914;-73.09970632
38622;Club Deportivo Huachipato / Poniente;-36.74964532;-73.10470511
38623;Iquique - Taltal;-36.75302397;-73.1080159
38624;Iquique Freirina;-36.75252577;-73.11296779
38625;Iquique - Parque Limari;-36.74978737;-73.11023472
38744;Desiderio Garcia - Carlos Dittborn / Norte;-36.74482168;-73.10065741
38745;Colegio Espiritu Santo / Poniente;-36.74625224;-73.10219016
38746;Alto Horno - Taltal;-36.74769214;-73.10374513
38747;Alto Horno - Gabriela Mistral;-36.74679552;-73.10460721
38748;Alto Horno - Eudocio Milas;-36.74566795;-73.10511655
38749;Alto Horno - Almirante Navarrete;-36.74480041;-73.10554109
38750;Alto Horno - Victor Domingo Silva;-36.74348451;-73.10611103
38751;Alto Horno - Capitan Enos;-36.74218315;-73.10702778
38752;Alto Horno - Daniel Peine;-36.74113067;-73.10772559
38753;Alto Horno - Haiti;-36.74015874;-73.10838782
38754;Alto Horno - Nicaragua / Oriente;-36.7391149;-73.10906299
38755;Alto Horno - Gran Bretaña / Oriente;-36.73695584;-73.11045981
38756;Gran Bretaña 1200 / Poniente;-36.73781745;-73.11477266
38757;Juan Antonio Rios - Gran Bretaña / Oriente;-36.73930786;-73.12067173
38758;Juan Antonio Rios - Isla Sta Maria;-36.73415926;-73.11940868
38759;Juan Antonio Rios - Isla Navarino;-36.73209118;-73.11858568
38760;Juan Antonio Rios - Alto Horno / Oriente;-36.73059533;-73.1180399
38761;Juan Antonio Rios - La Marina;-36.7288903;-73.11737608
38762;Juan Antonio Rios - Ignacio Diaz / Oriente;-36.72704941;-73.11667081
38763;Transportes Cruz Del Sur;-36.71092042;-73.11528465
38764;Lobos Viejos;-36.72275923;-73.14306554
38777;Ignacio Diaz - Juan Macaya;-36.72533739;-73.11784354
38778;Juan Antonio Rios - Igancio Diaz / Poniente;-36.7269519;-73.11677397
38779;Juan Antonio Ríos / Poniente;-36.72887441;-73.11751084
38780;Juan Antonio Rios - Alto Horno / Poniente;-36.73078826;-73.11827035
38781;Juan Antonio Rios / Poniente;-36.7328104;-73.11903845
38782;Juan A. Ríos - Sta María / Poniente;-36.73413435;-73.11954367
38783;Juan Antonio Rios - Gran Bretaña / Poniente;-36.73944602;-73.12085875
38784;Alto Horno - Gran Bretaña / Poniente;-36.73720848;-73.11047602
38785;Alto Horno - Nicaragua / Poniente;-36.73927957;-73.10921573
38786;Hospital Las Higueras;-36.74052921;-73.10844592
38787;Alto Nte;-36.74238332;-73.10714605
38788;Alto Horno - Los Aromos;-36.74388202;-73.10616846
38817;Veintiuno De Mayo - Jorge Giacaman;-36.82208316;-72.99362307
38818;Alto Horno - Los Tilos;-36.74502762;-73.1056587
38819;Alto Horno - Los Castaños;-36.74586884;-73.10527961
38820;Alto Horno - Los Olmos;-36.7468263;-73.10484166
38821;Alto Horno - Desiderio Garcia;-36.74794245;-73.10361576
38822;Colegio Espiritu Santo / Oriente;-36.74645786;-73.10208429
38823;Desiderio Garcia - Carlos Dittborn / Sur;-36.74499108;-73.10054123
38824;Jorge Giacaman - Pje 7;-36.82326411;-72.99363707
38825;Jorge Giacaman - Los Alamos / Poniente;-36.82411715;-72.99344663
38826;Jorge Giacaman - Julio Diestre;-36.82638908;-72.99295003
38827;Jorge Giacaman - Nonguen;-36.82710754;-72.99279671
38828;Nonguen - Chile;-36.82754687;-72.99372702
38829;Chile - Julio Diestre / Oriente;-36.82708388;-72.99406425
38830;Chile - Concepcion / Oriente;-36.82538197;-72.99469169
38831;Chile - Veintiuno De Mayo / Oriente;-36.82280264;-72.99566712
39081;Galvez;-36.70845254;-73.11482999
39103;Los Lirios - Arturo Pérez Canto;-36.82136251;-73.01836186
39104;Los Lirios - Gral Gorostiaga;-36.82281502;-73.01898585
39105;Gral Gorostiaga - Cucha - Cucha;-36.82416111;-73.01701159
39106;Gral Gorostiaga - Sofanor Parra / Sur;-36.82479482;-73.01609832
39107;Gral Gorostiaga - Eloísa Urrutia / Sur;-36.82584582;-73.01372796
39108;E Cleret;-36.8270711;-73.01315811
39109;Calle Cinco - Calle Uno;-36.82885554;-73.01099289
39110;Calle Cuatro - Pje 21;-36.82621885;-73.00908793
39111;Calle Cuatro - Calle Dos;-36.82650339;-73.01047079
39112;Calle Dos - Pje Nueve;-36.82726974;-73.01048458
39113;Calle Dos - Pje Seis;-36.82839908;-73.01010776
39114;Calle Cinco - Quinta Agrícola;-36.8288546;-73.01147503
39115;Rafael De La Sota - Esteban Iturra;-36.8283692;-73.01263121
39116;Rafael De La Sota - Pedro Nolasco Cruz;-36.82782207;-73.01279112
39117;Gral Gorostiaga - Eloísa Urrutia / Norte;-36.82578971;-73.01360608
39118;Gral Gorostiaga - Sofanor Parra / Norte;-36.82471074;-73.0159211
39119;Gral Gorostiaga - Tarpellanca;-36.82395502;-73.01708417
39120;Gral Gorostiaga - Los Lirios;-36.82295842;-73.01893731
39121;Los Lirios - Capellán Pradenas;-36.82204194;-73.01856856
39139;Urba Final Avenida Dos;-36.79354656;-73.11700497
39194;Ventus - Janequeo;-36.80531595;-73.05198662
39195;Ventus - Galvarino;-36.80443324;-73.04982333
39213;Calle C - Camino Del Valle;-36.78056041;-73.04453474
39214;Calle C / Ermita / Norte;-36.7803639;-73.04793484
39215;Calle C - Calle Uno;-36.78060584;-73.05059549
39216;Ramon Carrasco - Urba Antilhue;-36.78442149;-73.05463367
39217;Unimarc / Poniente;-36.78742644;-73.05484903
39218;Ramon Carrasco - Paso Hondo;-36.78882171;-73.05639383
39219;Ramon Carrasco - Camila Melo;-36.78927115;-73.05797376
39220;Alonso Garcia De Ramon / Poniente;-36.79048593;-73.05840256
39221;Plazoleta Principal;-36.79173209;-73.05744095
39222;Calle Cuatro - Padre Alonso De Ovalle;-36.79436115;-73.05561504
39223;Calle Cuatro / Sur;-36.79506511;-73.05346789
39224;Calle Cuatro - Calle Sur / Sur;-36.79520657;-73.05164875
39225;Hernan Del Solar - Alvaro Bazan;-36.79512552;-73.04945421
39231;Trasera Calmar / Oriente;-36.78959958;-73.11535339
39232;Finlandia - Polonia;-36.78662254;-73.11689431
39233;Republica Del Peru;-36.78562925;-73.11564115
39234;Hungria - Camberra;-36.78317119;-73.11637369
39235;Yugoslavia - Hungria;-36.7821529;-73.11638741
39247;Calle Dos;-36.77521427;-73.02265435
39333;Las Rosas;-36.77891347;-73.02179738
39334;Las Rosas - Pje 10;-36.77716975;-73.0220887
39335;Las Rosas - Calle Tres;-36.77459694;-73.0240147
39336;Magallanes - Juan Abate Nux;-36.78833893;-73.04508783
39337;Magallanes - Los Celtas;-36.78702135;-73.04553593
39338;Magallanes - Galicia;-36.78582475;-73.04566718
39339;Cantabria / Sur;-36.78553367;-73.04495741
39340;Gongora Y Marmolejo - Galicia;-36.78591922;-73.04428647
39343;Colegio Almondale Lomas;-36.7757701;-73.04427552
39344;Principal - Las Azucenas;-36.77523864;-73.02141006
39393;Las Hortensias - Las Amapolas;-36.75763279;-73.09183936
39394;Las Hortensias - Los Pensamientos;-36.75916917;-73.09097235
39395;Las Hortensias - Rio Juncal;-36.76107118;-73.08986098
39396;Las Hortensias - Rio Diguillin;-36.76334888;-73.08857219
39397;Rio Llanquihue - Pasaje Tres;-36.76524669;-73.08888357
39398;Lago Llanquihue - Rio Tolten;-36.76559874;-73.09060008
39423;Plaza Belgica / Poniente;-36.77788665;-73.04856912
39424;Garcia Hurtado De Mendoza 456 / Sur;-36.79087364;-73.05399982
39425;Garcia Hurtado De Mendoza - Cosme Churruca / Sur;-36.7896876;-73.05147478
39426;Gobernador Juan Henriquez / Poniente;-36.78876628;-73.04805781
39427;Gobernador Juan Henriquez - Abdon Cifuentes;-36.79036905;-73.04686288
39464;Tucapel - Martinez Rosas;-36.81981775;-73.04920871
39465;Tucapel - Gral Cruz;-36.8177487;-73.05055044
39466;Tucapel - Manuel Rodriguez;-36.81581256;-73.0517542
39467;Juan De Dios Rivera - Pje Cuatro;-36.8053484;-73.04025038
39478;Rengo - Ejército;-36.81477561;-73.06054671
39479;Rengo - Argentina;-36.81615874;-73.05969346
39480;Rengo - Manuel Rodríguez;-36.81788902;-73.05857356
39481;Rengo - Gral. Cruz;-36.82021762;-73.05711338
39482;Rengo - Bulnes;-36.82103806;-73.05657693
39492;Tucapel - Av Argentina;-36.81354728;-73.05322406
39493;Tucapel - Ejército;-36.81157673;-73.05452945
39494;Janequeo - Montriou;-36.80734366;-73.05087039
39507;Lorenzo Arenas - Juan José Manzano;-36.81119537;-73.02973257
39508;Juan José Manzano - Sta María;-36.81016866;-73.03086861
39509;Jose Miguel Garcia - Lorenzo Arenas;-36.80957852;-73.02897817
39510;Sta Clara - Andalien;-36.80706648;-73.02968148
39514;Ejército - Ongolmo;-36.81041256;-73.05223858
39515;Ejército - Paicaví;-36.80956166;-73.05036578
39516;Ventus - Ester Roa;-36.80353008;-73.04751491
39517;Ventus - Carriel Sur;-36.80350631;-73.04497122
39518;Manuel Gutierrez - Calle Siete;-36.80288327;-73.04271179
39519;Lientur - Las Torres / Oriente;-36.80282151;-73.04005701
39520;Lientur - Nva Uno;-36.80226431;-73.03906248
39521;Lientur - Pje 33 / Sur;-36.80187681;-73.03797397
39522;Principal 355;-36.80125371;-73.03626384
39523;Principal - Pje Seis;-36.80087216;-73.03444669
39524;Principal - Pje Once / Sur;-36.80055176;-73.03360308
39525;Principal - Andalien / Sur;-36.79986516;-73.03187223
39531;Inicio Misionero Bartolome Del Pozo / Poniente;-36.79297872;-73.03948977
39532;Misionero Bartolome Del Pozo / Poniente;-36.79441868;-73.04099963
39533;Misionero Bartolome Del Pozo - Calle Del Cerro / Norte;-36.79528565;-73.04164998
39534;Calle Del Cerro - Juna Guzman / Oriente;-36.79395413;-73.04234509
39535;Los Lleques - Jose Toribio Medina / Oriente;-36.79217302;-73.04255853
39538;Ruta 156 - Cg Hacienda Patagonia;-36.8645733;-73.06938397
39539;Ruta 156 Km 5 8 / Oriente;-36.85818011;-73.0714292
39540;Ruta 156 Km 6 3 / Oriente;-36.85132302;-73.07321654
39541;Iglesia De La Candelaria;-36.84168818;-73.07991763
39542;Pedro Aguirre Cerda / Norte;-36.84094608;-73.0814052
39543;Pedro Aguirre Cerda / Centro Deportivo;-36.83992578;-73.08352767
39544;San Pedro 708;-36.83861771;-73.08737292
39548;Lincoyán - San Martín;-36.83065116;-73.05192726
39549;Lincoyán - Freire;-36.82727017;-73.05406478
39550;Lincoyán - Los Carrera;-36.825236;-73.05533836
39551;Las Heras - Caupolicán;-36.82300629;-73.05402704
39552;Caupolicán - Manuel Rodríguez;-36.81787939;-73.05688103
39553;Anibal Pinto - Bandera;-36.8163366;-73.05623621
39554;Brasil - Castellón;-36.81308954;-73.05554487
39559;Juan De Dios Rivera - Nva Dos;-36.80542819;-73.04016989
39565;Hernan Del Solar - Alberto Blest Gana;-36.79555485;-73.0492528
39566;Calle Cuatro - Calle Sur / Norte;-36.79503208;-73.05145144
39567;Calle Cuatro / Norte;-36.79499911;-73.05329025
39568;Calle Cuatro - Melchor Bravo De Saravia;-36.7942626;-73.05565115
39569;Padre Alonso De Ovalle - Cano Y Aponte;-36.79198242;-73.0562131
39570;Alonso Garcia De Ramon - Garcia Hurtado De Mendoza;-36.79171205;-73.05731818
39571;Alonso Garcia De Ramon / Oriente;-36.79042104;-73.05829213
39572;Ramon Carrasco - Ramona Hormazabal;-36.78917044;-73.05732634
39573;Ramon Carrasco - Calle Cuatro;-36.78871199;-73.05574664
39574;Unimarc / Oriente;-36.78775557;-73.05458297
39575;Ramon Carrasco 487;-36.78421944;-73.05440346
39576;Calle C - Calle C 542;-36.78069336;-73.0504364
39577;Calle C / Ermita / Sur;-36.78048139;-73.04795427
39578;Calle C / Unimarc;-36.7806562;-73.04433061
39579;Calle C - Calle 101;-36.7806201;-73.0426844
39602;Roosevelt - San Martín;-36.82348682;-73.03665984
39603;Hospital Clínico Regional De Concepción - Roosevelt;-36.82474579;-73.03703128
39604;Chacabuco - Ongolmo / Norte;-36.82757879;-73.04102878
39605;Chacabuco - Tucapel / Norte;-36.82856355;-73.04335818
39606;Chacabuco - Colo Colo / Norte;-36.82966208;-73.04603233
39607;Chacabuco - Anibal Pinto;-36.83015966;-73.0472418
39608;Chacabuco - Trinitarias;-36.83060942;-73.04828432
39609;Chacabuco - Lincoyán;-36.83159385;-73.05060271
39613;Manuel Gutierrez - Janequeo;-36.80626343;-73.05150305
39658;Bulgaria - Grecia / Oriente;-36.78639965;-73.1040017
39659;Parroquia San Miguel;-36.7844265;-73.10405032
39660;Centro De Salud Familiar Hualpencillo;-36.78313756;-73.10404847
39668;Hungria - Yugoslavia;-36.78230327;-73.11677592
39669;Hungria - Eger;-36.78359501;-73.11638572
39670;Los Carpatos;-36.78510157;-73.1159006
39671;Abdon Cifuentes - Gobernador Juan Henriquez;-36.79064411;-73.04659815
39672;Gobernador Juan Henriquez / Oriente;-36.7888402;-73.0476189
39673;Garcia Hurtado De Mendoza - Cosme Churruca / Norte;-36.78981078;-73.05184147
39674;Garcia Hurtado De Mendoza 456 / Norte;-36.79079383;-73.05408028
39675;Plaza Belgica / Oriente;-36.77785631;-73.0483682
39676;Colegio Almondale Lomas / Sur;-36.77581681;-73.04437517
39680;Gongora Y Marmolejo - Vasconia;-36.78624098;-73.04412141
39681;Cantabria / Norte;-36.78547428;-73.04518304
39682;Magallanes - Cantabria;-36.78565596;-73.04581715
39683;Magallanes - Bartolome De Las Casas;-36.78717654;-73.04565525
39684;Magallanes - Pje Tres A;-36.78833324;-73.04528968
39694;Los Lleques - Jose Toribio Medina / Poniente;-36.79175068;-73.04263652
39695;Calle Del Cerro - Juna Guzman / Poniente;-36.79395616;-73.04246832
39696;Misionero Bartolome Del Pozo - Calle Del Cerro / Sur;-36.79541105;-73.04160195
39697;Misionero Bartolome Del Pozo / Oriente;-36.79434255;-73.04075502
39698;Inicio Misionero Bartolome Del Pozo / Oriente;-36.79308646;-73.03946461
39699;Andalien - Campos Deportivos / Sur;-36.79253046;-73.03745037
39705;Principal - Andalien / Norte;-36.79984017;-73.03199615
39706;Principal - Pje Once / Norte;-36.80049036;-73.03370552
39707;Principal - Pje Trece;-36.80083964;-73.03466047
39708;Principal - Balmaceda;-36.80135231;-73.03677689
39709;Lientur - Pje 33 / Norte;-36.80178801;-73.03805469
39710;Lientur - Miguel Curuchaga;-36.80219372;-73.03915395
39711;Lientur - Las Torres / Poniente;-36.80271653;-73.04025022
39717;Lautaro - Montriou;-36.80669591;-73.04984439
39718;Juan De Dios Rivera - Janequeo;-36.80815342;-73.05023336
39719;Juan De Dios Rivera - Ongolmo;-36.80909294;-73.05256345
39720;Juan De Dioss Rivera - Los Retamos;-36.80992781;-73.05455997
39721;Ejército - Colo Colo;-36.8125165;-73.05743138
39722;Aníbal Pinto - Argentina;-36.81488563;-73.05734908
39723;Manuel Bulnes - Colo Colo;-36.81992086;-73.05274868
39724;Manuel Bulnes - Tucapel;-36.81882414;-73.05017562
39725;Orompello - Las Heras;-36.81993707;-73.04769223
39736;Calle Tres - Calle Dos;-36.81517935;-73.08042322
39737;Dr. Sta. Cruz - Pje Tres;-36.81393255;-73.07968088
39738;Rodolfo Briceño - Miraflores;-36.81389803;-73.07643087
39739;Jorge Montt - Sotomayor;-36.81403565;-73.07435359
39740;Jorge Montt - Alte Riveros / Sur;-36.81618912;-73.07153069
39741;Jorge Montt - Argomedo;-36.81753794;-73.06966954
39742;Rosamel Del Solar - Pedro León Gallo;-36.81843225;-73.06757312
39766;Los Notros - Los Cipreses / Norte;-36.79617727;-73.03559777
39767;Los Notros - Los Naranjos;-36.79730578;-73.03680175
39768;Los Nardos 2570 / Poniente;-36.79838559;-73.03833204
39769;Balmaceda - Vasconia;-36.79990208;-73.03792349
39775;Barrio Norte;-36.80549094;-73.03850942
39910;Balmaceda - Manuel Gutierrez;-36.80082871;-73.0372722
39911;Balmaceda - Los Lingues;-36.79907895;-73.03829193
39912;Los Nardos 2570 / Oriente;-36.79837436;-73.03819783
39913;Los Notros - Los Notros;-36.79725408;-73.03639961
39914;Los Notros - Los Cipreses / Sur;-36.79625706;-73.03551728
39940;Jorge Montt - Alte. Riveros / Norte;-36.81631772;-73.0711239
39941;Miraflores - Calle Uno;-36.81538115;-73.07785106
39942;Almirante Latorre - El Huascar / Norte;-36.72047181;-73.12594532
39954;Alc Rene Mendoza - Pedro De Valdivia;-36.71969427;-72.98195936
39955;Alc Rene Mendoza - Lautaro;-36.71874657;-72.98081979
39956;Alc Rene Mendoza - Los Alamos;-36.71800778;-72.97977554
39973;Av Pedro Aguierre Cerda 380;-36.83922153;-73.08736909
39974;Pedro Aquirre Cerda / Sur;-36.84105582;-73.08150339
39975;Pedro Aguirre Cerda / Gasolinera;-36.84192727;-73.07965372
39976;Ruta 156 Km 6 3 / Poniente;-36.85152432;-73.07340215
39977;Ruta 156 Km 5 8 / Poniente;-36.85820068;-73.07158572
39978;Ruta 156 - Recodo;-36.86445264;-73.06972353
39979;Acceso Capilla Montahue;-36.86529171;-73.07144111
39980;Salida Recodo;-36.8647374;-73.07005288
39981;Ruta 156 Km 4 2 / Poniente;-36.86870273;-73.06836017
39982;Acceso Pedro De Valdivia Sur;-36.87280256;-73.06717992
39983;Pedro De Valdivia Sur / Interior;-36.87430886;-73.07057489
39984;Salida Pedro De Valdivia Sur;-36.87365006;-73.0666425
39985;Ejercito - Pelantaro;-36.80702641;-73.04417554
39986;Barrio Norte;-36.80692039;-73.05144157
39991;Carriel Sur - Montriou;-36.80494139;-73.04509164
40035;Chipre;-36.79958169;-73.10372154
40037;Postdam - Alemania;-36.79403463;-73.10574111
40038;Sajonia - Alemania;-36.79506782;-73.1060967
40039;Sajonia - Munich;-36.79662219;-73.10352554
40040;Postdam - La Reconquista;-36.79682385;-73.10034885
40041;Postdam - Quirihue;-36.8002987;-73.09388567
40042;Av Los Copihues - Las Loberias;-36.80009772;-73.09090935
40043;Av Los Copihues - Los Robles;-36.79967592;-73.08877912
40107;Jose Diaz - Bilbao;-36.72511583;-73.11751303
40115;Almirante Latorre - El Huascar / Sur;-36.72061438;-73.12584109
40116;Almirante Latorre 860;-36.71949208;-73.12325964
40117;Almirante Latorre 788;-36.7187114;-73.12119616
40118;Oceano Atlantico - Mar Egeo;-36.8020923;-73.10120502
40119;Oceano Atlantico - Mar Negro;-36.80150103;-73.103125
40160;C Al Puerto Lirquen - La Marina / Norte;-36.72052787;-72.98434472
40161;Central / Norte;-36.72268317;-72.98813995
40162;Central - Pje 7 / Poniente;-36.72358204;-72.98959445
40163;Central - Pje 5 / Poniente;-36.72434866;-72.99015669
40164;Central - El Faro / Poniente;-36.72479616;-72.99050332
40165;Central / Poniente;-36.7257863;-72.99095898
40166;Central - Victor Orlaly / Poniente;-36.72625724;-72.99109227
40167;Central / Poniente;-36.72698006;-72.9911966
40243;Av Los Copihues - Eduardo Barrios;-36.79945501;-73.0884932
40244;Av Los Copihues - Fernando Santivan;-36.79979951;-73.09030032
40245;Av Los Copihues - Curarrehue;-36.80010382;-73.09185066
40246;Antihuala - Tulpan;-36.80022611;-73.09329345
40247;Postdam - Pilpilco;-36.7992862;-73.09651099
40248;Postdam - Napoles;-36.79646215;-73.10083971
40249;Sajonia - Frankfort;-36.79630356;-73.10389204
40250;Sajonia - Dresden;-36.79513436;-73.10574764
40251;Alemania - Postdam;-36.79436514;-73.10555365
40253;Chipre - Atenas;-36.79915851;-73.10431478
40254;Av La Reconquista;-36.80041327;-73.10386915
40268;Lastarria - Baldomero Sanchez;-36.82682603;-73.06606141
40269;Lastarria - Guillermo Mata;-36.82409663;-73.06782305
40272;Cesfam Costanera;-36.82861596;-73.06749634
40273;Costanera - Baldomero Sánchez;-36.82777372;-73.06835842
40274;Pedro León Gallo - P1;-36.82050471;-73.06698288
40275;Pedro León Gallo - P3;-36.81940427;-73.06693209
40277;Rosamel Del Solar - Jorge Montt;-36.8183559;-73.06897636
40279;Miraflores - Jorge Montt;-36.81301781;-73.07495079
40280;Pto Saavedra - Malleco;-36.80193285;-73.0811687
40281;Latorre - Pérez Rosales;-36.82521964;-73.06815357
40282;Sta María - Gabriela Mistral / Sur;-36.96492311;-72.93019352
40283;Baldomero Sánchez;-36.82800005;-73.06842
40294;Pedro León Gallo - P2;-36.82012795;-73.06709325
40299;Jose Miguel Garcia - Camilo Henriquez;-36.80793636;-73.03213637
40329;Juan De Dios Rivera - Carriel Sur;-36.80599531;-73.04505363
40330;Liceo Jorge Sanchez Ugarte;-36.80632188;-73.04572906
40331;Juan De Dios Rivera - Ainavillo;-36.80685936;-73.04717255
40332;Juan De Dios Rivera - Lautaro;-36.80760955;-73.04894692
40335;Bombero Perret - Gabriela Mistral;-36.96771457;-72.92746712
40336;Bombero Perret - Pje Estero Lircay;-36.96729527;-72.92668101
40337;Bombero Perret - Río Bio Bio;-36.96676196;-72.92556104
40338;Río Bio Bio - Pje Estero Araucana;-36.96533668;-72.92652074
40339;Río Bio Bio - Pje Río Quilacoya;-36.96482986;-72.92691637
40340;Río Bio Bio - Chile;-36.96437572;-72.92723195
40341;Río Bio Bio - Sta María;-36.96391629;-72.92776106
40342;Santa María / Norte;-36.96195067;-72.92874655
40343;Gabriela Misral - Chile;-36.9652249;-72.92941035
40344;Bahia Mansa;-36.71080707;-73.1442041
40354;Tumbes - Antofagasta;-36.7148623;-73.12517478
40355;Tumbes - Valparaiso;-36.7155646;-73.12341119
40356;Tumbes - Raquelita;-36.716343;-73.12247419
40357;Tumbes - Principal;-36.7161764;-73.11991442
40361;Banco Encalada - Maipu / Sur;-36.71245645;-73.11381413
40362;Banco Encalada / Sur;-36.71379562;-73.11186697
40363;Banco Encalada - Esmeralda / Sur;-36.71480725;-73.11029722
40444;Pque Zoológico De Concepción / Oriente;-36.84002508;-73.00682366
40539;Tumbes - Bellavista;-36.71610485;-73.11994975
40540;Tumbes - Baldomero Lara;-36.71618188;-73.12254529
40541;Tumbes - Santiago;-36.71518722;-73.12405852
40542;Tumbes - Camino A Tumbes;-36.71444941;-73.12585655
40568;Ruta 148;-36.80206295;-72.96645068
40569;Ruta 148 / Sur;-36.8012019;-72.963537
40570;Ruta 148 / Norte;-36.80038058;-72.9592662
40571;Ruta 148 / Norte;-36.80108345;-72.96398845
40584;Calle 1 - Calle 4;-36.95082333;-73.01063233
40585;Calle 1 - Pje 8;-36.95054459;-73.01013424
40586;Calle 1 - Pje 9;-36.95007965;-73.00928165
40587;Salida Terminal Las Galaxias;-36.94869499;-73.01216999
40588;Pje 8 - Calle 1;-36.94731121;-73.00865749
40592;Punta Peña Blanca;-36.71092275;-73.14526485
40593;Colegio Licanray;-36.94533851;-73.01087606
40594;Calle 1 - Calle 5;-36.94983;-73.00890633
40595;Calle 1 - Pje 6 / Norte;-36.94706648;-73.00911304
40596;Calle 1 - Pje1 / Norte;-36.94671821;-73.01091878
40597;Bdo O'Higgins - Calle 2;-36.94257475;-73.0099935
40598;Bdo O'Higgins - Calle 1;-36.94160046;-73.00994025
40599;Colegio Madre Paulina;-36.93968192;-73.01055157
40600;Manquimavida;-36.93822435;-73.0112407
40601;Bdo O'Higgins - Calle B;-36.93756294;-73.01157228
40602;B O'Higgins - Calle A;-36.93691016;-73.01188117
40603;Bdo O'Higgins - El Maitén;-36.93453966;-73.01295323
40604;Bdo O'Higgins - El Nogal / Poniente;-36.93328327;-73.01381668
40605;Bdo O'Higgins - El Nogal / Oriente;-36.93332945;-73.01388285
40606;Bdo O'Higgins - El Peral;-36.93076446;-73.01626217
40607;Bdo O'Higgins - Pinares / Oriente;-36.92947838;-73.01750799
40608;Bdo O'Higgins - Pinares / Poniente;-36.92948889;-73.01759753
40609;Bdo O'Higgins - Sta Justina / Oriente;-36.92726074;-73.01964232
